[{"placeId":"kingdom_centre","name":"Kingdom Centre","nameIt":"برج المملكة","type":"LANDMARK","lat":24.7627,"lng":46.6753,"regionId":"riyadh","regionName":"Riyadh","regionEmoji":"🏙️","image":"https://images.unsplash.com/photo-1780657432436-58c4fefcde41?ixid=M3w5NTU4NjF8MHwxfHNlYXJjaHwxfHxLaW5nZG9tJTIwQ2VudHJlJTIwdG93ZXIlMjBSaXlhZGh8ZW58MXwwfHx8MTc4NDI3OTQ0NXww&ixlib=rb-4.1.0&crop=entropy&cs=tinysrgb&fit=max&fm=jpg&q=80&w=1080"},{"placeId":"al_masmak_fort","name":"Masmak Fortress","nameIt":"قصر المصمك","type":"LANDMARK","lat":24.6436,"lng":46.7064,"regionId":"riyadh","regionName":"Riyadh","regionEmoji":"🏙️","image":"https://images.unsplash.com/photo-1674979725177-864aebe7e3d6?ixid=M3w5NTU4NjF8MHwxfHNlYXJjaHwxfHxNYXNtYWslMjBGb3J0cmVzcyUyMFJpeWFkaHxlbnwxfDB8fHwxNzg0Mjc5NDQ4fDA&ixlib=rb-4.1.0&crop=entropy&cs=tinysrgb&fit=max&fm=jpg&q=80&w=1080"},{"placeId":"national_museum","name":"Saudi National Museum","nameIt":"المتحف الوطني السعودي","type":"LANDMARK","lat":24.6588,"lng":46.7247,"regionId":"riyadh","regionName":"Riyadh","regionEmoji":"🏙️","image":"https://images.unsplash.com/photo-1674979725177-864aebe7e3d6?ixid=M3w5NTU4NjF8MHwxfHNlYXJjaHwxfHxTYXVkaSUyME5hdGlvbmFsJTIwTXVzZXVtJTIwUml5YWRofGVufDF8MHx8fDE3ODQyNzk0NTB8MA&ixlib=rb-4.1.0&crop=entropy&cs=tinysrgb&fit=max&fm=jpg&q=80&w=1080"},{"placeId":"al_diriyah","name":"At-Turaif District, Ad Diriyah","nameIt":"حي الطريف بالدرعية","type":"LANDMARK","lat":24.7285,"lng":46.5324,"regionId":"riyadh","regionName":"Riyadh","regionEmoji":"🏙️","image":"https://images.unsplash.com/photo-1782216576723-b747b437f27b?ixid=M3w5NTU4NjF8MHwxfHNlYXJjaHwxfHxBdC1UdXJhaWYlMjBBZCUyMERpcml5YWglMjBSaXlhZGh8ZW58MXwwfHx8MTc4NDI3OTQ1Mnww&ixlib=rb-4.1.0&crop=entropy&cs=tinysrgb&fit=max&fm=jpg&q=80&w=1080"},{"placeId":"king_abdulaziz_centre","name":"King Abdulaziz Centre for World Culture","nameIt":"مركز الملك عبدالعزيز للحوار الوطني","type":"LANDMARK","lat":24.7241,"lng":46.5813,"regionId":"riyadh","regionName":"Riyadh","regionEmoji":"🏙️","image":"https://images.unsplash.com/photo-1694018359679-49465b4c0d61?ixid=M3w5NTU4NjF8MHwxfHNlYXJjaHwxfHxLaW5nJTIwQWJkdWxheml6JTIwQ2VudHJlJTIwY3VsdHVyZSUyMFJpeWFkaHxlbnwxfDB8fHwxNzg0Mjc5NDU0fDA&ixlib=rb-4.1.0&crop=entropy&cs=tinysrgb&fit=max&fm=jpg&q=80&w=1080"},{"placeId":"old_town_riyadh","name":"Al Bathaa District","nameIt":"حي البطحاء","type":"LANDMARK","lat":24.65,"lng":46.71,"regionId":"riyadh","regionName":"Riyadh","regionEmoji":"🏙️"},{"placeId":"riyad_village","name":"Riyad Village","nameIt":"قرية رياض","type":"LANDMARK","lat":24.702,"lng":46.6431,"regionId":"riyadh","regionName":"Riyadh","regionEmoji":"🏙️"},{"placeId":"king_fahd_library","name":"King Fahd National Library","nameIt":"مكتبة الملك فهد الوطنية","type":"LANDMARK","lat":24.7683,"lng":46.6914,"regionId":"riyadh","regionName":"Riyadh","regionEmoji":"🏙️"},{"placeId":"faisaliah_tower","name":"Faisaliah Tower","nameIt":"برج الفيصلية","type":"LANDMARK","lat":24.7658,"lng":46.6892,"regionId":"riyadh","regionName":"Riyadh","regionEmoji":"🏙️"},{"placeId":"king_abdullah_park","name":"King Abdullah Park","nameIt":"حديقة الملك عبدالله","type":"NATURE","lat":24.725,"lng":46.605,"regionId":"riyadh","regionName":"Riyadh","regionEmoji":"🏙️","image":"https://images.unsplash.com/photo-1757774698963-b23f4b273adc?ixid=M3w5NTU4NjF8MHwxfHNlYXJjaHwxfHxLaW5nJTIwQWJkdWxsYWglMjBQYXJrJTIwUml5YWRofGVufDF8MHx8fDE3ODQyNzk0NjB8MA&ixlib=rb-4.1.0&crop=entropy&cs=tinysrgb&fit=max&fm=jpg&q=80&w=1080"},{"placeId":"edge_of_the_world","name":"Edge of the World","nameIt":"نهاية العالم","type":"NATURE","lat":24.7957,"lng":46.1356,"regionId":"riyadh","regionName":"Riyadh","regionEmoji":"🏙️","image":"https://images.unsplash.com/photo-1682687219573-3fd75f982217?ixid=M3w5NTU4NjF8MHwxfHNlYXJjaHwxfHxFZGdlJTIwb2YlMjB0aGUlMjBXb3JsZCUyMFNhdWRpJTIwQXJhYmlhfGVufDF8MHx8fDE3ODQyNzk0NjJ8MA&ixlib=rb-4.1.0&crop=entropy&cs=tinysrgb&fit=max&fm=jpg&q=80&w=1080"},{"placeId":"al_rajhi_mosque","name":"Al Rajhi Mosque","nameIt":"مسجد الراجحي","type":"LANDMARK","lat":24.7548,"lng":46.6628,"regionId":"riyadh","regionName":"Riyadh","regionEmoji":"🏙️"},{"placeId":"saudi_arabian_railway_museum","name":"Saudi Arabian Railway Museum","nameIt":"متحف السكة الحديد السعودي","type":"LANDMARK","lat":24.671,"lng":46.817,"regionId":"riyadh","regionName":"Riyadh","regionEmoji":"🏙️","image":"https://images.unsplash.com/photo-1584357748827-638d0e9470f6?ixid=M3w5NTU4NjF8MHwxfHNlYXJjaHwxfHxTYXVkaSUyMFJhaWx3YXklMjBNdXNldW0lMjBSaXlhZGh8ZW58MXwwfHx8MTc4NDI3OTQ2NXww&ixlib=rb-4.1.0&crop=entropy&cs=tinysrgb&fit=max&fm=jpg&q=80&w=1080"},{"placeId":"al_akariyah_village","name":"Al Akariyah Village","nameIt":"قرية العقارية","type":"LANDMARK","lat":24.6832,"lng":46.4832,"regionId":"riyadh","regionName":"Riyadh","regionEmoji":"🏙️"},{"placeId":"riyadh_city","name":"Riyadh","type":"CITY","lat":24.7136,"lng":46.6753,"regionId":"riyadh","regionName":"Riyadh","regionEmoji":"🏙️"},{"placeId":"masjid_al_haram","name":"Masjid al-Haram","nameIt":"المسجد الحرام","type":"LANDMARK","lat":21.4225,"lng":39.8262,"regionId":"makkah","regionName":"Makkah","regionEmoji":"🕌","image":"https://images.unsplash.com/photo-1589827577276-65d717348780?ixid=M3w5NTU4NjF8MHwxfHNlYXJjaHwxfHxNYXNqaWQlMjBhbC1IYXJhbSUyMEthYWJhfGVufDF8MHx8fDE3ODQyNzgxMzN8MA&ixlib=rb-4.1.0&crop=entropy&cs=tinysrgb&fit=max&fm=jpg&q=80&w=1080"},{"placeId":"kaaba","name":"The Kaaba","nameIt":"الكعبة","type":"LANDMARK","lat":21.4225,"lng":39.8262,"regionId":"makkah","regionName":"Makkah","regionEmoji":"🕌","image":"https://images.unsplash.com/photo-1693590614566-1d3ea9ef32f7?ixid=M3w5NTU4NjF8MHwxfHNlYXJjaHwxfHxLYWFiYSUyME1ha2thaHxlbnwxfDB8fHwxNzg0Mjc4MTM1fDA&ixlib=rb-4.1.0&crop=entropy&cs=tinysrgb&fit=max&fm=jpg&q=80&w=1080"},{"placeId":"mount_arafat","name":"Mount Arafat","nameIt":"جبل عرفات","type":"NATURE","lat":21.3566,"lng":39.9897,"regionId":"makkah","regionName":"Makkah","regionEmoji":"🕌","image":"https://images.unsplash.com/photo-1670607409952-785e81d21f01?ixid=M3w5NTU4NjF8MHwxfHNlYXJjaHwxfHxNb3VudCUyMEFyYWZhdCUyMEhhamolMjBwaWxncmltc3xlbnwxfDB8fHwxNzg0Mjc4MTM3fDA&ixlib=rb-4.1.0&crop=entropy&cs=tinysrgb&fit=max&fm=jpg&q=80&w=1080"},{"placeId":"mina_valley","name":"Mina Valley","nameIt":"منى","type":"NATURE","lat":21.4325,"lng":39.8733,"regionId":"makkah","regionName":"Makkah","regionEmoji":"🕌"},{"placeId":"muzdalifah","name":"Muzdalifah","nameIt":"مزدلفة","type":"NATURE","lat":21.3866,"lng":39.9566,"regionId":"makkah","regionName":"Makkah","regionEmoji":"🕌"},{"placeId":"jabal_nur","name":"Jabal Nur","nameIt":"جبل النور","type":"LANDMARK","lat":21.4372,"lng":39.8572,"regionId":"makkah","regionName":"Makkah","regionEmoji":"🕌"},{"placeId":"jabal_thawr","name":"Jabal Thawr","nameIt":"جبل ثور","type":"LANDMARK","lat":21.3894,"lng":39.8206,"regionId":"makkah","regionName":"Makkah","regionEmoji":"🕌"},{"placeId":"zamzam_well","name":"Zamzam Well","nameIt":"بئر زمزم","type":"LANDMARK","lat":21.4225,"lng":39.8262,"regionId":"makkah","regionName":"Makkah","regionEmoji":"🕌"},{"placeId":"abraj_al_bait","name":"Abraj Al-Bait","nameIt":"أبراج البيت","type":"LANDMARK","lat":21.4264,"lng":39.8309,"regionId":"makkah","regionName":"Makkah","regionEmoji":"🕌"},{"placeId":"masjid_aisha","name":"Masjid Aisha","nameIt":"مسجد عائشة","type":"LANDMARK","lat":21.3978,"lng":39.8639,"regionId":"makkah","regionName":"Makkah","regionEmoji":"🕌","image":"https://images.unsplash.com/photo-1780776514998-2220b58c8259?ixid=M3w5NTU4NjF8MHwxfHNlYXJjaHwxfHxNYXNqaWQlMjBBaXNoYSUyMFRhbmVlbXxlbnwxfDB8fHwxNzg0Mjc4MTQ0fDA&ixlib=rb-4.1.0&crop=entropy&cs=tinysrgb&fit=max&fm=jpg&q=80&w=1080"},{"placeId":"makkah_museum","name":"Museum of Makkah","nameIt":"متحف مكة المكرمة","type":"LANDMARK","lat":21.4239,"lng":39.8356,"regionId":"makkah","regionName":"Makkah","regionEmoji":"🕌"},{"placeId":"ajyad_fortress","name":"Ajyad Fortress","nameIt":"حصن أجياد","type":"LANDMARK","lat":21.4239,"lng":39.8309,"regionId":"makkah","regionName":"Makkah","regionEmoji":"🕌","image":"https://images.unsplash.com/photo-1553755088-ef1973c7b4a1?ixid=M3w5NTU4NjF8MHwxfHNlYXJjaHwxfHxBanlhZCUyMEZvcnRyZXNzJTIwTWFra2FofGVufDF8MHx8fDE3ODQyNzgxNDh8MA&ixlib=rb-4.1.0&crop=entropy&cs=tinysrgb&fit=max&fm=jpg&q=80&w=1080"},{"placeId":"al_misfalah","name":"Al-Misfalah","nameIt":"المصفلح","type":"LANDMARK","lat":21.4453,"lng":39.8636,"regionId":"makkah","regionName":"Makkah","regionEmoji":"🕌","image":"https://images.unsplash.com/photo-1693590614566-1d3ea9ef32f7?ixid=M3w5NTU4NjF8MHwxfHNlYXJjaHwxfHxBbC1NaXNmYWxhaCUyME1ha2thaHxlbnwxfDB8fHwxNzg0Mjc4MTUwfDA&ixlib=rb-4.1.0&crop=entropy&cs=tinysrgb&fit=max&fm=jpg&q=80&w=1080"},{"placeId":"makkah_city","name":"Makkah","type":"CITY","lat":21.4225,"lng":39.8262,"regionId":"makkah","regionName":"Makkah","regionEmoji":"🕌"},{"placeId":"jeddah_city","name":"Jeddah","type":"CITY","lat":21.5433,"lng":39.1728,"regionId":"makkah","regionName":"Makkah","regionEmoji":"🕌"},{"placeId":"taif_city","name":"Taif","type":"CITY","lat":21.2708,"lng":40.4158,"regionId":"makkah","regionName":"Makkah","regionEmoji":"🕌"},{"placeId":"al_masjid_al_nabawi","name":"Al-Masjid Al-Nabawi (The Prophet's Mosque)","nameIt":"المسجد النبوي","type":"LANDMARK","lat":24.4744,"lng":39.6068,"regionId":"madinah","regionName":"Madinah","regionEmoji":"✨","image":"https://images.unsplash.com/photo-1692977579997-948328cdb7d2?ixid=M3w5NTU4NjF8MHwxfHNlYXJjaHwxfHxBbC1NYXNqaWQlMjBBbC1OYWJhd2klMjBncmVlbiUyMGRvbWV8ZW58MXwwfHx8MTc4NDI4MDA1Nnww&ixlib=rb-4.1.0&crop=entropy&cs=tinysrgb&fit=max&fm=jpg&q=80&w=1080"},{"placeId":"mount_uhud","name":"Mount Uhud","nameIt":"جبل أحد","type":"LANDMARK","lat":24.4378,"lng":39.6614,"regionId":"madinah","regionName":"Madinah","regionEmoji":"✨"},{"placeId":"baqi_cemetery","name":"Al-Baqi Cemetery","nameIt":"البقيع","type":"LANDMARK","lat":24.4725,"lng":39.6104,"regionId":"madinah","regionName":"Madinah","regionEmoji":"✨"},{"placeId":"quba_mosque","name":"Quba Mosque","nameIt":"مسجد قباء","type":"LANDMARK","lat":24.3958,"lng":39.6083,"regionId":"madinah","regionName":"Madinah","regionEmoji":"✨"},{"placeId":"masjid_qiblatain","name":"Masjid Al-Qiblatain","nameIt":"مسجد القبلتين","type":"LANDMARK","lat":24.4861,"lng":39.5939,"regionId":"madinah","regionName":"Madinah","regionEmoji":"✨","image":"https://images.unsplash.com/photo-1696691907697-1293552cb22a?ixid=M3w5NTU4NjF8MHwxfHNlYXJjaHwxfHxNYXNqaWQlMjBBbC1RaWJsYXRhaW4lMjB0d28lMjBxaWJsYXN8ZW58MXwwfHx8MTc4NDI4MDA2MXww&ixlib=rb-4.1.0&crop=entropy&cs=tinysrgb&fit=max&fm=jpg&q=80&w=1080"},{"placeId":"al_ohud_museum","name":"Al-Ohud Battle Museum","nameIt":"متحف غزوة أحد","type":"LANDMARK","lat":24.4378,"lng":39.6614,"regionId":"madinah","regionName":"Madinah","regionEmoji":"✨"},{"placeId":"grove_of_dates","name":"Date Palm Groves","nameIt":"نخيل المدينة","type":"NATURE","lat":24.47,"lng":39.62,"regionId":"madinah","regionName":"Madinah","regionEmoji":"✨"},{"placeId":"masjid_ghamama","name":"Masjid Al-Ghamama","nameIt":"مسجد الغمامة","type":"LANDMARK","lat":24.5089,"lng":39.5678,"regionId":"madinah","regionName":"Madinah","regionEmoji":"✨"},{"placeId":"jannat_al_baqi","name":"Jannat Al-Baqi Gardens","nameIt":"جنات البقيع","type":"NATURE","lat":24.4725,"lng":39.6104,"regionId":"madinah","regionName":"Madinah","regionEmoji":"✨"},{"placeId":"masjid_ali","name":"Masjid Ali (The Mosque of Ali)","nameIt":"مسجد علي","type":"LANDMARK","lat":24.4911,"lng":39.6025,"regionId":"madinah","regionName":"Madinah","regionEmoji":"✨"},{"placeId":"uhud_valley","name":"Valley of Uhud","nameIt":"وادي أحد","type":"NATURE","lat":24.4378,"lng":39.6614,"regionId":"madinah","regionName":"Madinah","regionEmoji":"✨"},{"placeId":"masjid_abu_bakr","name":"Masjid Abu Bakr","nameIt":"مسجد أبو بكر","type":"LANDMARK","lat":24.4822,"lng":39.5956,"regionId":"madinah","regionName":"Madinah","regionEmoji":"✨"},{"placeId":"madinah_city","name":"Madinah","type":"CITY","lat":24.4672,"lng":39.6024,"regionId":"madinah","regionName":"Madinah","regionEmoji":"✨"},{"placeId":"khobar","name":"Khobar","nameIt":"الخبر","type":"CITY","lat":26.1428,"lng":50.2059,"regionId":"eastern_province","regionName":"Eastern Province","regionEmoji":"🛢️"},{"placeId":"dhahran","name":"Dhahran","nameIt":"الظهران","type":"CITY","lat":26.1393,"lng":50.1388,"regionId":"eastern_province","regionName":"Eastern Province","regionEmoji":"🛢️"},{"placeId":"dammam","name":"Dammam","nameIt":"الدمام","type":"CITY","lat":26.4305,"lng":50.1017,"regionId":"eastern_province","regionName":"Eastern Province","regionEmoji":"🛢️"},{"placeId":"saudi_aramco_museum","name":"Saudi Aramco Exhibition","nameIt":"معرض أرامكو السعودية","type":"LANDMARK","lat":26.1435,"lng":50.1382,"regionId":"eastern_province","regionName":"Eastern Province","regionEmoji":"🛢️"},{"placeId":"half_moon_bay","name":"Half Moon Bay","nameIt":"خليج نصف القمر","type":"COASTAL","lat":26.1197,"lng":50.3644,"regionId":"eastern_province","regionName":"Eastern Province","regionEmoji":"🛢️"},{"placeId":"corniche_khobar","name":"Khobar Corniche","nameIt":"كورنيش الخبر","type":"COASTAL","lat":26.1328,"lng":50.2116,"regionId":"eastern_province","regionName":"Eastern Province","regionEmoji":"🛢️","image":"https://images.unsplash.com/photo-1640651660791-74d4f39116c8?ixid=M3w5NTU4NjF8MHwxfHNlYXJjaHwxfHxLaG9iYXIlMjBDb3JuaWNoZSUyMHdhdGVyZnJvbnQlMjBwcm9tZW5hZGV8ZW58MXwwfHx8MTc4NDI3OTQ1NHww&ixlib=rb-4.1.0&crop=entropy&cs=tinysrgb&fit=max&fm=jpg&q=80&w=1080"},{"placeId":"king_fahd_park","name":"King Fahd Park","nameIt":"حديقة الملك فهد","type":"LANDMARK","lat":26.1286,"lng":50.1925,"regionId":"eastern_province","regionName":"Eastern Province","regionEmoji":"🛢️","image":"https://images.unsplash.com/photo-1633002979187-68b5e808111c?ixid=M3w5NTU4NjF8MHwxfHNlYXJjaHwxfHxLaW5nJTIwRmFoZCUyMFBhcmslMjBLaG9iYXJ8ZW58MXwwfHx8MTc4NDI3OTQ1Nnww&ixlib=rb-4.1.0&crop=entropy&cs=tinysrgb&fit=max&fm=jpg&q=80&w=1080"},{"placeId":"al_khobar_souq","name":"Al Khobar Souq","nameIt":"سوق الخبر","type":"LANDMARK","lat":26.1445,"lng":50.2023,"regionId":"eastern_province","regionName":"Eastern Province","regionEmoji":"🛢️"},{"placeId":"tarut_island","name":"Tarut Island","nameIt":"جزيرة تاروت","type":"ISLAND","lat":26.1303,"lng":50.0478,"regionId":"eastern_province","regionName":"Eastern Province","regionEmoji":"🛢️"},{"placeId":"jubail_industrial_city","name":"Jubail Industrial City","nameIt":"مدينة الجبيل الصناعية","type":"CITY","lat":27.0088,"lng":49.6508,"regionId":"eastern_province","regionName":"Eastern Province","regionEmoji":"🛢️","image":"https://images.unsplash.com/photo-1516937941344-00b4e0337589?ixid=M3w5NTU4NjF8MHwxfHNlYXJjaHwxfHxKdWJhaWwlMjBJbmR1c3RyaWFsJTIwQ2l0eSUyMHBldHJvY2hlbWljYWwlMjBjb21wbGV4fGVufDF8MHx8fDE3ODQyNzk0NjB8MA&ixlib=rb-4.1.0&crop=entropy&cs=tinysrgb&fit=max&fm=jpg&q=80&w=1080"},{"placeId":"jubail_corniche","name":"Jubail Corniche","nameIt":"كورنيش الجبيل","type":"COASTAL","lat":27.0041,"lng":49.6626,"regionId":"eastern_province","regionName":"Eastern Province","regionEmoji":"🛢️","image":"https://images.unsplash.com/photo-1763377220339-de687c3efad4?ixid=M3w5NTU4NjF8MHwxfHNlYXJjaHwxfHxKdWJhaWwlMjBDb3JuaWNoZSUyMHdhdGVyZnJvbnR8ZW58MXwwfHx8MTc4NDI3OTQ2Mnww&ixlib=rb-4.1.0&crop=entropy&cs=tinysrgb&fit=max&fm=jpg&q=80&w=1080"},{"placeId":"qatif_city","name":"Qatif","nameIt":"القطيف","type":"CITY","lat":26.1767,"lng":50.0227,"regionId":"eastern_province","regionName":"Eastern Province","regionEmoji":"🛢️","image":"https://images.unsplash.com/photo-1764685808722-f677a101ce8d?ixid=M3w5NTU4NjF8MHwxfHNlYXJjaHwxfHxRYXRpZiUyMG9sZCUyMHRvd24lMjB0cmFkaXRpb25hbCUyMGFyY2hpdGVjdHVyZXxlbnwxfDB8fHwxNzg0Mjc5NDY0fDA&ixlib=rb-4.1.0&crop=entropy&cs=tinysrgb&fit=max&fm=jpg&q=80&w=1080"},{"placeId":"al_nakheel_mall","name":"Al Nakheel Mall","nameIt":"مول النخيل","type":"LANDMARK","lat":26.1467,"lng":50.1967,"regionId":"eastern_province","regionName":"Eastern Province","regionEmoji":"🛢️"},{"placeId":"al_khobar_city","name":"Al-Khobar","type":"CITY","lat":26.1547,"lng":50.1957,"regionId":"eastern_province","regionName":"Eastern Province","regionEmoji":"🛢️"},{"placeId":"abha","name":"Abha","nameIt":"أبها","type":"CITY","lat":18.2164,"lng":42.5053,"regionId":"asir","regionName":"Asir","regionEmoji":"⛰️"},{"placeId":"souda_pass","name":"Soudan Pass","nameIt":"جبل السودة","type":"LANDMARK","lat":18.2742,"lng":42.3533,"regionId":"asir","regionName":"Asir","regionEmoji":"⛰️"},{"placeId":"khamis_mushayt","name":"Khamis Mushayt","nameIt":"خميس مشيط","type":"CITY","lat":18.3045,"lng":42.7421,"regionId":"asir","regionName":"Asir","regionEmoji":"⛰️"},{"placeId":"al_hada_mountain","name":"Al-Hada Mountain Village","nameIt":"قرية الهدا","type":"VILLAGE","lat":18.5,"lng":42.5333,"regionId":"asir","regionName":"Asir","regionEmoji":"⛰️"},{"placeId":"tanouma_village","name":"Tanouma Village","nameIt":"قرية ثنومة","type":"VILLAGE","lat":18.4167,"lng":42.45,"regionId":"asir","regionName":"Asir","regionEmoji":"⛰️"},{"placeId":"habala_village","name":"Habala","nameIt":"هبلة","type":"VILLAGE","lat":18.4333,"lng":42.6167,"regionId":"asir","regionName":"Asir","regionEmoji":"⛰️"},{"placeId":"abha_dam","name":"Abha Dam","nameIt":"سد أبها","type":"LANDMARK","lat":18.2667,"lng":42.5167,"regionId":"asir","regionName":"Asir","regionEmoji":"⛰️"},{"placeId":"rijal_almaa","name":"Rijal Almaa","nameIt":"رجال ألمع","type":"TOWN","lat":17.1167,"lng":42.45,"regionId":"asir","regionName":"Asir","regionEmoji":"⛰️"},{"placeId":"al_sawda_escarpment","name":"Al-Sawda Escarpment","nameIt":"جرف السودة","type":"NATURE","lat":18.27,"lng":42.35,"regionId":"asir","regionName":"Asir","regionEmoji":"⛰️"},{"placeId":"ahad_rufaidah","name":"Ahad Rufaidah","nameIt":"أحد رفيدة","type":"TOWN","lat":18.1,"lng":42.5833,"regionId":"asir","regionName":"Asir","regionEmoji":"⛰️"},{"placeId":"khobar_souda","name":"Khobar Souda","nameIt":"خبار السودة","type":"LANDMARK","lat":18.2917,"lng":42.3583,"regionId":"asir","regionName":"Asir","regionEmoji":"⛰️"},{"placeId":"wadi_wadi","name":"Wadi Wadi","nameIt":"واد واد","type":"NATURE","lat":18.05,"lng":42.6667,"regionId":"asir","regionName":"Asir","regionEmoji":"⛰️"},{"placeId":"jizan_city","name":"Jizan City","nameIt":"جازان","type":"CITY","lat":16.8892,"lng":42.5521,"regionId":"jizan","regionName":"Jizan","regionEmoji":"🌊"},{"placeId":"farasan_islands","name":"Farasan Islands","nameIt":"جزر فرسان","type":"ISLAND","lat":16.6667,"lng":41.9667,"regionId":"jizan","regionName":"Jizan","regionEmoji":"🌊"},{"placeId":"abu_arish","name":"Abu Arish","nameIt":"أبو عريش","type":"TOWN","lat":16.8206,"lng":42.6892,"regionId":"jizan","regionName":"Jizan","regionEmoji":"🌊"},{"placeId":"sabya","name":"Sabya","nameIt":"صبيا","type":"TOWN","lat":16.7628,"lng":42.4453,"regionId":"jizan","regionName":"Jizan","regionEmoji":"🌊"},{"placeId":"jizan_corniche","name":"Jizan Corniche","nameIt":"كورنيش جازان","type":"COASTAL","lat":16.8956,"lng":42.5656,"regionId":"jizan","regionName":"Jizan","regionEmoji":"🌊"},{"placeId":"wadi_liyah","name":"Wadi Liyah","nameIt":"وادي لية","type":"NATURE","lat":16.9456,"lng":42.7123,"regionId":"jizan","regionName":"Jizan","regionEmoji":"🌊"},{"placeId":"al_dayer_village","name":"Al-Dayer","nameIt":"الديرة","type":"VILLAGE","lat":17.0456,"lng":42.6234,"regionId":"jizan","regionName":"Jizan","regionEmoji":"🌊"},{"placeId":"al_qunfudhah_coast","name":"Al-Qunfudhah Coastal Area","nameIt":"منطقة القنفذة الساحلية","type":"COASTAL","lat":16.7089,"lng":42.7345,"regionId":"jizan","regionName":"Jizan","regionEmoji":"🌊"},{"placeId":"jizan_old_market","name":"Jizan Old Market (Souq)","nameIt":"سوق جازان القديم","type":"LANDMARK","lat":16.8856,"lng":42.5634,"regionId":"jizan","regionName":"Jizan","regionEmoji":"🌊"},{"placeId":"hayel_asir","name":"Hayel (Entry to Asir Region)","nameIt":"حائل","type":"TOWN","lat":17.1456,"lng":42.5123,"regionId":"jizan","regionName":"Jizan","regionEmoji":"🌊"},{"placeId":"najran_city","name":"Najran City","nameIt":"نجران","type":"CITY","lat":17.4938,"lng":44.126,"regionId":"najran","regionName":"Najran","regionEmoji":"🏜️"},{"placeId":"ain_zarah","name":"Ain Zarah","nameIt":"عين زراح","type":"NATURE","lat":17.47,"lng":44.205,"regionId":"najran","regionName":"Najran","regionEmoji":"🏜️"},{"placeId":"palace_of_imam_muhammad","name":"Palace of Imam Muhammad bin Abdullah","nameIt":"قصر الإمام محمد بن عبدالله","type":"LANDMARK","lat":17.485,"lng":44.138,"regionId":"najran","regionName":"Najran","regionEmoji":"🏜️"},{"placeId":"heritage_museum","name":"Najran Heritage Museum","nameIt":"متحف نجران للتراث","type":"LANDMARK","lat":17.492,"lng":44.124,"regionId":"najran","regionName":"Najran","regionEmoji":"🏜️"},{"placeId":"wadi_rimah","name":"Wadi Rimah","nameIt":"وادي ريماح","type":"NATURE","lat":17.32,"lng":44.08,"regionId":"najran","regionName":"Najran","regionEmoji":"🏜️"},{"placeId":"old_town_najran","name":"Old Town Najran","nameIt":"البلد القديم نجران","type":"LANDMARK","lat":17.488,"lng":44.132,"regionId":"najran","regionName":"Najran","regionEmoji":"🏜️"},{"placeId":"asir_border","name":"Asir Mountain Range","nameIt":"جبال عسير","type":"NATURE","lat":17.25,"lng":43.78,"regionId":"najran","regionName":"Najran","regionEmoji":"🏜️"},{"placeId":"najran_souk","name":"Najran Central Souk","nameIt":"سوق نجران المركزي","type":"LANDMARK","lat":17.49,"lng":44.127,"regionId":"najran","regionName":"Najran","regionEmoji":"🏜️"},{"placeId":"sharah","name":"Sharah","nameIt":"شراه","type":"TOWN","lat":16.92,"lng":44.28,"regionId":"najran","regionName":"Najran","regionEmoji":"🏜️"},{"placeId":"yalamlam","name":"Yalamlam","nameIt":"يلملم","type":"LANDMARK","lat":17.85,"lng":44.32,"regionId":"najran","regionName":"Najran","regionEmoji":"🏜️"},{"placeId":"wadi_dawasir_area","name":"Wadi Dawasir Region","nameIt":"منطقة وادي الدواسر","type":"NATURE","lat":17.68,"lng":43.95,"regionId":"najran","regionName":"Najran","regionEmoji":"🏜️"},{"placeId":"arar","name":"Arar","nameIt":"عرعر","type":"CITY","lat":31.9454,"lng":41.0287,"regionId":"northern_borders","regionName":"Northern Borders","regionEmoji":"🌵"},{"placeId":"safwan_border","name":"Safwan Border Crossing","nameIt":"منفذ سفوان","type":"LANDMARK","lat":29.9833,"lng":47.8167,"regionId":"northern_borders","regionName":"Northern Borders","regionEmoji":"🌵"},{"placeId":"jawf_region","name":"Al-Jawf Province (Border Region)","nameIt":"منطقة الجوف","type":"NATURE","lat":30.7865,"lng":40.4128,"regionId":"northern_borders","regionName":"Northern Borders","regionEmoji":"🌵"},{"placeId":"turaif","name":"Turaif","nameIt":"الطريف","type":"TOWN","lat":32.2167,"lng":41.7167,"regionId":"northern_borders","regionName":"Northern Borders","regionEmoji":"🌵"},{"placeId":"artawiyah","name":"Artawiyah","nameIt":"ارطاوية","type":"TOWN","lat":31.4667,"lng":41.5,"regionId":"northern_borders","regionName":"Northern Borders","regionEmoji":"🌵"},{"placeId":"sabkhat_fasl","name":"Sabkhat Al-Fasl","nameIt":"سبخة الفصل","type":"NATURE","lat":30.5,"lng":41,"regionId":"northern_borders","regionName":"Northern Borders","regionEmoji":"🌵"},{"placeId":"dibdibah","name":"Dibdibah Desert","nameIt":"صحراء الدبدبة","type":"NATURE","lat":31,"lng":42,"regionId":"northern_borders","regionName":"Northern Borders","regionEmoji":"🌵"},{"placeId":"arar_souk","name":"Arar Traditional Souk","nameIt":"سوق عرعر","type":"LANDMARK","lat":31.9454,"lng":41.0287,"regionId":"northern_borders","regionName":"Northern Borders","regionEmoji":"🌵"},{"placeId":"rajajil_stones","name":"Rajajil Standing Stones","nameIt":"حجارة الرجاجيل","type":"LANDMARK","lat":31.7833,"lng":41.1833,"regionId":"northern_borders","regionName":"Northern Borders","regionEmoji":"🌵"},{"placeId":"umm_jirsan","name":"Umm Jirsan","nameIt":"أم جرسان","type":"NATURE","lat":31.5,"lng":40.8,"regionId":"northern_borders","regionName":"Northern Borders","regionEmoji":"🌵"},{"placeId":"shubaitat_castle","name":"Shubaitat Castle Ruins","nameIt":"آثار قلعة شبيتات","type":"LANDMARK","lat":31.8,"lng":41.3,"regionId":"northern_borders","regionName":"Northern Borders","regionEmoji":"🌵"},{"placeId":"riyadh_qassim_gateway","name":"Buraydah","nameIt":"بريدة","type":"CITY","lat":26.3263,"lng":43.975,"regionId":"qassim","regionName":"Qassim","regionEmoji":"🌴"},{"placeId":"date_palm_capital","name":"Al-Rass","nameIt":"الرس","type":"TOWN","lat":26.1089,"lng":43.4769,"regionId":"qassim","regionName":"Qassim","regionEmoji":"🌴"},{"placeId":"historic_oasis","name":"Unayzah","nameIt":"عنيزة","type":"TOWN","lat":26.0819,"lng":43.9861,"regionId":"qassim","regionName":"Qassim","regionEmoji":"🌴"},{"placeId":"northern_gateway","name":"Qassim Region Museum","nameIt":"متحف منطقة القصيم","type":"LANDMARK","lat":26.3235,"lng":43.9765,"regionId":"qassim","regionName":"Qassim","regionEmoji":"🌴"},{"placeId":"royal_palace","name":"Imam Muhammad Palace","nameIt":"قصر الإمام محمد","type":"LANDMARK","lat":26.3289,"lng":43.9642,"regionId":"qassim","regionName":"Qassim","regionEmoji":"🌴"},{"placeId":"desert_escarpment","name":"Tuwayq Escarpment","nameIt":"حافة التويق","type":"NATURE","lat":26.2,"lng":43.5,"regionId":"qassim","regionName":"Qassim","regionEmoji":"🌴"},{"placeId":"artisan_center","name":"Al-Kharj Heritage Market","nameIt":"سوق الخرج للتراث","type":"LANDMARK","lat":26.1538,"lng":43.9465,"regionId":"qassim","regionName":"Qassim","regionEmoji":"🌴"},{"placeId":"greenspace_recreation","name":"Prince Abdul Aziz Bin Abdulrahman Park","nameIt":"متنزه الأمير عبدالعزيز بن عبدالرحمن","type":"NATURE","lat":26.3154,"lng":43.9834,"regionId":"qassim","regionName":"Qassim","regionEmoji":"🌴"},{"placeId":"agricultural_showcase","name":"Al-Hauta","nameIt":"الحوطة","type":"TOWN","lat":25.6558,"lng":43.6753,"regionId":"qassim","regionName":"Qassim","regionEmoji":"🌴"},{"placeId":"eastern_outpost","name":"Riyadh Road (Eastern Qassim)","nameIt":"طريق الرياض","type":"NATURE","lat":26,"lng":44.5,"regionId":"qassim","regionName":"Qassim","regionEmoji":"🌴"},{"placeId":"hail_city","name":"Ha'il City","nameIt":"حائل","type":"CITY","lat":27.521,"lng":41.7208,"regionId":"hail","regionName":"Ha'il","regionEmoji":"🎨"},{"placeId":"jabal_qarah","name":"Jabal Qarah","nameIt":"جبل قارة","type":"NATURE","lat":26.1667,"lng":41.9667,"regionId":"hail","regionName":"Ha'il","regionEmoji":"🎨"},{"placeId":"islamic_fort_hail","name":"A'arif Fort","nameIt":"حصن عريف","type":"LANDMARK","lat":27.528,"lng":41.735,"regionId":"hail","regionName":"Ha'il","regionEmoji":"🎨"},{"placeId":"hail_museum","name":"Ha'il Regional Museum","nameIt":"متحف حائل الإقليمي","type":"LANDMARK","lat":27.5235,"lng":41.7225,"regionId":"hail","regionName":"Ha'il","regionEmoji":"🎨"},{"placeId":"samhan_village","name":"Samhan","nameIt":"سمحان","type":"VILLAGE","lat":27.3333,"lng":41.6667,"regionId":"hail","regionName":"Ha'il","regionEmoji":"🎨"},{"placeId":"buraydah_road","name":"Buraydah Road Scenic Route","nameIt":"طريق بريدة","type":"NATURE","lat":27,"lng":41.5,"regionId":"hail","regionName":"Ha'il","regionEmoji":"🎨"},{"placeId":"qaisumah_border","name":"Qaisumah","nameIt":"القيصومة","type":"TOWN","lat":28.305,"lng":46.12,"regionId":"hail","regionName":"Ha'il","regionEmoji":"🎨"},{"placeId":"khaybar_oasis","name":"Khaybar Oasis","nameIt":"خيبر","type":"NATURE","lat":25.5,"lng":40.5,"regionId":"hail","regionName":"Ha'il","regionEmoji":"🎨"},{"placeId":"jawf_region","name":"Jawf Region","nameIt":"الجوف","type":"NATURE","lat":29.7833,"lng":40.4667,"regionId":"hail","regionName":"Ha'il","regionEmoji":"🎨"},{"placeId":"tabuk_city","name":"Tabuk City","nameIt":"تبوك","type":"CITY","lat":28.3904,"lng":36.556,"regionId":"tabuk","regionName":"Tabuk","regionEmoji":"🏖️"},{"placeId":"gulf_aqaba","name":"Gulf of Aqaba Coastal Areas","nameIt":"خليج العقبة","type":"COASTAL","lat":29.5,"lng":34.9,"regionId":"tabuk","regionName":"Tabuk","regionEmoji":"🏖️"},{"placeId":"darat_al_madafah","name":"Darat Al Madafah","nameIt":"دارة المضافة","type":"LANDMARK","lat":28.385,"lng":36.55,"regionId":"tabuk","regionName":"Tabuk","regionEmoji":"🏖️"},{"placeId":"al_wajh","name":"Al Wajh","nameIt":"الوجه","type":"COASTAL","lat":26.2061,"lng":36.4736,"regionId":"tabuk","regionName":"Tabuk","regionEmoji":"🏖️"},{"placeId":"neom_area","name":"NEOM Region","nameIt":"نيوم","type":"LANDMARK","lat":27.1699,"lng":34.6413,"regionId":"tabuk","regionName":"Tabuk","regionEmoji":"🏖️"},{"placeId":"tabuk_castle","name":"Tabuk Castle","nameIt":"قلعة تبوك","type":"LANDMARK","lat":28.39,"lng":36.558,"regionId":"tabuk","regionName":"Tabuk","regionEmoji":"🏖️"},{"placeId":"durrat_al_nakheel","name":"Durrat Al Nakheel","nameIt":"درة النخيل","type":"COASTAL","lat":28.25,"lng":35.65,"regionId":"tabuk","regionName":"Tabuk","regionEmoji":"🏖️"},{"placeId":"haql_town","name":"Haql","nameIt":"حقل","type":"TOWN","lat":29.75,"lng":34.7333,"regionId":"tabuk","regionName":"Tabuk","regionEmoji":"🏖️"},{"placeId":"tima_town","name":"Tima","nameIt":"تيماء","type":"TOWN","lat":28.22,"lng":37.35,"regionId":"tabuk","regionName":"Tabuk","regionEmoji":"🏖️"},{"placeId":"al_bida_beach","name":"Al Bida Beach","nameIt":"شاطئ البدعة","type":"COASTAL","lat":28.45,"lng":35.3,"regionId":"tabuk","regionName":"Tabuk","regionEmoji":"🏖️"},{"placeId":"saudi_parks","name":"Tabuk Parks and Gardens","nameIt":"حدائق تبوك","type":"NATURE","lat":28.39,"lng":36.56,"regionId":"tabuk","regionName":"Tabuk","regionEmoji":"🏖️"},{"placeId":"al_ula_site","name":"Al-Ula","type":"SITE","lat":26.5898,"lng":37.9287,"regionId":"tabuk","regionName":"Tabuk","regionEmoji":"🏖️"}]