[
  {
    "placeId": "gamla_stan",
    "name": "Gamla Stan",
    "nameIt": "Gamla Stan",
    "type": "LANDMARK",
    "lat": 59.3293,
    "lng": 18.0736,
    "regionId": "stockholm",
    "regionName": "Stockholm",
    "regionEmoji": "🏛️"
  },
  {
    "placeId": "vasa_museum",
    "name": "Vasa Museum",
    "nameIt": "Vasamuseet",
    "type": "LANDMARK",
    "lat": 59.3294,
    "lng": 18.091,
    "regionId": "stockholm",
    "regionName": "Stockholm",
    "regionEmoji": "🏛️"
  },
  {
    "placeId": "drottningholm_palace",
    "name": "Drottningholm Palace",
    "nameIt": "Drottningholms slott",
    "type": "LANDMARK",
    "lat": 59.3308,
    "lng": 17.8946,
    "regionId": "stockholm",
    "regionName": "Stockholm",
    "regionEmoji": "🏛️"
  },
  {
    "placeId": "skansen",
    "name": "Skansen",
    "nameIt": "Skansen",
    "type": "NATURE",
    "lat": 59.3294,
    "lng": 18.1163,
    "regionId": "stockholm",
    "regionName": "Stockholm",
    "regionEmoji": "🏛️"
  },
  {
    "placeId": "djurgarden",
    "name": "Djurgården",
    "nameIt": "Djurgården",
    "type": "ISLAND",
    "lat": 59.3261,
    "lng": 18.1062,
    "regionId": "stockholm",
    "regionName": "Stockholm",
    "regionEmoji": "🏛️"
  },
  {
    "placeId": "royal_palace",
    "name": "Royal Palace",
    "nameIt": "Stockholms slott",
    "type": "LANDMARK",
    "lat": 59.3274,
    "lng": 18.0736,
    "regionId": "stockholm",
    "regionName": "Stockholm",
    "regionEmoji": "🏛️"
  },
  {
    "placeId": "city_hall",
    "name": "Stockholm City Hall",
    "nameIt": "Stockholms stadshus",
    "type": "LANDMARK",
    "lat": 59.3274,
    "lng": 18.0536,
    "regionId": "stockholm",
    "regionName": "Stockholm",
    "regionEmoji": "🏛️"
  },
  {
    "placeId": "abba_museum",
    "name": "ABBA The Museum",
    "nameIt": "ABBA The Museum",
    "type": "LANDMARK",
    "lat": 59.3294,
    "lng": 18.091,
    "regionId": "stockholm",
    "regionName": "Stockholm",
    "regionEmoji": "🏛️"
  },
  {
    "placeId": "stockholm_archipelago",
    "name": "Stockholm Archipelago",
    "nameIt": "Stockholm skärgård",
    "type": "COASTAL",
    "lat": 59.2769,
    "lng": 18.3968,
    "regionId": "stockholm",
    "regionName": "Stockholm",
    "regionEmoji": "🏛️"
  },
  {
    "placeId": "nordiska_museet",
    "name": "Nordic Museum",
    "nameIt": "Nordiska museet",
    "type": "LANDMARK",
    "lat": 59.3294,
    "lng": 18.1008,
    "regionId": "stockholm",
    "regionName": "Stockholm",
    "regionEmoji": "🏛️"
  },
  {
    "placeId": "fotografiska",
    "name": "Fotografiska",
    "nameIt": "Fotografiska",
    "type": "LANDMARK",
    "lat": 59.3199,
    "lng": 18.0825,
    "regionId": "stockholm",
    "regionName": "Stockholm",
    "regionEmoji": "🏛️"
  },
  {
    "placeId": "vaxholm",
    "name": "Vaxholm",
    "nameIt": "Vaxholm",
    "type": "TOWN",
    "lat": 59.4061,
    "lng": 18.353,
    "regionId": "stockholm",
    "regionName": "Stockholm",
    "regionEmoji": "🏛️"
  },
  {
    "placeId": "drottning_victoria",
    "name": "Queen Victoria Island",
    "nameIt": "Drottning Victorias väg",
    "type": "ISLAND",
    "lat": 59.3356,
    "lng": 18.1178,
    "regionId": "stockholm",
    "regionName": "Stockholm",
    "regionEmoji": "🏛️"
  },
  {
    "placeId": "millesgarden",
    "name": "Millesgården",
    "nameIt": "Millesgården",
    "type": "LANDMARK",
    "lat": 59.3333,
    "lng": 18.1667,
    "regionId": "stockholm",
    "regionName": "Stockholm",
    "regionEmoji": "🏛️"
  },
  {
    "placeId": "uppsala_city",
    "name": "Uppsala",
    "nameIt": "Uppsala",
    "type": "CITY",
    "lat": 59.8586,
    "lng": 17.6389,
    "regionId": "uppsala_gavleborg",
    "regionName": "Uppsala and Gävleborg",
    "regionEmoji": "🏰"
  },
  {
    "placeId": "gavle_city",
    "name": "Gävle",
    "nameIt": "Gävle",
    "type": "CITY",
    "lat": 60.6744,
    "lng": 17.141,
    "regionId": "uppsala_gavleborg",
    "regionName": "Uppsala and Gävleborg",
    "regionEmoji": "🏰"
  },
  {
    "placeId": "gamla_uppsala",
    "name": "Gamla Uppsala",
    "nameIt": "Gamla Uppsala",
    "type": "LANDMARK",
    "lat": 59.8958,
    "lng": 17.6456,
    "regionId": "uppsala_gavleborg",
    "regionName": "Uppsala and Gävleborg",
    "regionEmoji": "🏰"
  },
  {
    "placeId": "uppsala_castle",
    "name": "Uppsala Castle",
    "nameIt": "Uppsala Slott",
    "type": "LANDMARK",
    "lat": 59.8516,
    "lng": 17.6475,
    "regionId": "uppsala_gavleborg",
    "regionName": "Uppsala and Gävleborg",
    "regionEmoji": "🏰"
  },
  {
    "placeId": "sigtuna",
    "name": "Sigtuna",
    "nameIt": "Sigtuna",
    "type": "TOWN",
    "lat": 59.6267,
    "lng": 17.7075,
    "regionId": "uppsala_gavleborg",
    "regionName": "Uppsala and Gävleborg",
    "regionEmoji": "🏰"
  },
  {
    "placeId": "uppsala_university_museum",
    "name": "University Museum of Uppsala",
    "nameIt": "Uppsala Universitetsmuseum",
    "type": "LANDMARK",
    "lat": 59.8608,
    "lng": 17.644,
    "regionId": "uppsala_gavleborg",
    "regionName": "Uppsala and Gävleborg",
    "regionEmoji": "🏰"
  },
  {
    "placeId": "gavle_radhus",
    "name": "Gävle Town Hall",
    "nameIt": "Gävle Rådhus",
    "type": "LANDMARK",
    "lat": 60.6748,
    "lng": 17.142,
    "regionId": "uppsala_gavleborg",
    "regionName": "Uppsala and Gävleborg",
    "regionEmoji": "🏰"
  },
  {
    "placeId": "furuviksparken",
    "name": "Furuviksparken",
    "nameIt": "Furuviksparken",
    "type": "NATURE",
    "lat": 60.6389,
    "lng": 17.0667,
    "regionId": "uppsala_gavleborg",
    "regionName": "Uppsala and Gävleborg",
    "regionEmoji": "🏰"
  },
  {
    "placeId": "drottningholm_palace",
    "name": "Drottningholm Palace",
    "nameIt": "Drottningholms Slott",
    "type": "LANDMARK",
    "lat": 59.3261,
    "lng": 17.8956,
    "regionId": "uppsala_gavleborg",
    "regionName": "Uppsala and Gävleborg",
    "regionEmoji": "🏰"
  },
  {
    "placeId": "vasteras",
    "name": "Västerås",
    "nameIt": "Västerås",
    "type": "CITY",
    "lat": 60.6097,
    "lng": 16.5463,
    "regionId": "uppsala_gavleborg",
    "regionName": "Uppsala and Gävleborg",
    "regionEmoji": "🏰"
  },
  {
    "placeId": "uppsala_botanical_garden",
    "name": "Uppsala Botanical Garden",
    "nameIt": "Linnéträdgården",
    "type": "NATURE",
    "lat": 59.8583,
    "lng": 17.6722,
    "regionId": "uppsala_gavleborg",
    "regionName": "Uppsala and Gävleborg",
    "regionEmoji": "🏰"
  },
  {
    "placeId": "uppsala_museum",
    "name": "Uppsala Museum",
    "nameIt": "Uppsala Konstmuseum",
    "type": "LANDMARK",
    "lat": 59.8525,
    "lng": 17.637,
    "regionId": "uppsala_gavleborg",
    "regionName": "Uppsala and Gävleborg",
    "regionEmoji": "🏰"
  },
  {
    "placeId": "sandviken",
    "name": "Sandviken",
    "nameIt": "Sandviken",
    "type": "TOWN",
    "lat": 60.6203,
    "lng": 17.2667,
    "regionId": "uppsala_gavleborg",
    "regionName": "Uppsala and Gävleborg",
    "regionEmoji": "🏰"
  },
  {
    "placeId": "gothenburg",
    "name": "Gothenburg",
    "nameIt": "Göteborg",
    "type": "CITY",
    "lat": 57.7089,
    "lng": 11.9746,
    "regionId": "west_coast",
    "regionName": "West Coast",
    "regionEmoji": "⛵"
  },
  {
    "placeId": "bohuslan_coast",
    "name": "Bohuslän Coast",
    "nameIt": "Bohuslän-kusten",
    "type": "COASTAL",
    "lat": 58.3167,
    "lng": 11.3667,
    "regionId": "west_coast",
    "regionName": "West Coast",
    "regionEmoji": "⛵"
  },
  {
    "placeId": "marstrand",
    "name": "Marstrand",
    "nameIt": "Marstrand",
    "type": "TOWN",
    "lat": 58.3721,
    "lng": 11.5888,
    "regionId": "west_coast",
    "regionName": "West Coast",
    "regionEmoji": "⛵"
  },
  {
    "placeId": "lysekil",
    "name": "Lysekil",
    "nameIt": "Lysekil",
    "type": "TOWN",
    "lat": 58.2742,
    "lng": 11.4383,
    "regionId": "west_coast",
    "regionName": "West Coast",
    "regionEmoji": "⛵"
  },
  {
    "placeId": "stromstad",
    "name": "Strömstad",
    "nameIt": "Strömstad",
    "type": "TOWN",
    "lat": 58.9378,
    "lng": 11.1476,
    "regionId": "west_coast",
    "regionName": "West Coast",
    "regionEmoji": "⛵"
  },
  {
    "placeId": "orust_island",
    "name": "Orust Island",
    "nameIt": "Orust",
    "type": "ISLAND",
    "lat": 58.4333,
    "lng": 11.7333,
    "regionId": "west_coast",
    "regionName": "West Coast",
    "regionEmoji": "⛵"
  },
  {
    "placeId": "tjorn_island",
    "name": "Tjörn Island",
    "nameIt": "Tjörn",
    "type": "ISLAND",
    "lat": 58.3667,
    "lng": 11.9,
    "regionId": "west_coast",
    "regionName": "West Coast",
    "regionEmoji": "⛵"
  },
  {
    "placeId": "kosteroarna",
    "name": "Koster Islands",
    "nameIt": "Kosteröarna",
    "type": "ISLAND",
    "lat": 58.8833,
    "lng": 11.0333,
    "regionId": "west_coast",
    "regionName": "West Coast",
    "regionEmoji": "⛵"
  },
  {
    "placeId": "smogen",
    "name": "Smögen",
    "nameIt": "Smögen",
    "type": "VILLAGE",
    "lat": 58.3456,
    "lng": 11.2456,
    "regionId": "west_coast",
    "regionName": "West Coast",
    "regionEmoji": "⛵"
  },
  {
    "placeId": "ronnang",
    "name": "Rönnäng",
    "nameIt": "Rönnäng",
    "type": "VILLAGE",
    "lat": 58.3306,
    "lng": 11.1639,
    "regionId": "west_coast",
    "regionName": "West Coast",
    "regionEmoji": "⛵"
  },
  {
    "placeId": "kallby",
    "name": "Källby",
    "nameIt": "Källby",
    "type": "VILLAGE",
    "lat": 58.1833,
    "lng": 11.9,
    "regionId": "west_coast",
    "regionName": "West Coast",
    "regionEmoji": "⛵"
  },
  {
    "placeId": "bohuslans_museum",
    "name": "Bohuslän Museum",
    "nameIt": "Bohusläns Museum",
    "type": "LANDMARK",
    "lat": 58.2992,
    "lng": 11.4575,
    "regionId": "west_coast",
    "regionName": "West Coast",
    "regionEmoji": "⛵"
  },
  {
    "placeId": "brastad_rock_carvings",
    "name": "Brastad Rock Carvings",
    "nameIt": "Bråstad hällristningar",
    "type": "LANDMARK",
    "lat": 58.4683,
    "lng": 11.8083,
    "regionId": "west_coast",
    "regionName": "West Coast",
    "regionEmoji": "⛵"
  },
  {
    "placeId": "tanum_carvings",
    "name": "Tanum Rock Carvings",
    "nameIt": "Tanum hällristningar",
    "type": "LANDMARK",
    "lat": 58.8056,
    "lng": 11.4889,
    "regionId": "west_coast",
    "regionName": "West Coast",
    "regionEmoji": "⛵"
  },
  {
    "placeId": "malmo",
    "name": "Malmö",
    "nameIt": "Malmö",
    "type": "CITY",
    "lat": 55.6049,
    "lng": 12.9094,
    "regionId": "southern_sweden",
    "regionName": "Southern Sweden",
    "regionEmoji": "🌾"
  },
  {
    "placeId": "lund",
    "name": "Lund",
    "nameIt": "Lund",
    "type": "CITY",
    "lat": 55.7045,
    "lng": 13.191,
    "regionId": "southern_sweden",
    "regionName": "Southern Sweden",
    "regionEmoji": "🌾"
  },
  {
    "placeId": "helsingborg",
    "name": "Helsingborg",
    "nameIt": "Helsingborg",
    "type": "CITY",
    "lat": 56.0465,
    "lng": 12.6945,
    "regionId": "southern_sweden",
    "regionName": "Southern Sweden",
    "regionEmoji": "🌾"
  },
  {
    "placeId": "kristianstad",
    "name": "Kristianstad",
    "nameIt": "Kristianstad",
    "type": "CITY",
    "lat": 56.0293,
    "lng": 14.1527,
    "regionId": "southern_sweden",
    "regionName": "Southern Sweden",
    "regionEmoji": "🌾"
  },
  {
    "placeId": "ystad",
    "name": "Ystad",
    "nameIt": "Ystad",
    "type": "COASTAL",
    "lat": 55.427,
    "lng": 13.6204,
    "regionId": "southern_sweden",
    "regionName": "Southern Sweden",
    "regionEmoji": "🌾"
  },
  {
    "placeId": "simrishamn",
    "name": "Simrishamn",
    "nameIt": "Simrishamn",
    "type": "COASTAL",
    "lat": 55.5595,
    "lng": 14.3632,
    "regionId": "southern_sweden",
    "regionName": "Southern Sweden",
    "regionEmoji": "🌾"
  },
  {
    "placeId": "ales_stenar",
    "name": "Ale's Stenar",
    "nameIt": "Ales Stenar",
    "type": "LANDMARK",
    "lat": 55.387,
    "lng": 14.124,
    "regionId": "southern_sweden",
    "regionName": "Southern Sweden",
    "regionEmoji": "🌾"
  },
  {
    "placeId": "vimmerby",
    "name": "Vimmerby",
    "nameIt": "Vimmerby",
    "type": "TOWN",
    "lat": 57.6633,
    "lng": 15.8283,
    "regionId": "southern_sweden",
    "regionName": "Southern Sweden",
    "regionEmoji": "🌾"
  },
  {
    "placeId": "kalmar",
    "name": "Kalmar",
    "nameIt": "Kalmar",
    "type": "CITY",
    "lat": 56.6619,
    "lng": 16.3613,
    "regionId": "southern_sweden",
    "regionName": "Southern Sweden",
    "regionEmoji": "🌾"
  },
  {
    "placeId": "oland_island",
    "name": "Öland Island",
    "nameIt": "Öland",
    "type": "ISLAND",
    "lat": 56.55,
    "lng": 16.8,
    "regionId": "southern_sweden",
    "regionName": "Southern Sweden",
    "regionEmoji": "🌾"
  },
  {
    "placeId": "glasriket",
    "name": "Glasriket",
    "nameIt": "Glasriket",
    "type": "NATURE",
    "lat": 57.2,
    "lng": 15.8,
    "regionId": "southern_sweden",
    "regionName": "Southern Sweden",
    "regionEmoji": "🌾"
  },
  {
    "placeId": "stegsnas",
    "name": "Stensjön",
    "nameIt": "Stensjön",
    "type": "NATURE",
    "lat": 57.05,
    "lng": 15.3,
    "regionId": "southern_sweden",
    "regionName": "Southern Sweden",
    "regionEmoji": "🌾"
  },
  {
    "placeId": "hassleholm",
    "name": "Hässleholm",
    "nameIt": "Hässleholm",
    "type": "TOWN",
    "lat": 56.1588,
    "lng": 13.7667,
    "regionId": "southern_sweden",
    "regionName": "Southern Sweden",
    "regionEmoji": "🌾"
  },
  {
    "placeId": "stockholm",
    "name": "Stockholm",
    "nameIt": "Stockholm",
    "type": "CITY",
    "lat": 59.3293,
    "lng": 18.0686,
    "regionId": "east_coast",
    "regionName": "East Coast",
    "regionEmoji": "🏞️"
  },
  {
    "placeId": "uppsala",
    "name": "Uppsala",
    "nameIt": "Uppsala",
    "type": "CITY",
    "lat": 59.8586,
    "lng": 17.6389,
    "regionId": "east_coast",
    "regionName": "East Coast",
    "regionEmoji": "🏞️"
  },
  {
    "placeId": "dalaro",
    "name": "Dalarö",
    "nameIt": "Dalarö",
    "type": "COASTAL",
    "lat": 58.9478,
    "lng": 18.5531,
    "regionId": "east_coast",
    "regionName": "East Coast",
    "regionEmoji": "🏞️"
  },
  {
    "placeId": "vaxholm",
    "name": "Vaxholm",
    "nameIt": "Vaxholm",
    "type": "TOWN",
    "lat": 59.4103,
    "lng": 18.3658,
    "regionId": "east_coast",
    "regionName": "East Coast",
    "regionEmoji": "🏞️"
  },
  {
    "placeId": "mariefred",
    "name": "Mariefred",
    "nameIt": "Mariefred",
    "type": "TOWN",
    "lat": 59.2722,
    "lng": 17.4639,
    "regionId": "east_coast",
    "regionName": "East Coast",
    "regionEmoji": "🏞️"
  },
  {
    "placeId": "gavle",
    "name": "Gävle",
    "nameIt": "Gävle",
    "type": "CITY",
    "lat": 60.6745,
    "lng": 17.1419,
    "regionId": "east_coast",
    "regionName": "East Coast",
    "regionEmoji": "🏞️"
  },
  {
    "placeId": "sundsvall",
    "name": "Sundsvall",
    "nameIt": "Sundsvall",
    "type": "CITY",
    "lat": 62.3903,
    "lng": 17.2869,
    "regionId": "east_coast",
    "regionName": "East Coast",
    "regionEmoji": "🏞️"
  },
  {
    "placeId": "hoga_kusten",
    "name": "Höga Kusten (High Coast)",
    "nameIt": "Höga Kusten",
    "type": "NATURE",
    "lat": 62.8167,
    "lng": 17.8333,
    "regionId": "east_coast",
    "regionName": "East Coast",
    "regionEmoji": "🏞️"
  },
  {
    "placeId": "visby",
    "name": "Visby",
    "nameIt": "Visby",
    "type": "TOWN",
    "lat": 57.6349,
    "lng": 18.4268,
    "regionId": "east_coast",
    "regionName": "East Coast",
    "regionEmoji": "🏞️"
  },
  {
    "placeId": "gotland",
    "name": "Gotland Island",
    "nameIt": "Gotland",
    "type": "ISLAND",
    "lat": 57.5,
    "lng": 18.5,
    "regionId": "east_coast",
    "regionName": "East Coast",
    "regionEmoji": "🏞️"
  },
  {
    "placeId": "norrkoping",
    "name": "Norrköping",
    "nameIt": "Norrköping",
    "type": "CITY",
    "lat": 58.5941,
    "lng": 16.1826,
    "regionId": "east_coast",
    "regionName": "East Coast",
    "regionEmoji": "🏞️"
  },
  {
    "placeId": "vastervik",
    "name": "Västervik",
    "nameIt": "Västervik",
    "type": "COASTAL",
    "lat": 57.7561,
    "lng": 16.6309,
    "regionId": "east_coast",
    "regionName": "East Coast",
    "regionEmoji": "🏞️"
  },
  {
    "placeId": "ostersund",
    "name": "Östersund",
    "nameIt": "Östersund",
    "type": "CITY",
    "lat": 63.1808,
    "lng": 14.6357,
    "regionId": "east_coast",
    "regionName": "East Coast",
    "regionEmoji": "🏞️"
  },
  {
    "placeId": "stockholm",
    "name": "Stockholm",
    "nameIt": "Stockholm",
    "type": "CITY",
    "lat": 59.3293,
    "lng": 18.0686,
    "regionId": "central_sweden",
    "regionName": "Central Sweden",
    "regionEmoji": "🌲"
  },
  {
    "placeId": "uppsala",
    "name": "Uppsala",
    "nameIt": "Uppsala",
    "type": "CITY",
    "lat": 59.8586,
    "lng": 17.6389,
    "regionId": "central_sweden",
    "regionName": "Central Sweden",
    "regionEmoji": "🌲"
  },
  {
    "placeId": "stockholm_archipelago",
    "name": "Stockholm Archipelago",
    "nameIt": "Stockholms skärgård",
    "type": "COASTAL",
    "lat": 59.2,
    "lng": 18.9,
    "regionId": "central_sweden",
    "regionName": "Central Sweden",
    "regionEmoji": "🌲"
  },
  {
    "placeId": "drottningholm",
    "name": "Drottningholm Palace",
    "nameIt": "Drottningholms slott",
    "type": "LANDMARK",
    "lat": 59.3256,
    "lng": 17.8956,
    "regionId": "central_sweden",
    "regionName": "Central Sweden",
    "regionEmoji": "🌲"
  },
  {
    "placeId": "vaxholm",
    "name": "Vaxholm",
    "nameIt": "Vaxholm",
    "type": "COASTAL",
    "lat": 59.4097,
    "lng": 18.3456,
    "regionId": "central_sweden",
    "regionName": "Central Sweden",
    "regionEmoji": "🌲"
  },
  {
    "placeId": "sigtuna",
    "name": "Sigtuna",
    "nameIt": "Sigtuna",
    "type": "TOWN",
    "lat": 59.6169,
    "lng": 17.7075,
    "regionId": "central_sweden",
    "regionName": "Central Sweden",
    "regionEmoji": "🌲"
  },
  {
    "placeId": "gripsholm_castle",
    "name": "Gripsholm Castle",
    "nameIt": "Gripsholms slott",
    "type": "LANDMARK",
    "lat": 59.1744,
    "lng": 17.1972,
    "regionId": "central_sweden",
    "regionName": "Central Sweden",
    "regionEmoji": "🌲"
  },
  {
    "placeId": "lake_malaren",
    "name": "Lake Mälaren",
    "nameIt": "Mälaren",
    "type": "NATURE",
    "lat": 59.3,
    "lng": 17.3,
    "regionId": "central_sweden",
    "regionName": "Central Sweden",
    "regionEmoji": "🌲"
  },
  {
    "placeId": "mariefred",
    "name": "Mariefred",
    "nameIt": "Mariefred",
    "type": "TOWN",
    "lat": 59.1639,
    "lng": 17.1494,
    "regionId": "central_sweden",
    "regionName": "Central Sweden",
    "regionEmoji": "🌲"
  },
  {
    "placeId": "vasteras",
    "name": "Västerås",
    "nameIt": "Västerås",
    "type": "CITY",
    "lat": 59.6141,
    "lng": 16.5469,
    "regionId": "central_sweden",
    "regionName": "Central Sweden",
    "regionEmoji": "🌲"
  },
  {
    "placeId": "delsbo",
    "name": "Delsbo",
    "nameIt": "Delsbo",
    "type": "VILLAGE",
    "lat": 61.3667,
    "lng": 16.1833,
    "regionId": "central_sweden",
    "regionName": "Central Sweden",
    "regionEmoji": "🌲"
  },
  {
    "placeId": "arboga",
    "name": "Arboga",
    "nameIt": "Arboga",
    "type": "TOWN",
    "lat": 59.0278,
    "lng": 15.8406,
    "regionId": "central_sweden",
    "regionName": "Central Sweden",
    "regionEmoji": "🌲"
  },
  {
    "placeId": "falun",
    "name": "Falun",
    "nameIt": "Falun",
    "type": "CITY",
    "lat": 60.6091,
    "lng": 15.6267,
    "regionId": "central_sweden",
    "regionName": "Central Sweden",
    "regionEmoji": "🌲"
  },
  {
    "placeId": "falun",
    "name": "Falun",
    "nameIt": "Falun",
    "type": "CITY",
    "lat": 60.4947,
    "lng": 15.6267,
    "regionId": "dalarna",
    "regionName": "Dalarna",
    "regionEmoji": "🎨"
  },
  {
    "placeId": "mora",
    "name": "Mora",
    "nameIt": "Mora",
    "type": "TOWN",
    "lat": 61.0055,
    "lng": 15.545,
    "regionId": "dalarna",
    "regionName": "Dalarna",
    "regionEmoji": "🎨"
  },
  {
    "placeId": "rattvik",
    "name": "Rättvik",
    "nameIt": "Rättvik",
    "type": "TOWN",
    "lat": 60.8964,
    "lng": 15.8047,
    "regionId": "dalarna",
    "regionName": "Dalarna",
    "regionEmoji": "🎨"
  },
  {
    "placeId": "leksand",
    "name": "Leksand",
    "nameIt": "Leksand",
    "type": "TOWN",
    "lat": 60.759,
    "lng": 15.0302,
    "regionId": "dalarna",
    "regionName": "Dalarna",
    "regionEmoji": "🎨"
  },
  {
    "placeId": "lake_siljan",
    "name": "Lake Siljan",
    "nameIt": "Siljan",
    "type": "NATURE",
    "lat": 60.85,
    "lng": 15.5,
    "regionId": "dalarna",
    "regionName": "Dalarna",
    "regionEmoji": "🎨"
  },
  {
    "placeId": "sundborn",
    "name": "Sundborn",
    "nameIt": "Sundborn",
    "type": "VILLAGE",
    "lat": 60.6667,
    "lng": 15.4167,
    "regionId": "dalarna",
    "regionName": "Dalarna",
    "regionEmoji": "🎨"
  },
  {
    "placeId": "nusnas",
    "name": "Nusnäs",
    "nameIt": "Nusnäs",
    "type": "VILLAGE",
    "lat": 61.05,
    "lng": 15.5667,
    "regionId": "dalarna",
    "regionName": "Dalarna",
    "regionEmoji": "🎨"
  },
  {
    "placeId": "salen",
    "name": "Sälen",
    "nameIt": "Sälen",
    "type": "TOWN",
    "lat": 61.15,
    "lng": 12.8333,
    "regionId": "dalarna",
    "regionName": "Dalarna",
    "regionEmoji": "🎨"
  },
  {
    "placeId": "tallberg",
    "name": "Tällberg",
    "nameIt": "Tällberg",
    "type": "VILLAGE",
    "lat": 60.8847,
    "lng": 15.0517,
    "regionId": "dalarna",
    "regionName": "Dalarna",
    "regionEmoji": "🎨"
  },
  {
    "placeId": "borlange",
    "name": "Borlänge",
    "nameIt": "Borlänge",
    "type": "CITY",
    "lat": 60.4878,
    "lng": 15.4256,
    "regionId": "dalarna",
    "regionName": "Dalarna",
    "regionEmoji": "🎨"
  },
  {
    "placeId": "idre",
    "name": "Idre",
    "nameIt": "Idre",
    "type": "TOWN",
    "lat": 61.5833,
    "lng": 12.6833,
    "regionId": "dalarna",
    "regionName": "Dalarna",
    "regionEmoji": "🎨"
  },
  {
    "placeId": "siljansleden",
    "name": "Siljansleden Trail",
    "nameIt": "Siljansleden",
    "type": "NATURE",
    "lat": 60.85,
    "lng": 15.5,
    "regionId": "dalarna",
    "regionName": "Dalarna",
    "regionEmoji": "🎨"
  },
  {
    "placeId": "avesta",
    "name": "Avesta",
    "nameIt": "Avesta",
    "type": "CITY",
    "lat": 60.6569,
    "lng": 16.1781,
    "regionId": "dalarna",
    "regionName": "Dalarna",
    "regionEmoji": "🎨"
  },
  {
    "placeId": "kiruna",
    "name": "Kiruna",
    "nameIt": "Kiruna",
    "type": "CITY",
    "lat": 67.8557,
    "lng": 20.2257,
    "regionId": "norrbotten",
    "regionName": "Norrbotten",
    "regionEmoji": "🌌"
  },
  {
    "placeId": "abisko",
    "name": "Abisko",
    "nameIt": "Abisko",
    "type": "VILLAGE",
    "lat": 68.3529,
    "lng": 18.8227,
    "regionId": "norrbotten",
    "regionName": "Norrbotten",
    "regionEmoji": "🌌"
  },
  {
    "placeId": "lulea",
    "name": "Luleå",
    "nameIt": "Luleå",
    "type": "CITY",
    "lat": 65.5847,
    "lng": 22.1566,
    "regionId": "norrbotten",
    "regionName": "Norrbotten",
    "regionEmoji": "🌌"
  },
  {
    "placeId": "torne_valley",
    "name": "Torne Valley",
    "nameIt": "Tornedalens",
    "type": "TOWN",
    "lat": 66.1833,
    "lng": 23.5,
    "regionId": "norrbotten",
    "regionName": "Norrbotten",
    "regionEmoji": "🌌"
  },
  {
    "placeId": "haparanda",
    "name": "Haparanda",
    "nameIt": "Haparanda",
    "type": "TOWN",
    "lat": 65.8356,
    "lng": 24.1406,
    "regionId": "norrbotten",
    "regionName": "Norrbotten",
    "regionEmoji": "🌌"
  },
  {
    "placeId": "icehotel",
    "name": "ICEHOTEL",
    "nameIt": "ICEHOTEL",
    "type": "LANDMARK",
    "lat": 67.8315,
    "lng": 20.6104,
    "regionId": "norrbotten",
    "regionName": "Norrbotten",
    "regionEmoji": "🌌"
  },
  {
    "placeId": "abisko_national_park",
    "name": "Abisko National Park",
    "nameIt": "Abisko Nationalpark",
    "type": "NATURE",
    "lat": 68.35,
    "lng": 18.8,
    "regionId": "norrbotten",
    "regionName": "Norrbotten",
    "regionEmoji": "🌌"
  },
  {
    "placeId": "kebnekaise",
    "name": "Kebnekaise",
    "nameIt": "Kebnekaise",
    "type": "LANDMARK",
    "lat": 67.8972,
    "lng": 18.5544,
    "regionId": "norrbotten",
    "regionName": "Norrbotten",
    "regionEmoji": "🌌"
  },
  {
    "placeId": "northernmost_point",
    "name": "Treriksröset",
    "nameIt": "Treriksröset",
    "type": "LANDMARK",
    "lat": 68.0657,
    "lng": 20.7752,
    "regionId": "norrbotten",
    "regionName": "Norrbotten",
    "regionEmoji": "🌌"
  },
  {
    "placeId": "pite_river",
    "name": "Pite River",
    "nameIt": "Piteälven",
    "type": "NATURE",
    "lat": 65.3,
    "lng": 21,
    "regionId": "norrbotten",
    "regionName": "Norrbotten",
    "regionEmoji": "🌌"
  },
  {
    "placeId": "lulea_archipelago",
    "name": "Luleå Archipelago",
    "nameIt": "Luleå Skärgård",
    "type": "COASTAL",
    "lat": 65.55,
    "lng": 22.45,
    "regionId": "norrbotten",
    "regionName": "Norrbotten",
    "regionEmoji": "🌌"
  },
  {
    "placeId": "katterjakk",
    "name": "Katterjakk",
    "nameIt": "Katterjakk",
    "type": "VILLAGE",
    "lat": 67.4167,
    "lng": 21.1667,
    "regionId": "norrbotten",
    "regionName": "Norrbotten",
    "regionEmoji": "🌌"
  },
  {
    "placeId": "umea",
    "name": "Umeå",
    "nameIt": "Umeå",
    "type": "CITY",
    "lat": 63.8258,
    "lng": 20.9663,
    "regionId": "vasterbotten",
    "regionName": "Västerbotten",
    "regionEmoji": "❄️"
  },
  {
    "placeId": "skeleftea",
    "name": "Skellefteå",
    "nameIt": "Skellefteå",
    "type": "CITY",
    "lat": 64.7506,
    "lng": 20.9521,
    "regionId": "vasterbotten",
    "regionName": "Västerbotten",
    "regionEmoji": "❄️"
  },
  {
    "placeId": "bjurholm",
    "name": "Bjurholm",
    "nameIt": "Bjurholm",
    "type": "TOWN",
    "lat": 64.4053,
    "lng": 20.7378,
    "regionId": "vasterbotten",
    "regionName": "Västerbotten",
    "regionEmoji": "❄️"
  },
  {
    "placeId": "vastra_nyby",
    "name": "Västernäs",
    "nameIt": "Västernäs",
    "type": "COASTAL",
    "lat": 63.5644,
    "lng": 21.6461,
    "regionId": "vasterbotten",
    "regionName": "Västerbotten",
    "regionEmoji": "❄️"
  },
  {
    "placeId": "lycksele",
    "name": "Lycksele",
    "nameIt": "Lycksele",
    "type": "TOWN",
    "lat": 64.5961,
    "lng": 18.6742,
    "regionId": "vasterbotten",
    "regionName": "Västerbotten",
    "regionEmoji": "❄️"
  },
  {
    "placeId": "vindeln",
    "name": "Vindeln",
    "nameIt": "Vindeln",
    "type": "TOWN",
    "lat": 64.2425,
    "lng": 20.6497,
    "regionId": "vasterbotten",
    "regionName": "Västerbotten",
    "regionEmoji": "❄️"
  },
  {
    "placeId": "vindelfjallen",
    "name": "Vindelfjällen",
    "nameIt": "Vindelfjällen",
    "type": "NATURE",
    "lat": 65.0828,
    "lng": 17.9403,
    "regionId": "vasterbotten",
    "regionName": "Västerbotten",
    "regionEmoji": "❄️"
  },
  {
    "placeId": "umea_archipelago",
    "name": "Umeå Archipelago",
    "nameIt": "Umeå skärgård",
    "type": "COASTAL",
    "lat": 63.7733,
    "lng": 20.2833,
    "regionId": "vasterbotten",
    "regionName": "Västerbotten",
    "regionEmoji": "❄️"
  },
  {
    "placeId": "norrfors",
    "name": "Norr-fors",
    "nameIt": "Norr-fors",
    "type": "LANDMARK",
    "lat": 64.8597,
    "lng": 20.3833,
    "regionId": "vasterbotten",
    "regionName": "Västerbotten",
    "regionEmoji": "❄️"
  },
  {
    "placeId": "holmoen",
    "name": "Holmöen",
    "nameIt": "Holmöen",
    "type": "ISLAND",
    "lat": 64.1833,
    "lng": 20.2667,
    "regionId": "vasterbotten",
    "regionName": "Västerbotten",
    "regionEmoji": "❄️"
  },
  {
    "placeId": "bastutrask",
    "name": "Bastuträsk",
    "nameIt": "Bastuträsk",
    "type": "TOWN",
    "lat": 64.9447,
    "lng": 19.6397,
    "regionId": "vasterbotten",
    "regionName": "Västerbotten",
    "regionEmoji": "❄️"
  },
  {
    "placeId": "are_ski_resort",
    "name": "Åre Mountain Resort",
    "nameIt": "Åre",
    "type": "LANDMARK",
    "lat": 63.3977,
    "lng": 11.4828,
    "regionId": "jamtland_harjedalen",
    "regionName": "Jämtland and Härjedalen",
    "regionEmoji": "⛷️"
  },
  {
    "placeId": "ostersund_city",
    "name": "Östersund",
    "nameIt": "Östersund",
    "type": "CITY",
    "lat": 63.1793,
    "lng": 14.6364,
    "regionId": "jamtland_harjedalen",
    "regionName": "Jämtland and Härjedalen",
    "regionEmoji": "⛷️"
  },
  {
    "placeId": "tannforsen_waterfall",
    "name": "Tännforsen Waterfall",
    "nameIt": "Tännforsen",
    "type": "NATURE",
    "lat": 64.6239,
    "lng": 16.3333,
    "regionId": "jamtland_harjedalen",
    "regionName": "Jämtland and Härjedalen",
    "regionEmoji": "⛷️"
  },
  {
    "placeId": "storsjoen_lake",
    "name": "Storsjön Lake",
    "nameIt": "Storsjön",
    "type": "NATURE",
    "lat": 63.15,
    "lng": 14.5,
    "regionId": "jamtland_harjedalen",
    "regionName": "Jämtland and Härjedalen",
    "regionEmoji": "⛷️"
  },
  {
    "placeId": "roros_mining_town",
    "name": "Röros",
    "nameIt": "Röros",
    "type": "TOWN",
    "lat": 65.014,
    "lng": 11.3801,
    "regionId": "jamtland_harjedalen",
    "regionName": "Jämtland and Härjedalen",
    "regionEmoji": "⛷️"
  },
  {
    "placeId": "funasdalens_valley",
    "name": "Funäsdalen Valley",
    "nameIt": "Funäsdalen",
    "type": "VILLAGE",
    "lat": 64.7078,
    "lng": 14.995,
    "regionId": "jamtland_harjedalen",
    "regionName": "Jämtland and Härjedalen",
    "regionEmoji": "⛷️"
  },
  {
    "placeId": "brunflo_village",
    "name": "Brunflo",
    "nameIt": "Brunflo",
    "type": "VILLAGE",
    "lat": 63.6483,
    "lng": 14.9067,
    "regionId": "jamtland_harjedalen",
    "regionName": "Jämtland and Härjedalen",
    "regionEmoji": "⛷️"
  },
  {
    "placeId": "harjedalen_mountains",
    "name": "Härjedalen Mountains",
    "nameIt": "Härjedalens fjällen",
    "type": "NATURE",
    "lat": 64.85,
    "lng": 12.5,
    "regionId": "jamtland_harjedalen",
    "regionName": "Jämtland and Härjedalen",
    "regionEmoji": "⛷️"
  },
  {
    "placeId": "jamtland_greenland",
    "name": "Jämtland Greenland",
    "nameIt": "Jämtlands Gröna Land",
    "type": "NATURE",
    "lat": 63.8,
    "lng": 15.5,
    "regionId": "jamtland_harjedalen",
    "regionName": "Jämtland and Härjedalen",
    "regionEmoji": "⛷️"
  },
  {
    "placeId": "undersaker_skiing",
    "name": "Undersåker Ski Area",
    "nameIt": "Undersåker",
    "type": "LANDMARK",
    "lat": 63.4117,
    "lng": 11.3189,
    "regionId": "jamtland_harjedalen",
    "regionName": "Jämtland and Härjedalen",
    "regionEmoji": "⛷️"
  },
  {
    "placeId": "vemdalsskalet_plateau",
    "name": "Vemdalsskalet Plateau",
    "nameIt": "Vemdalsskalet",
    "type": "NATURE",
    "lat": 64.4167,
    "lng": 13.6667,
    "regionId": "jamtland_harjedalen",
    "regionName": "Jämtland and Härjedalen",
    "regionEmoji": "⛷️"
  },
  {
    "placeId": "lit_church",
    "name": "Lit Church",
    "nameIt": "Lit kyrka",
    "type": "LANDMARK",
    "lat": 64.3394,
    "lng": 15.0681,
    "regionId": "jamtland_harjedalen",
    "regionName": "Jämtland and Härjedalen",
    "regionEmoji": "⛷️"
  },
  {
    "placeId": "karlstad",
    "name": "Karlstad",
    "nameIt": "Karlstad",
    "type": "CITY",
    "lat": 59.3793,
    "lng": 13.5036,
    "regionId": "varmland",
    "regionName": "Värmland",
    "regionEmoji": "🏞️"
  },
  {
    "placeId": "sunne",
    "name": "Sunne",
    "nameIt": "Sunne",
    "type": "TOWN",
    "lat": 59.8467,
    "lng": 13.7644,
    "regionId": "varmland",
    "regionName": "Värmland",
    "regionEmoji": "🏞️"
  },
  {
    "placeId": "arvika",
    "name": "Arvika",
    "nameIt": "Arvika",
    "type": "TOWN",
    "lat": 59.6564,
    "lng": 12.5956,
    "regionId": "varmland",
    "regionName": "Värmland",
    "regionEmoji": "🏞️"
  },
  {
    "placeId": "filipstad",
    "name": "Filipstad",
    "nameIt": "Filipstad",
    "type": "TOWN",
    "lat": 59.688,
    "lng": 13.6461,
    "regionId": "varmland",
    "regionName": "Värmland",
    "regionEmoji": "🏞️"
  },
  {
    "placeId": "lago_wermdoe",
    "name": "Löken",
    "nameIt": "Löken",
    "type": "NATURE",
    "lat": 60.0033,
    "lng": 13.1833,
    "regionId": "varmland",
    "regionName": "Värmland",
    "regionEmoji": "🏞️"
  },
  {
    "placeId": "torsby",
    "name": "Torsby",
    "nameIt": "Torsby",
    "type": "TOWN",
    "lat": 60.2014,
    "lng": 13.5714,
    "regionId": "varmland",
    "regionName": "Värmland",
    "regionEmoji": "🏞️"
  },
  {
    "placeId": "hagfors",
    "name": "Hagfors",
    "nameIt": "Hagfors",
    "type": "TOWN",
    "lat": 60.0431,
    "lng": 13.9572,
    "regionId": "varmland",
    "regionName": "Värmland",
    "regionEmoji": "🏞️"
  },
  {
    "placeId": "lekvattnet",
    "name": "Lekvattnet",
    "nameIt": "Lekvattnet",
    "type": "NATURE",
    "lat": 59.2844,
    "lng": 13.9814,
    "regionId": "varmland",
    "regionName": "Värmland",
    "regionEmoji": "🏞️"
  },
  {
    "placeId": "fryken_valley",
    "name": "Fryken Valley",
    "nameIt": "Frykendale",
    "type": "NATURE",
    "lat": 59.85,
    "lng": 13.75,
    "regionId": "varmland",
    "regionName": "Värmland",
    "regionEmoji": "🏞️"
  },
  {
    "placeId": "marbacka",
    "name": "Märbacka",
    "nameIt": "Märbacka",
    "type": "LANDMARK",
    "lat": 59.9489,
    "lng": 14.0453,
    "regionId": "varmland",
    "regionName": "Värmland",
    "regionEmoji": "🏞️"
  },
  {
    "placeId": "edebro",
    "name": "Edebro",
    "nameIt": "Edebro",
    "type": "VILLAGE",
    "lat": 59.5606,
    "lng": 13.7447,
    "regionId": "varmland",
    "regionName": "Värmland",
    "regionEmoji": "🏞️"
  },
  {
    "placeId": "varmlands_museum",
    "name": "Värmlands Museum",
    "nameIt": "Värmlands Museum",
    "type": "LANDMARK",
    "lat": 59.3748,
    "lng": 13.5119,
    "regionId": "varmland",
    "regionName": "Värmland",
    "regionEmoji": "🏞️"
  },
  {
    "placeId": "claes_andersson_museum",
    "name": "Claes Andersson Museum",
    "nameIt": "Claes Andersson Museet",
    "type": "LANDMARK",
    "lat": 59.38,
    "lng": 13.51,
    "regionId": "varmland",
    "regionName": "Värmland",
    "regionEmoji": "🏞️"
  },
  {
    "placeId": "lansmuseet_alva",
    "name": "Alva Museum",
    "nameIt": "Länsmuseet Alva",
    "type": "LANDMARK",
    "lat": 59.6564,
    "lng": 12.5956,
    "regionId": "varmland",
    "regionName": "Värmland",
    "regionEmoji": "🏞️"
  },
  {
    "placeId": "visby",
    "name": "Visby",
    "nameIt": "Visby",
    "type": "CITY",
    "lat": 57.6347,
    "lng": 18.4268,
    "regionId": "gotland",
    "regionName": "Gotland",
    "regionEmoji": "🏝️"
  },
  {
    "placeId": "tofta_beach",
    "name": "Tofta Beach",
    "nameIt": "Tofta Strand",
    "type": "COASTAL",
    "lat": 57.4789,
    "lng": 18.2456,
    "regionId": "gotland",
    "regionName": "Gotland",
    "regionEmoji": "🏝️"
  },
  {
    "placeId": "kappelshamn",
    "name": "Kappelshamn",
    "nameIt": "Kappelshamn",
    "type": "COASTAL",
    "lat": 57.5067,
    "lng": 18.3867,
    "regionId": "gotland",
    "regionName": "Gotland",
    "regionEmoji": "🏝️"
  },
  {
    "placeId": "lummelunda_cave",
    "name": "Lummelunda Cave",
    "nameIt": "Lummelunda Grottor",
    "type": "LANDMARK",
    "lat": 57.5789,
    "lng": 18.4123,
    "regionId": "gotland",
    "regionName": "Gotland",
    "regionEmoji": "🏝️"
  },
  {
    "placeId": "hoburgen",
    "name": "Hoburgen",
    "nameIt": "Hoburgen",
    "type": "NATURE",
    "lat": 57.3467,
    "lng": 18.6234,
    "regionId": "gotland",
    "regionName": "Gotland",
    "regionEmoji": "🏝️"
  },
  {
    "placeId": "faro",
    "name": "Faro",
    "nameIt": "Faro",
    "type": "ISLAND",
    "lat": 57.7834,
    "lng": 18.5123,
    "regionId": "gotland",
    "regionName": "Gotland",
    "regionEmoji": "🏝️"
  },
  {
    "placeId": "hemse",
    "name": "Hemse",
    "nameIt": "Hemse",
    "type": "TOWN",
    "lat": 57.4234,
    "lng": 18.3678,
    "regionId": "gotland",
    "regionName": "Gotland",
    "regionEmoji": "🏝️"
  },
  {
    "placeId": "slite",
    "name": "Slite",
    "nameIt": "Slite",
    "type": "TOWN",
    "lat": 57.6123,
    "lng": 18.5789,
    "regionId": "gotland",
    "regionName": "Gotland",
    "regionEmoji": "🏝️"
  },
  {
    "placeId": "botde_stone_ship",
    "name": "Botde Stone Ship",
    "nameIt": "Botde Skeppssattning",
    "type": "LANDMARK",
    "lat": 57.5456,
    "lng": 18.2345,
    "regionId": "gotland",
    "regionName": "Gotland",
    "regionEmoji": "🏝️"
  },
  {
    "placeId": "rone_sand",
    "name": "Rone Sand Beach",
    "nameIt": "Rone Sand",
    "type": "COASTAL",
    "lat": 57.3234,
    "lng": 18.6456,
    "regionId": "gotland",
    "regionName": "Gotland",
    "regionEmoji": "🏝️"
  },
  {
    "placeId": "ljugarn",
    "name": "Ljugarn",
    "nameIt": "Ljugarn",
    "type": "COASTAL",
    "lat": 57.3956,
    "lng": 18.7234,
    "regionId": "gotland",
    "regionName": "Gotland",
    "regionEmoji": "🏝️"
  },
  {
    "placeId": "gnisvard",
    "name": "Gnisvard Picture Stones",
    "nameIt": "Gnisvard Bildstenar",
    "type": "LANDMARK",
    "lat": 57.4123,
    "lng": 18.1567,
    "regionId": "gotland",
    "regionName": "Gotland",
    "regionEmoji": "🏝️"
  },
  {
    "placeId": "roma_church",
    "name": "Roma Church",
    "nameIt": "Roma Kyrka",
    "type": "LANDMARK",
    "lat": 57.4567,
    "lng": 18.4234,
    "regionId": "gotland",
    "regionName": "Gotland",
    "regionEmoji": "🏝️"
  }
]