[{"placeId":"gamla_stan","name":"Gamla Stan","nameIt":"Gamla Stan","type":"LANDMARK","lat":59.3293,"lng":18.0736,"regionId":"stockholm","regionName":"Stockholm","regionEmoji":"🏛️","image":"https://images.unsplash.com/photo-1701869160980-b0e2056435e1?ixid=M3w5NTU4NjF8MHwxfHNlYXJjaHwxfHxHYW1sYSUyMFN0YW4lMjBTdG9ja2hvbG0lMjBjb2JibGVzdG9uZSUyMHN0cmVldHN8ZW58MXwwfHx8MTc4MzQxOTUzMXww&ixlib=rb-4.1.0&crop=entropy&cs=tinysrgb&fit=max&fm=jpg&q=80&w=1080"},{"placeId":"vasa_museum","name":"Vasa Museum","nameIt":"Vasamuseet","type":"LANDMARK","lat":59.3294,"lng":18.091,"regionId":"stockholm","regionName":"Stockholm","regionEmoji":"🏛️","image":"https://images.unsplash.com/photo-1637682398896-0797c2b78354?ixid=M3w5NTU4NjF8MHwxfHNlYXJjaHwxfHxWYXNhJTIwTXVzZXVtJTIwc2hpcCUyMFN0b2NraG9sbXxlbnwxfDB8fHwxNzgzNDIzNjkwfDA&ixlib=rb-4.1.0&crop=entropy&cs=tinysrgb&fit=max&fm=jpg&q=80&w=1080"},{"placeId":"skansen","name":"Skansen","nameIt":"Skansen","type":"NATURE","lat":59.3294,"lng":18.1163,"regionId":"stockholm","regionName":"Stockholm","regionEmoji":"🏛️","image":"https://images.unsplash.com/photo-1688938934253-360b44752d2a?ixid=M3w5NTU4NjF8MHwxfHNlYXJjaHwxfHxTa2Fuc2VuJTIwU3RvY2tob2xtJTIwb3Blbi1haXIlMjBtdXNldW18ZW58MXwwfHx8MTc4MzQyMzY5NHww&ixlib=rb-4.1.0&crop=entropy&cs=tinysrgb&fit=max&fm=jpg&q=80&w=1080"},{"placeId":"djurgarden","name":"Djurgården","nameIt":"Djurgården","type":"ISLAND","lat":59.3261,"lng":18.1062,"regionId":"stockholm","regionName":"Stockholm","regionEmoji":"🏛️","image":"https://images.unsplash.com/photo-1719882609646-57401db312bc?ixid=M3w5NTU4NjF8MHwxfHNlYXJjaHwxfHxEanVyZ2FyZGVuJTIwaXNsYW5kJTIwU3RvY2tob2xtJTIwbXVzZXVtfGVufDF8MHx8fDE3ODM0MjM2OTZ8MA&ixlib=rb-4.1.0&crop=entropy&cs=tinysrgb&fit=max&fm=jpg&q=80&w=1080"},{"placeId":"royal_palace","name":"Royal Palace","nameIt":"Stockholms slott","type":"LANDMARK","lat":59.3274,"lng":18.0736,"regionId":"stockholm","regionName":"Stockholm","regionEmoji":"🏛️"},{"placeId":"city_hall","name":"Stockholm City Hall","nameIt":"Stockholms stadshus","type":"LANDMARK","lat":59.3274,"lng":18.0536,"regionId":"stockholm","regionName":"Stockholm","regionEmoji":"🏛️"},{"placeId":"abba_museum","name":"ABBA The Museum","nameIt":"ABBA The Museum","type":"LANDMARK","lat":59.3294,"lng":18.091,"regionId":"stockholm","regionName":"Stockholm","regionEmoji":"🏛️","image":"https://images.unsplash.com/photo-1718006185420-c1d92bd41df2?ixid=M3w5NTU4NjF8MHwxfHNlYXJjaHwxfHxBQkJBJTIwTXVzZXVtJTIwU3RvY2tob2xtfGVufDF8MHx8fDE3ODM0MjM3MDJ8MA&ixlib=rb-4.1.0&crop=entropy&cs=tinysrgb&fit=max&fm=jpg&q=80&w=1080"},{"placeId":"nordiska_museet","name":"Nordic Museum","nameIt":"Nordiska museet","type":"LANDMARK","lat":59.3294,"lng":18.1008,"regionId":"stockholm","regionName":"Stockholm","regionEmoji":"🏛️","image":"https://images.unsplash.com/photo-1670440746061-4e93fbe1157b?ixid=M3w5NTU4NjF8MHwxfHNlYXJjaHwxfHxOb3JkaXNrYSUyMG11c2VldCUyMFN0b2NraG9sbSUyME5vcmRpYyUyME11c2V1bXxlbnwxfDB8fHwxNzgzNDIzNzA1fDA&ixlib=rb-4.1.0&crop=entropy&cs=tinysrgb&fit=max&fm=jpg&q=80&w=1080"},{"placeId":"fotografiska","name":"Fotografiska","nameIt":"Fotografiska","type":"LANDMARK","lat":59.3199,"lng":18.0825,"regionId":"stockholm","regionName":"Stockholm","regionEmoji":"🏛️","image":"https://images.unsplash.com/photo-1592202681439-58723118d3d1?ixid=M3w5NTU4NjF8MHwxfHNlYXJjaHwxfHxGb3RvZ3JhZmlza2ElMjBTdG9ja2hvbG0lMjBwaG90b2dyYXBoeSUyMG11c2V1bXxlbnwxfDB8fHwxNzgzNDIzNzA3fDA&ixlib=rb-4.1.0&crop=entropy&cs=tinysrgb&fit=max&fm=jpg&q=80&w=1080"},{"placeId":"vaxholm","name":"Vaxholm","nameIt":"Vaxholm","type":"TOWN","lat":59.4061,"lng":18.353,"regionId":"stockholm","regionName":"Stockholm","regionEmoji":"🏛️"},{"placeId":"drottning_victoria","name":"Queen Victoria Island","nameIt":"Drottning Victorias väg","type":"ISLAND","lat":59.3356,"lng":18.1178,"regionId":"stockholm","regionName":"Stockholm","regionEmoji":"🏛️","image":"https://images.unsplash.com/photo-1735597003580-dc76038eb1bd?ixid=M3w5NTU4NjF8MHwxfHNlYXJjaHwxfHxEcm90dG5pbmclMjBWaWN0b3JpYSUyMFN0b2NraG9sbSUyMGlzbGFuZHxlbnwxfDB8fHwxNzgzNDIzNzExfDA&ixlib=rb-4.1.0&crop=entropy&cs=tinysrgb&fit=max&fm=jpg&q=80&w=1080"},{"placeId":"millesgarden","name":"Millesgården","nameIt":"Millesgården","type":"LANDMARK","lat":59.3333,"lng":18.1667,"regionId":"stockholm","regionName":"Stockholm","regionEmoji":"🏛️"},{"placeId":"gavle_city","name":"Gävle","nameIt":"Gävle","type":"CITY","lat":60.6744,"lng":17.141,"regionId":"uppsala_gavleborg","regionName":"Uppsala and Gävleborg","regionEmoji":"🏰","image":"https://images.unsplash.com/photo-1717010400471-121f2277a1fb?ixid=M3w5NTU4NjF8MHwxfHNlYXJjaHwxfHxHJUMzJUE0dmxlJTIwQ2hyaXN0bWFzJTIwZ29hdCUyMFN3ZWRlbnxlbnwxfDB8fHwxNzgzNDIzNzM2fDA&ixlib=rb-4.1.0&crop=entropy&cs=tinysrgb&fit=max&fm=jpg&q=80&w=1080"},{"placeId":"gamla_uppsala","name":"Gamla Uppsala","nameIt":"Gamla Uppsala","type":"LANDMARK","lat":59.8958,"lng":17.6456,"regionId":"uppsala_gavleborg","regionName":"Uppsala and Gävleborg","regionEmoji":"🏰","image":"https://images.unsplash.com/photo-1638487246380-6a8150f1c79a?ixid=M3w5NTU4NjF8MHwxfHNlYXJjaHwxfHxHYW1sYSUyMFVwcHNhbGElMjBtb3VuZHMlMjBWaWtpbmd8ZW58MXwwfHx8MTc4MzQyMzczOHww&ixlib=rb-4.1.0&crop=entropy&cs=tinysrgb&fit=max&fm=jpg&q=80&w=1080"},{"placeId":"uppsala_castle","name":"Uppsala Castle","nameIt":"Uppsala Slott","type":"LANDMARK","lat":59.8516,"lng":17.6475,"regionId":"uppsala_gavleborg","regionName":"Uppsala and Gävleborg","regionEmoji":"🏰","image":"https://images.unsplash.com/photo-1603127515152-785ac94d1c61?ixid=M3w5NTU4NjF8MHwxfHNlYXJjaHwxfHxVcHBzYWxhJTIwQ2FzdGxlJTIwU3dlZGVuJTIwUmVuYWlzc2FuY2V8ZW58MXwwfHx8MTc4MzQyMzczOXww&ixlib=rb-4.1.0&crop=entropy&cs=tinysrgb&fit=max&fm=jpg&q=80&w=1080"},{"placeId":"uppsala_university_museum","name":"University Museum of Uppsala","nameIt":"Uppsala Universitetsmuseum","type":"LANDMARK","lat":59.8608,"lng":17.644,"regionId":"uppsala_gavleborg","regionName":"Uppsala and Gävleborg","regionEmoji":"🏰"},{"placeId":"gavle_radhus","name":"Gävle Town Hall","nameIt":"Gävle Rådhus","type":"LANDMARK","lat":60.6748,"lng":17.142,"regionId":"uppsala_gavleborg","regionName":"Uppsala and Gävleborg","regionEmoji":"🏰"},{"placeId":"furuviksparken","name":"Furuviksparken","nameIt":"Furuviksparken","type":"NATURE","lat":60.6389,"lng":17.0667,"regionId":"uppsala_gavleborg","regionName":"Uppsala and Gävleborg","regionEmoji":"🏰","image":"https://images.unsplash.com/photo-1636927284218-43509b14be2c?ixid=M3w5NTU4NjF8MHwxfHNlYXJjaHwxfHxGdXJ1dmlrc3BhcmtlbiUyMGFtdXNlbWVudCUyMHBhcmslMjBTd2VkZW58ZW58MXwwfHx8MTc4MzQyMzc0NXww&ixlib=rb-4.1.0&crop=entropy&cs=tinysrgb&fit=max&fm=jpg&q=80&w=1080"},{"placeId":"drottningholm_palace","name":"Drottningholm Palace","nameIt":"Drottningholms Slott","type":"LANDMARK","lat":59.3261,"lng":17.8956,"regionId":"uppsala_gavleborg","regionName":"Uppsala and Gävleborg","regionEmoji":"🏰","image":"https://images.unsplash.com/photo-1719882610628-c946ee87cd8f?ixid=M3w5NTU4NjF8MHwxfHNlYXJjaHwxfHxEcm90dG5pbmdob2xtJTIwUGFsYWNlJTIwU3dlZGVuJTIwcm95YWx8ZW58MXwwfHx8MTc4MzQyMzc0N3ww&ixlib=rb-4.1.0&crop=entropy&cs=tinysrgb&fit=max&fm=jpg&q=80&w=1080"},{"placeId":"vasteras","name":"Västerås","nameIt":"Västerås","type":"CITY","lat":60.6097,"lng":16.5463,"regionId":"uppsala_gavleborg","regionName":"Uppsala and Gävleborg","regionEmoji":"🏰"},{"placeId":"uppsala_botanical_garden","name":"Uppsala Botanical Garden","nameIt":"Linnéträdgården","type":"NATURE","lat":59.8583,"lng":17.6722,"regionId":"uppsala_gavleborg","regionName":"Uppsala and Gävleborg","regionEmoji":"🏰"},{"placeId":"uppsala_museum","name":"Uppsala Museum","nameIt":"Uppsala Konstmuseum","type":"LANDMARK","lat":59.8525,"lng":17.637,"regionId":"uppsala_gavleborg","regionName":"Uppsala and Gävleborg","regionEmoji":"🏰"},{"placeId":"sandviken","name":"Sandviken","nameIt":"Sandviken","type":"TOWN","lat":60.6203,"lng":17.2667,"regionId":"uppsala_gavleborg","regionName":"Uppsala and Gävleborg","regionEmoji":"🏰"},{"placeId":"uppsala_cathedral","name":"Uppsala Cathedral","type":"MONUMENT","lat":59.8585,"lng":17.6298,"regionId":"uppsala_gavleborg","regionName":"Uppsala and Gävleborg","regionEmoji":"🏰","image":"https://images.unsplash.com/photo-1595537814477-ce4e9d1d4e80?ixid=M3w5NTU4NjF8MHwxfHNlYXJjaHwxfHxVcHBzYWxhJTIwQ2F0aGVkcmFsJTIwU3dlZGVufGVufDF8MHx8fDE3ODQwMjYzNTF8MA&ixlib=rb-4.1.0&crop=entropy&cs=tinysrgb&fit=max&fm=jpg&q=80&w=1080"},{"placeId":"gothenburg","name":"Gothenburg","nameIt":"Göteborg","type":"CITY","lat":57.7089,"lng":11.9746,"regionId":"west_coast","regionName":"West Coast","regionEmoji":"⛵"},{"placeId":"bohuslan_coast","name":"Bohuslän Coast","nameIt":"Bohuslän-kusten","type":"COASTAL","lat":58.3167,"lng":11.3667,"regionId":"west_coast","regionName":"West Coast","regionEmoji":"⛵","image":"https://images.unsplash.com/photo-1586716938030-3ae3b95a606b?ixid=M3w5NTU4NjF8MHwxfHNlYXJjaHwxfHxCb2h1c2wlQzMlQTRuJTIwY29hc3QlMjBTd2VkZW58ZW58MXwwfHx8MTc4MzQyMzc3NHww&ixlib=rb-4.1.0&crop=entropy&cs=tinysrgb&fit=max&fm=jpg&q=80&w=1080"},{"placeId":"marstrand","name":"Marstrand","nameIt":"Marstrand","type":"TOWN","lat":58.3721,"lng":11.5888,"regionId":"west_coast","regionName":"West Coast","regionEmoji":"⛵","image":"https://images.unsplash.com/photo-1660630831587-ca7e90cd2568?ixid=M3w5NTU4NjF8MHwxfHNlYXJjaHwxfHxNYXJzdHJhbmQlMjBTd2VkZW4lMjBmb3J0cmVzc3xlbnwxfDB8fHwxNzgzNDIzNzc2fDA&ixlib=rb-4.1.0&crop=entropy&cs=tinysrgb&fit=max&fm=jpg&q=80&w=1080"},{"placeId":"lysekil","name":"Lysekil","nameIt":"Lysekil","type":"TOWN","lat":58.2742,"lng":11.4383,"regionId":"west_coast","regionName":"West Coast","regionEmoji":"⛵"},{"placeId":"stromstad","name":"Strömstad","nameIt":"Strömstad","type":"TOWN","lat":58.9378,"lng":11.1476,"regionId":"west_coast","regionName":"West Coast","regionEmoji":"⛵"},{"placeId":"orust_island","name":"Orust Island","nameIt":"Orust","type":"ISLAND","lat":58.4333,"lng":11.7333,"regionId":"west_coast","regionName":"West Coast","regionEmoji":"⛵"},{"placeId":"tjorn_island","name":"Tjörn Island","nameIt":"Tjörn","type":"ISLAND","lat":58.3667,"lng":11.9,"regionId":"west_coast","regionName":"West Coast","regionEmoji":"⛵","image":"https://images.unsplash.com/photo-1586716938030-3ae3b95a606b?ixid=M3w5NTU4NjF8MHwxfHNlYXJjaHwxfHxUaiVDMyVCNnJuJTIwaXNsYW5kJTIwU3dlZGVufGVufDF8MHx8fDE3ODM0MjM3ODF8MA&ixlib=rb-4.1.0&crop=entropy&cs=tinysrgb&fit=max&fm=jpg&q=80&w=1080"},{"placeId":"kosteroarna","name":"Koster Islands","nameIt":"Kosteröarna","type":"ISLAND","lat":58.8833,"lng":11.0333,"regionId":"west_coast","regionName":"West Coast","regionEmoji":"⛵","image":"https://images.unsplash.com/photo-1562263075-da00b5209d88?ixid=M3w5NTU4NjF8MHwxfHNlYXJjaHwxfHxLb3N0ZXIlMjBJc2xhbmRzJTIwU3dlZGVufGVufDF8MHx8fDE3ODM0MjM3ODN8MA&ixlib=rb-4.1.0&crop=entropy&cs=tinysrgb&fit=max&fm=jpg&q=80&w=1080"},{"placeId":"smogen","name":"Smögen","nameIt":"Smögen","type":"VILLAGE","lat":58.3456,"lng":11.2456,"regionId":"west_coast","regionName":"West Coast","regionEmoji":"⛵","image":"https://images.unsplash.com/photo-1521227319011-590419cc0caa?ixid=M3w5NTU4NjF8MHwxfHNlYXJjaHwxfHxTbSVDMyVCNmdlbiUyMGpldHR5JTIwU3dlZGVufGVufDF8MHx8fDE3ODM0MjM3ODV8MA&ixlib=rb-4.1.0&crop=entropy&cs=tinysrgb&fit=max&fm=jpg&q=80&w=1080"},{"placeId":"ronnang","name":"Rönnäng","nameIt":"Rönnäng","type":"VILLAGE","lat":58.3306,"lng":11.1639,"regionId":"west_coast","regionName":"West Coast","regionEmoji":"⛵"},{"placeId":"kallby","name":"Källby","nameIt":"Källby","type":"VILLAGE","lat":58.1833,"lng":11.9,"regionId":"west_coast","regionName":"West Coast","regionEmoji":"⛵"},{"placeId":"bohuslans_museum","name":"Bohuslän Museum","nameIt":"Bohusläns Museum","type":"LANDMARK","lat":58.2992,"lng":11.4575,"regionId":"west_coast","regionName":"West Coast","regionEmoji":"⛵"},{"placeId":"brastad_rock_carvings","name":"Brastad Rock Carvings","nameIt":"Bråstad hällristningar","type":"LANDMARK","lat":58.4683,"lng":11.8083,"regionId":"west_coast","regionName":"West Coast","regionEmoji":"⛵"},{"placeId":"tanum_carvings","name":"Tanum Rock Carvings","nameIt":"Tanum hällristningar","type":"LANDMARK","lat":58.8056,"lng":11.4889,"regionId":"west_coast","regionName":"West Coast","regionEmoji":"⛵","image":"https://images.unsplash.com/photo-1708669531026-4ba8af22bab9?ixid=M3w5NTU4NjF8MHwxfHNlYXJjaHwxfHxUYW51bSUyMHJvY2slMjBjYXJ2aW5ncyUyMFVORVNDT3xlbnwxfDB8fHwxNzgzNDIzNzkxfDA&ixlib=rb-4.1.0&crop=entropy&cs=tinysrgb&fit=max&fm=jpg&q=80&w=1080"},{"placeId":"malmo","name":"Malmö","nameIt":"Malmö","type":"CITY","lat":55.6049,"lng":12.9094,"regionId":"southern_sweden","regionName":"Southern Sweden","regionEmoji":"🌾","image":"https://images.unsplash.com/photo-1689259377284-0030ca5895f1?ixid=M3w5NTU4NjF8MHwxfHNlYXJjaHwxfHxUdXJuaW5nJTIwVG9yc28lMjBNYWxtJUMzJUI2fGVufDF8MHx8fDE3ODM0MjM4MDR8MA&ixlib=rb-4.1.0&crop=entropy&cs=tinysrgb&fit=max&fm=jpg&q=80&w=1080"},{"placeId":"lund","name":"Lund","nameIt":"Lund","type":"CITY","lat":55.7045,"lng":13.191,"regionId":"southern_sweden","regionName":"Southern Sweden","regionEmoji":"🌾","image":"https://images.unsplash.com/photo-1612453060595-ed1f6d9cf36c?ixid=M3w5NTU4NjF8MHwxfHNlYXJjaHwxfHxMdW5kJTIwQ2F0aGVkcmFsfGVufDF8MHx8fDE3ODM0MjM4MDZ8MA&ixlib=rb-4.1.0&crop=entropy&cs=tinysrgb&fit=max&fm=jpg&q=80&w=1080"},{"placeId":"helsingborg","name":"Helsingborg","nameIt":"Helsingborg","type":"CITY","lat":56.0465,"lng":12.6945,"regionId":"southern_sweden","regionName":"Southern Sweden","regionEmoji":"🌾","image":"https://images.unsplash.com/photo-1671528256735-bfd3d7e1b2e5?ixid=M3w5NTU4NjF8MHwxfHNlYXJjaHwxfHxIZWxzaW5nYm9yZyUyMEslQzMlQTRybmFuJTIwdG93ZXJ8ZW58MXwwfHx8MTc4MzQyMzgwOHww&ixlib=rb-4.1.0&crop=entropy&cs=tinysrgb&fit=max&fm=jpg&q=80&w=1080"},{"placeId":"kristianstad","name":"Kristianstad","nameIt":"Kristianstad","type":"CITY","lat":56.0293,"lng":14.1527,"regionId":"southern_sweden","regionName":"Southern Sweden","regionEmoji":"🌾"},{"placeId":"ystad","name":"Ystad","nameIt":"Ystad","type":"COASTAL","lat":55.427,"lng":13.6204,"regionId":"southern_sweden","regionName":"Southern Sweden","regionEmoji":"🌾"},{"placeId":"simrishamn","name":"Simrishamn","nameIt":"Simrishamn","type":"COASTAL","lat":55.5595,"lng":14.3632,"regionId":"southern_sweden","regionName":"Southern Sweden","regionEmoji":"🌾"},{"placeId":"ales_stenar","name":"Ale's Stenar","nameIt":"Ales Stenar","type":"LANDMARK","lat":55.387,"lng":14.124,"regionId":"southern_sweden","regionName":"Southern Sweden","regionEmoji":"🌾","image":"https://images.unsplash.com/photo-1655741841416-c9a34818a59d?ixid=M3w5NTU4NjF8MHwxfHNlYXJjaHwxfHxBbGVzJTIwU3RlbmFyJTIwc3RvbmUlMjBzaGlwfGVufDF8MHx8fDE3ODM0MjM4MTR8MA&ixlib=rb-4.1.0&crop=entropy&cs=tinysrgb&fit=max&fm=jpg&q=80&w=1080"},{"placeId":"vimmerby","name":"Vimmerby","nameIt":"Vimmerby","type":"TOWN","lat":57.6633,"lng":15.8283,"regionId":"southern_sweden","regionName":"Southern Sweden","regionEmoji":"🌾"},{"placeId":"kalmar","name":"Kalmar","nameIt":"Kalmar","type":"CITY","lat":56.6619,"lng":16.3613,"regionId":"southern_sweden","regionName":"Southern Sweden","regionEmoji":"🌾","image":"https://images.unsplash.com/photo-1675265010868-4d3b93c047dc?ixid=M3w5NTU4NjF8MHwxfHNlYXJjaHwxfHxLYWxtYXIlMjBDYXN0bGV8ZW58MXwwfHx8MTc4MzQyMzgxN3ww&ixlib=rb-4.1.0&crop=entropy&cs=tinysrgb&fit=max&fm=jpg&q=80&w=1080"},{"placeId":"oland_island","name":"Öland Island","nameIt":"Öland","type":"ISLAND","lat":56.55,"lng":16.8,"regionId":"southern_sweden","regionName":"Southern Sweden","regionEmoji":"🌾","image":"https://images.unsplash.com/photo-1557712351-61f2a3e5e4e5?ixid=M3w5NTU4NjF8MHwxfHNlYXJjaHwxfHwlQzMlOTZsYW5kJTIwd2luZG1pbGxzJTIwbGltZXN0b25lfGVufDF8MHx8fDE3ODM0MjM4MjB8MA&ixlib=rb-4.1.0&crop=entropy&cs=tinysrgb&fit=max&fm=jpg&q=80&w=1080"},{"placeId":"glasriket","name":"Glasriket","nameIt":"Glasriket","type":"NATURE","lat":57.2,"lng":15.8,"regionId":"southern_sweden","regionName":"Southern Sweden","regionEmoji":"🌾"},{"placeId":"stegsnas","name":"Stensjön","nameIt":"Stensjön","type":"NATURE","lat":57.05,"lng":15.3,"regionId":"southern_sweden","regionName":"Southern Sweden","regionEmoji":"🌾"},{"placeId":"hassleholm","name":"Hässleholm","nameIt":"Hässleholm","type":"TOWN","lat":56.1588,"lng":13.7667,"regionId":"southern_sweden","regionName":"Southern Sweden","regionEmoji":"🌾"},{"placeId":"dalaro","name":"Dalarö","nameIt":"Dalarö","type":"COASTAL","lat":58.9478,"lng":18.5531,"regionId":"east_coast","regionName":"East Coast","regionEmoji":"🏞️"},{"placeId":"sundsvall","name":"Sundsvall","nameIt":"Sundsvall","type":"CITY","lat":62.3903,"lng":17.2869,"regionId":"east_coast","regionName":"East Coast","regionEmoji":"🏞️","image":"https://images.unsplash.com/photo-1573492539066-bf2d3e89fc73?ixid=M3w5NTU4NjF8MHwxfHNlYXJjaHwxfHxTdW5kc3ZhbGwlMjBzdG9uZSUyMGNpdHklMjBhcmNoaXRlY3R1cmV8ZW58MXwwfHx8MTc4MzQyNjYyNHww&ixlib=rb-4.1.0&crop=entropy&cs=tinysrgb&fit=max&fm=jpg&q=80&w=1080"},{"placeId":"hoga_kusten","name":"Höga Kusten (High Coast)","nameIt":"Höga Kusten","type":"NATURE","lat":62.8167,"lng":17.8333,"regionId":"east_coast","regionName":"East Coast","regionEmoji":"🏞️"},{"placeId":"visby","name":"Visby","nameIt":"Visby","type":"TOWN","lat":57.6349,"lng":18.4268,"regionId":"east_coast","regionName":"East Coast","regionEmoji":"🏞️","image":"https://images.unsplash.com/photo-1632495896324-0cf8adcea7cc?ixid=M3w5NTU4NjF8MHwxfHNlYXJjaHwxfHxWaXNieSUyMG1lZGlldmFsJTIwY2l0eSUyMHdhbGxzJTIwR290bGFuZHxlbnwxfDB8fHwxNzgzNDI2NjI3fDA&ixlib=rb-4.1.0&crop=entropy&cs=tinysrgb&fit=max&fm=jpg&q=80&w=1080"},{"placeId":"gotland","name":"Gotland Island","nameIt":"Gotland","type":"ISLAND","lat":57.5,"lng":18.5,"regionId":"east_coast","regionName":"East Coast","regionEmoji":"🏞️","image":"https://images.unsplash.com/photo-1455577625686-e8e5578a4c19?ixid=M3w5NTU4NjF8MHwxfHNlYXJjaHwxfHxHb3RsYW5kJTIwaXNsYW5kJTIwU3dlZGVuJTIwbGFuZHNjYXBlfGVufDF8MHx8fDE3ODM0MjY2MzB8MA&ixlib=rb-4.1.0&crop=entropy&cs=tinysrgb&fit=max&fm=jpg&q=80&w=1080"},{"placeId":"norrkoping","name":"Norrköping","nameIt":"Norrköping","type":"CITY","lat":58.5941,"lng":16.1826,"regionId":"east_coast","regionName":"East Coast","regionEmoji":"🏞️","image":"https://images.unsplash.com/photo-1578943226021-404384900c34?ixid=M3w5NTU4NjF8MHwxfHNlYXJjaHwxfHxOb3JyayVDMyVCNnBpbmclMjBpbmR1c3RyaWFsJTIwaGVyaXRhZ2UlMjBidWlsZGluZ3N8ZW58MXwwfHx8MTc4MzQyNjYzMnww&ixlib=rb-4.1.0&crop=entropy&cs=tinysrgb&fit=max&fm=jpg&q=80&w=1080"},{"placeId":"vastervik","name":"Västervik","nameIt":"Västervik","type":"COASTAL","lat":57.7561,"lng":16.6309,"regionId":"east_coast","regionName":"East Coast","regionEmoji":"🏞️","image":"https://images.unsplash.com/photo-1586716938030-3ae3b95a606b?ixid=M3w5NTU4NjF8MHwxfHNlYXJjaHwxfHxWJUMzJUE0c3RlcnZpayUyMGhhcmJvciUyMGFyY2hpcGVsYWdvJTIwU3dlZGVufGVufDF8MHx8fDE3ODM0MjY2MzR8MA&ixlib=rb-4.1.0&crop=entropy&cs=tinysrgb&fit=max&fm=jpg&q=80&w=1080"},{"placeId":"ostersund","name":"Östersund","nameIt":"Östersund","type":"CITY","lat":63.1808,"lng":14.6357,"regionId":"east_coast","regionName":"East Coast","regionEmoji":"🏞️","image":"https://images.unsplash.com/photo-1629100632284-14a885d0fe66?ixid=M3w5NTU4NjF8MHwxfHNlYXJjaHwxfHwlQzMlOTZzdGVyc3VuZCUyMExha2UlMjBTdG9yc2olQzMlQjZuJTIwU3dlZGVufGVufDF8MHx8fDE3ODM0MjY2MzZ8MA&ixlib=rb-4.1.0&crop=entropy&cs=tinysrgb&fit=max&fm=jpg&q=80&w=1080"},{"placeId":"stockholm","name":"Stockholm","nameIt":"Stockholm","type":"CITY","lat":59.3293,"lng":18.0686,"regionId":"central_sweden","regionName":"Central Sweden","regionEmoji":"🌲","image":"https://images.unsplash.com/photo-1590496913937-939a9b0680bd?ixid=M3w5NTU4NjF8MHwxfHNlYXJjaHwxfHxTdG9ja2hvbG0lMjBHYW1sYSUyMFN0YW4lMjBPbGQlMjBUb3dufGVufDF8MHx8fDE3ODM0MjY2ODJ8MA&ixlib=rb-4.1.0&crop=entropy&cs=tinysrgb&fit=max&fm=jpg&q=80&w=1080"},{"placeId":"uppsala","name":"Uppsala","nameIt":"Uppsala","type":"CITY","lat":59.8586,"lng":17.6389,"regionId":"central_sweden","regionName":"Central Sweden","regionEmoji":"🌲","image":"https://images.unsplash.com/photo-1595537814477-ce4e9d1d4e80?ixid=M3w5NTU4NjF8MHwxfHNlYXJjaHwxfHxVcHBzYWxhJTIwQ2F0aGVkcmFsJTIwU3dlZGVufGVufDF8MHx8fDE3ODM0MjM3MzR8MA&ixlib=rb-4.1.0&crop=entropy&cs=tinysrgb&fit=max&fm=jpg&q=80&w=1080"},{"placeId":"stockholm_archipelago","name":"Stockholm Archipelago","nameIt":"Stockholms skärgård","type":"COASTAL","lat":59.2,"lng":18.9,"regionId":"central_sweden","regionName":"Central Sweden","regionEmoji":"🌲","image":"https://images.unsplash.com/photo-1508738102835-f1fe48178e7b?ixid=M3w5NTU4NjF8MHwxfHNlYXJjaHwxfHxTdG9ja2hvbG0lMjBhcmNoaXBlbGFnbyUyMGlzbGFuZHN8ZW58MXwwfHx8MTc4MzQyNjY4Nnww&ixlib=rb-4.1.0&crop=entropy&cs=tinysrgb&fit=max&fm=jpg&q=80&w=1080"},{"placeId":"sigtuna","name":"Sigtuna","nameIt":"Sigtuna","type":"TOWN","lat":59.6169,"lng":17.7075,"regionId":"central_sweden","regionName":"Central Sweden","regionEmoji":"🌲"},{"placeId":"gripsholm_castle","name":"Gripsholm Castle","nameIt":"Gripsholms slott","type":"LANDMARK","lat":59.1744,"lng":17.1972,"regionId":"central_sweden","regionName":"Central Sweden","regionEmoji":"🌲","image":"https://images.unsplash.com/photo-1751057346793-9b55f5dd9f0a?ixid=M3w5NTU4NjF8MHwxfHNlYXJjaHwxfHxHcmlwc2hvbG0lMjBDYXN0bGUlMjBTd2VkZW58ZW58MXwwfHx8MTc4MzQyNjYyMHww&ixlib=rb-4.1.0&crop=entropy&cs=tinysrgb&fit=max&fm=jpg&q=80&w=1080"},{"placeId":"lake_malaren","name":"Lake Mälaren","nameIt":"Mälaren","type":"NATURE","lat":59.3,"lng":17.3,"regionId":"central_sweden","regionName":"Central Sweden","regionEmoji":"🌲","image":"https://images.unsplash.com/photo-1714477917277-a61c7e0477ab?ixid=M3w5NTU4NjF8MHwxfHNlYXJjaHwxfHxMYWtlJTIwTSVDMyVBNGxhcmVuJTIwU3dlZGVufGVufDF8MHx8fDE3ODM0MjY2OTN8MA&ixlib=rb-4.1.0&crop=entropy&cs=tinysrgb&fit=max&fm=jpg&q=80&w=1080"},{"placeId":"mariefred","name":"Mariefred","nameIt":"Mariefred","type":"TOWN","lat":59.1639,"lng":17.1494,"regionId":"central_sweden","regionName":"Central Sweden","regionEmoji":"🌲","image":"https://images.unsplash.com/photo-1749867053231-985b90d36ee7?ixid=M3w5NTU4NjF8MHwxfHNlYXJjaHwxfHxNYXJpZWZyZWQlMjBTd2VkZW4lMjBsYWtlc2lkZSUyMHRvd258ZW58MXwwfHx8MTc4MzQyNjY5Nnww&ixlib=rb-4.1.0&crop=entropy&cs=tinysrgb&fit=max&fm=jpg&q=80&w=1080"},{"placeId":"delsbo","name":"Delsbo","nameIt":"Delsbo","type":"VILLAGE","lat":61.3667,"lng":16.1833,"regionId":"central_sweden","regionName":"Central Sweden","regionEmoji":"🌲"},{"placeId":"arboga","name":"Arboga","nameIt":"Arboga","type":"TOWN","lat":59.0278,"lng":15.8406,"regionId":"central_sweden","regionName":"Central Sweden","regionEmoji":"🌲"},{"placeId":"falun","name":"Falun","nameIt":"Falun","type":"CITY","lat":60.4947,"lng":15.6267,"regionId":"dalarna","regionName":"Dalarna","regionEmoji":"🎨","image":"https://images.unsplash.com/photo-1733928614777-5da68b55df54?ixid=M3w5NTU4NjF8MHwxfHNlYXJjaHwxfHxGYWx1biUyMEdyZWF0JTIwQ29wcGVyJTIwTWluZSUyMFN3ZWRlbnxlbnwxfDB8fHwxNzgzNDMwMjg2fDA&ixlib=rb-4.1.0&crop=entropy&cs=tinysrgb&fit=max&fm=jpg&q=80&w=1080"},{"placeId":"mora","name":"Mora","nameIt":"Mora","type":"TOWN","lat":61.0055,"lng":15.545,"regionId":"dalarna","regionName":"Dalarna","regionEmoji":"🎨"},{"placeId":"rattvik","name":"Rättvik","nameIt":"Rättvik","type":"TOWN","lat":60.8964,"lng":15.8047,"regionId":"dalarna","regionName":"Dalarna","regionEmoji":"🎨"},{"placeId":"leksand","name":"Leksand","nameIt":"Leksand","type":"TOWN","lat":60.759,"lng":15.0302,"regionId":"dalarna","regionName":"Dalarna","regionEmoji":"🎨","image":"https://images.unsplash.com/photo-1758547510696-6d5916b5d7ed?ixid=M3w5NTU4NjF8MHwxfHNlYXJjaHwxfHxMZWtzYW5kJTIwQ2h1cmNoJTIwU3dlZGVufGVufDF8MHx8fDE3ODM0MzAyOTB8MA&ixlib=rb-4.1.0&crop=entropy&cs=tinysrgb&fit=max&fm=jpg&q=80&w=1080"},{"placeId":"lake_siljan","name":"Lake Siljan","nameIt":"Siljan","type":"NATURE","lat":60.85,"lng":15.5,"regionId":"dalarna","regionName":"Dalarna","regionEmoji":"🎨"},{"placeId":"sundborn","name":"Sundborn","nameIt":"Sundborn","type":"VILLAGE","lat":60.6667,"lng":15.4167,"regionId":"dalarna","regionName":"Dalarna","regionEmoji":"🎨"},{"placeId":"nusnas","name":"Nusnäs","nameIt":"Nusnäs","type":"VILLAGE","lat":61.05,"lng":15.5667,"regionId":"dalarna","regionName":"Dalarna","regionEmoji":"🎨"},{"placeId":"salen","name":"Sälen","nameIt":"Sälen","type":"TOWN","lat":61.15,"lng":12.8333,"regionId":"dalarna","regionName":"Dalarna","regionEmoji":"🎨"},{"placeId":"tallberg","name":"Tällberg","nameIt":"Tällberg","type":"VILLAGE","lat":60.8847,"lng":15.0517,"regionId":"dalarna","regionName":"Dalarna","regionEmoji":"🎨"},{"placeId":"borlange","name":"Borlänge","nameIt":"Borlänge","type":"CITY","lat":60.4878,"lng":15.4256,"regionId":"dalarna","regionName":"Dalarna","regionEmoji":"🎨"},{"placeId":"idre","name":"Idre","nameIt":"Idre","type":"TOWN","lat":61.5833,"lng":12.6833,"regionId":"dalarna","regionName":"Dalarna","regionEmoji":"🎨","image":"https://images.unsplash.com/photo-1456437340567-faf782b404e7?ixid=M3w5NTU4NjF8MHwxfHNlYXJjaHwxfHxJZHJlJTIwc2tpJTIwcmVzb3J0JTIwU3dlZGVufGVufDF8MHx8fDE3ODM0MzAyOTh8MA&ixlib=rb-4.1.0&crop=entropy&cs=tinysrgb&fit=max&fm=jpg&q=80&w=1080"},{"placeId":"siljansleden","name":"Siljansleden Trail","nameIt":"Siljansleden","type":"NATURE","lat":60.85,"lng":15.5,"regionId":"dalarna","regionName":"Dalarna","regionEmoji":"🎨"},{"placeId":"avesta","name":"Avesta","nameIt":"Avesta","type":"CITY","lat":60.6569,"lng":16.1781,"regionId":"dalarna","regionName":"Dalarna","regionEmoji":"🎨"},{"placeId":"kiruna","name":"Kiruna","nameIt":"Kiruna","type":"CITY","lat":67.8557,"lng":20.2257,"regionId":"norrbotten","regionName":"Norrbotten","regionEmoji":"🌌"},{"placeId":"abisko","name":"Abisko","nameIt":"Abisko","type":"VILLAGE","lat":68.3529,"lng":18.8227,"regionId":"norrbotten","regionName":"Norrbotten","regionEmoji":"🌌","image":"https://images.unsplash.com/photo-1610620746460-de78cf3d1705?ixid=M3w5NTU4NjF8MHwxfHNlYXJjaHwxfHxBYmlza28lMjBOb3J0aGVybiUyMExpZ2h0cyUyMGF1cm9yYXxlbnwxfDB8fHwxNzgzNDMwMzgwfDA&ixlib=rb-4.1.0&crop=entropy&cs=tinysrgb&fit=max&fm=jpg&q=80&w=1080"},{"placeId":"lulea","name":"Luleå","nameIt":"Luleå","type":"CITY","lat":65.5847,"lng":22.1566,"regionId":"norrbotten","regionName":"Norrbotten","regionEmoji":"🌌"},{"placeId":"torne_valley","name":"Torne Valley","nameIt":"Tornedalens","type":"TOWN","lat":66.1833,"lng":23.5,"regionId":"norrbotten","regionName":"Norrbotten","regionEmoji":"🌌"},{"placeId":"haparanda","name":"Haparanda","nameIt":"Haparanda","type":"TOWN","lat":65.8356,"lng":24.1406,"regionId":"norrbotten","regionName":"Norrbotten","regionEmoji":"🌌","image":"https://images.unsplash.com/photo-1562263075-da00b5209d88?ixid=M3w5NTU4NjF8MHwxfHNlYXJjaHwxfHxIYXBhcmFuZGElMjBTd2VkZW4lMjB3b29kZW4lMjBob3VzZXN8ZW58MXwwfHx8MTc4MzQzMDM4NHww&ixlib=rb-4.1.0&crop=entropy&cs=tinysrgb&fit=max&fm=jpg&q=80&w=1080"},{"placeId":"icehotel","name":"ICEHOTEL","nameIt":"ICEHOTEL","type":"LANDMARK","lat":67.8315,"lng":20.6104,"regionId":"norrbotten","regionName":"Norrbotten","regionEmoji":"🌌"},{"placeId":"abisko_national_park","name":"Abisko National Park","nameIt":"Abisko Nationalpark","type":"NATURE","lat":68.35,"lng":18.8,"regionId":"norrbotten","regionName":"Norrbotten","regionEmoji":"🌌","image":"https://images.unsplash.com/photo-1665189196532-cf3575e44ad9?ixid=M3w5NTU4NjF8MHwxfHNlYXJjaHwxfHxBYmlza28lMjBOYXRpb25hbCUyMFBhcmslMjBoaWtpbmclMjB0cmFpbHN8ZW58MXwwfHx8MTc4MzQzMDM4OHww&ixlib=rb-4.1.0&crop=entropy&cs=tinysrgb&fit=max&fm=jpg&q=80&w=1080"},{"placeId":"kebnekaise","name":"Kebnekaise","nameIt":"Kebnekaise","type":"LANDMARK","lat":67.8972,"lng":18.5544,"regionId":"norrbotten","regionName":"Norrbotten","regionEmoji":"🌌","image":"https://images.unsplash.com/photo-1607387026993-ffd4dcb2a32d?ixid=M3w5NTU4NjF8MHwxfHNlYXJjaHwxfHxLZWJuZWthaXNlJTIwbW91bnRhaW4lMjBTd2VkZW4lMjBwZWFrfGVufDF8MHx8fDE3ODM0MzAzOTB8MA&ixlib=rb-4.1.0&crop=entropy&cs=tinysrgb&fit=max&fm=jpg&q=80&w=1080"},{"placeId":"northernmost_point","name":"Treriksröset","nameIt":"Treriksröset","type":"LANDMARK","lat":68.0657,"lng":20.7752,"regionId":"norrbotten","regionName":"Norrbotten","regionEmoji":"🌌"},{"placeId":"pite_river","name":"Pite River","nameIt":"Piteälven","type":"NATURE","lat":65.3,"lng":21,"regionId":"norrbotten","regionName":"Norrbotten","regionEmoji":"🌌"},{"placeId":"lulea_archipelago","name":"Luleå Archipelago","nameIt":"Luleå Skärgård","type":"COASTAL","lat":65.55,"lng":22.45,"regionId":"norrbotten","regionName":"Norrbotten","regionEmoji":"🌌"},{"placeId":"katterjakk","name":"Katterjakk","nameIt":"Katterjakk","type":"VILLAGE","lat":67.4167,"lng":21.1667,"regionId":"norrbotten","regionName":"Norrbotten","regionEmoji":"🌌"},{"placeId":"umea","name":"Umeå","nameIt":"Umeå","type":"CITY","lat":63.8258,"lng":20.9663,"regionId":"vasterbotten","regionName":"Västerbotten","regionEmoji":"❄️","image":"https://images.unsplash.com/photo-1631378726249-df876ab46045?ixid=M3w5NTU4NjF8MHwxfHNlYXJjaHwxfHxVbWUlQzMlQTUlMjBjaXR5JTIwU3dlZGVufGVufDF8MHx8fDE3ODM0MzA0MTF8MA&ixlib=rb-4.1.0&crop=entropy&cs=tinysrgb&fit=max&fm=jpg&q=80&w=1080"},{"placeId":"skeleftea","name":"Skellefteå","nameIt":"Skellefteå","type":"CITY","lat":64.7506,"lng":20.9521,"regionId":"vasterbotten","regionName":"Västerbotten","regionEmoji":"❄️","image":"https://images.unsplash.com/photo-1758547510696-6d5916b5d7ed?ixid=M3w5NTU4NjF8MHwxfHNlYXJjaHwxfHxTa2VsbGVmdGUlQzMlQTUlMjBDaHVyY2glMjBTd2VkZW58ZW58MXwwfHx8MTc4MzQzMDQxM3ww&ixlib=rb-4.1.0&crop=entropy&cs=tinysrgb&fit=max&fm=jpg&q=80&w=1080"},{"placeId":"bjurholm","name":"Bjurholm","nameIt":"Bjurholm","type":"TOWN","lat":64.4053,"lng":20.7378,"regionId":"vasterbotten","regionName":"Västerbotten","regionEmoji":"❄️"},{"placeId":"vastra_nyby","name":"Västernäs","nameIt":"Västernäs","type":"COASTAL","lat":63.5644,"lng":21.6461,"regionId":"vasterbotten","regionName":"Västerbotten","regionEmoji":"❄️"},{"placeId":"lycksele","name":"Lycksele","nameIt":"Lycksele","type":"TOWN","lat":64.5961,"lng":18.6742,"regionId":"vasterbotten","regionName":"Västerbotten","regionEmoji":"❄️","image":"https://images.unsplash.com/photo-1718305361470-be4b5b6b051d?ixid=M3w5NTU4NjF8MHwxfHNlYXJjaHwxfHxMeWNrc2VsZSUyMFpvbyUyMFN3ZWRlbnxlbnwxfDB8fHwxNzgzNDMwNDE3fDA&ixlib=rb-4.1.0&crop=entropy&cs=tinysrgb&fit=max&fm=jpg&q=80&w=1080"},{"placeId":"vindeln","name":"Vindeln","nameIt":"Vindeln","type":"TOWN","lat":64.2425,"lng":20.6497,"regionId":"vasterbotten","regionName":"Västerbotten","regionEmoji":"❄️","image":"https://images.unsplash.com/photo-1440581572325-0bea30075d9d?ixid=M3w5NTU4NjF8MHwxfHNlYXJjaHwxfHxWaW5kZWxuJTIwU3dlZGVuJTIwZm9yZXN0fGVufDF8MHx8fDE3ODM0MzA0MTl8MA&ixlib=rb-4.1.0&crop=entropy&cs=tinysrgb&fit=max&fm=jpg&q=80&w=1080"},{"placeId":"vindelfjallen","name":"Vindelfjällen","nameIt":"Vindelfjällen","type":"NATURE","lat":65.0828,"lng":17.9403,"regionId":"vasterbotten","regionName":"Västerbotten","regionEmoji":"❄️"},{"placeId":"umea_archipelago","name":"Umeå Archipelago","nameIt":"Umeå skärgård","type":"COASTAL","lat":63.7733,"lng":20.2833,"regionId":"vasterbotten","regionName":"Västerbotten","regionEmoji":"❄️"},{"placeId":"norrfors","name":"Norr-fors","nameIt":"Norr-fors","type":"LANDMARK","lat":64.8597,"lng":20.3833,"regionId":"vasterbotten","regionName":"Västerbotten","regionEmoji":"❄️","image":"https://images.unsplash.com/photo-1605814058795-e900dee26613?ixid=M3w5NTU4NjF8MHwxfHNlYXJjaHwxfHxOb3JyLWZvcnMlMjBtdXNldW0lMjBTd2VkZW58ZW58MXwwfHx8MTc4MzQzMDQyNHww&ixlib=rb-4.1.0&crop=entropy&cs=tinysrgb&fit=max&fm=jpg&q=80&w=1080"},{"placeId":"holmoen","name":"Holmöen","nameIt":"Holmöen","type":"ISLAND","lat":64.1833,"lng":20.2667,"regionId":"vasterbotten","regionName":"Västerbotten","regionEmoji":"❄️"},{"placeId":"bastutrask","name":"Bastuträsk","nameIt":"Bastuträsk","type":"TOWN","lat":64.9447,"lng":19.6397,"regionId":"vasterbotten","regionName":"Västerbotten","regionEmoji":"❄️","image":"https://images.unsplash.com/photo-1562263075-da00b5209d88?ixid=M3w5NTU4NjF8MHwxfHNlYXJjaHwxfHxCYXN0dXRyJUMzJUE0c2slMjBTd2VkZW4lMjB0b3dufGVufDF8MHx8fDE3ODM0MzA0Mjd8MA&ixlib=rb-4.1.0&crop=entropy&cs=tinysrgb&fit=max&fm=jpg&q=80&w=1080"},{"placeId":"are_ski_resort","name":"Åre Mountain Resort","nameIt":"Åre","type":"LANDMARK","lat":63.3977,"lng":11.4828,"regionId":"jamtland_harjedalen","regionName":"Jämtland and Härjedalen","regionEmoji":"⛷️"},{"placeId":"tannforsen_waterfall","name":"Tännforsen Waterfall","nameIt":"Tännforsen","type":"NATURE","lat":64.6239,"lng":16.3333,"regionId":"jamtland_harjedalen","regionName":"Jämtland and Härjedalen","regionEmoji":"⛷️"},{"placeId":"storsjoen_lake","name":"Storsjön Lake","nameIt":"Storsjön","type":"NATURE","lat":63.15,"lng":14.5,"regionId":"jamtland_harjedalen","regionName":"Jämtland and Härjedalen","regionEmoji":"⛷️","image":"https://images.unsplash.com/photo-1629100632234-14ddfd7f01d0?ixid=M3w5NTU4NjF8MHwxfHNlYXJjaHwxfHxTdG9yc2olQzMlQjZuJTIwbGFrZSUyMEolQzMlQTRtdGxhbmR8ZW58MXwwfHx8MTc4MzQzMDQ0OXww&ixlib=rb-4.1.0&crop=entropy&cs=tinysrgb&fit=max&fm=jpg&q=80&w=1080"},{"placeId":"roros_mining_town","name":"Röros","nameIt":"Röros","type":"TOWN","lat":65.014,"lng":11.3801,"regionId":"jamtland_harjedalen","regionName":"Jämtland and Härjedalen","regionEmoji":"⛷️"},{"placeId":"funasdalens_valley","name":"Funäsdalen Valley","nameIt":"Funäsdalen","type":"VILLAGE","lat":64.7078,"lng":14.995,"regionId":"jamtland_harjedalen","regionName":"Jämtland and Härjedalen","regionEmoji":"⛷️"},{"placeId":"brunflo_village","name":"Brunflo","nameIt":"Brunflo","type":"VILLAGE","lat":63.6483,"lng":14.9067,"regionId":"jamtland_harjedalen","regionName":"Jämtland and Härjedalen","regionEmoji":"⛷️","image":"https://images.unsplash.com/photo-1562263075-da00b5209d88?ixid=M3w5NTU4NjF8MHwxfHNlYXJjaHwxfHxCcnVuZmxvJTIwdmlsbGFnZSUyMFN3ZWRlbnxlbnwxfDB8fHwxNzgzNDMwNDU0fDA&ixlib=rb-4.1.0&crop=entropy&cs=tinysrgb&fit=max&fm=jpg&q=80&w=1080"},{"placeId":"harjedalen_mountains","name":"Härjedalen Mountains","nameIt":"Härjedalens fjällen","type":"NATURE","lat":64.85,"lng":12.5,"regionId":"jamtland_harjedalen","regionName":"Jämtland and Härjedalen","regionEmoji":"⛷️","image":"https://images.unsplash.com/photo-1545586860-95d2040c1680?ixid=M3w5NTU4NjF8MHwxfHNlYXJjaHwxfHxIJUMzJUE0cmplZGFsZW4lMjBtb3VudGFpbnMlMjBsYW5kc2NhcGV8ZW58MXwwfHx8MTc4MzQzMDQ1Nnww&ixlib=rb-4.1.0&crop=entropy&cs=tinysrgb&fit=max&fm=jpg&q=80&w=1080"},{"placeId":"jamtland_greenland","name":"Jämtland Greenland","nameIt":"Jämtlands Gröna Land","type":"NATURE","lat":63.8,"lng":15.5,"regionId":"jamtland_harjedalen","regionName":"Jämtland and Härjedalen","regionEmoji":"⛷️"},{"placeId":"undersaker_skiing","name":"Undersåker Ski Area","nameIt":"Undersåker","type":"LANDMARK","lat":63.4117,"lng":11.3189,"regionId":"jamtland_harjedalen","regionName":"Jämtland and Härjedalen","regionEmoji":"⛷️"},{"placeId":"vemdalsskalet_plateau","name":"Vemdalsskalet Plateau","nameIt":"Vemdalsskalet","type":"NATURE","lat":64.4167,"lng":13.6667,"regionId":"jamtland_harjedalen","regionName":"Jämtland and Härjedalen","regionEmoji":"⛷️"},{"placeId":"lit_church","name":"Lit Church","nameIt":"Lit kyrka","type":"LANDMARK","lat":64.3394,"lng":15.0681,"regionId":"jamtland_harjedalen","regionName":"Jämtland and Härjedalen","regionEmoji":"⛷️"},{"placeId":"karlstad","name":"Karlstad","nameIt":"Karlstad","type":"CITY","lat":59.3793,"lng":13.5036,"regionId":"varmland","regionName":"Värmland","regionEmoji":"🏞️"},{"placeId":"sunne","name":"Sunne","nameIt":"Sunne","type":"TOWN","lat":59.8467,"lng":13.7644,"regionId":"varmland","regionName":"Värmland","regionEmoji":"🏞️"},{"placeId":"arvika","name":"Arvika","nameIt":"Arvika","type":"TOWN","lat":59.6564,"lng":12.5956,"regionId":"varmland","regionName":"Värmland","regionEmoji":"🏞️"},{"placeId":"filipstad","name":"Filipstad","nameIt":"Filipstad","type":"TOWN","lat":59.688,"lng":13.6461,"regionId":"varmland","regionName":"Värmland","regionEmoji":"🏞️"},{"placeId":"lago_wermdoe","name":"Löken","nameIt":"Löken","type":"NATURE","lat":60.0033,"lng":13.1833,"regionId":"varmland","regionName":"Värmland","regionEmoji":"🏞️"},{"placeId":"torsby","name":"Torsby","nameIt":"Torsby","type":"TOWN","lat":60.2014,"lng":13.5714,"regionId":"varmland","regionName":"Värmland","regionEmoji":"🏞️"},{"placeId":"hagfors","name":"Hagfors","nameIt":"Hagfors","type":"TOWN","lat":60.0431,"lng":13.9572,"regionId":"varmland","regionName":"Värmland","regionEmoji":"🏞️"},{"placeId":"lekvattnet","name":"Lekvattnet","nameIt":"Lekvattnet","type":"NATURE","lat":59.2844,"lng":13.9814,"regionId":"varmland","regionName":"Värmland","regionEmoji":"🏞️","image":"https://images.unsplash.com/photo-1565039320828-e97535b882e0?ixid=M3w5NTU4NjF8MHwxfHNlYXJjaHwxfHxMZWt2YXR0bmV0JTIwbGFrZSUyMFN3ZWRlbnxlbnwxfDB8fHwxNzgzNDMzMDg5fDA&ixlib=rb-4.1.0&crop=entropy&cs=tinysrgb&fit=max&fm=jpg&q=80&w=1080"},{"placeId":"fryken_valley","name":"Fryken Valley","nameIt":"Frykendale","type":"NATURE","lat":59.85,"lng":13.75,"regionId":"varmland","regionName":"Värmland","regionEmoji":"🏞️"},{"placeId":"marbacka","name":"Märbacka","nameIt":"Märbacka","type":"LANDMARK","lat":59.9489,"lng":14.0453,"regionId":"varmland","regionName":"Värmland","regionEmoji":"🏞️","image":"https://images.unsplash.com/photo-1620419522250-8c4140478030?ixid=M3w5NTU4NjF8MHwxfHNlYXJjaHwxfHxNJUMzJUE0cmJhY2thJTIwU2VsbWElMjBMYWdlcmwlQzMlQjZmJTIwaG9tZXxlbnwxfDB8fHwxNzgzNDMzMDk0fDA&ixlib=rb-4.1.0&crop=entropy&cs=tinysrgb&fit=max&fm=jpg&q=80&w=1080"},{"placeId":"edebro","name":"Edebro","nameIt":"Edebro","type":"VILLAGE","lat":59.5606,"lng":13.7447,"regionId":"varmland","regionName":"Värmland","regionEmoji":"🏞️"},{"placeId":"varmlands_museum","name":"Värmlands Museum","nameIt":"Värmlands Museum","type":"LANDMARK","lat":59.3748,"lng":13.5119,"regionId":"varmland","regionName":"Värmland","regionEmoji":"🏞️"},{"placeId":"claes_andersson_museum","name":"Claes Andersson Museum","nameIt":"Claes Andersson Museet","type":"LANDMARK","lat":59.38,"lng":13.51,"regionId":"varmland","regionName":"Värmland","regionEmoji":"🏞️"},{"placeId":"lansmuseet_alva","name":"Alva Museum","nameIt":"Länsmuseet Alva","type":"LANDMARK","lat":59.6564,"lng":12.5956,"regionId":"varmland","regionName":"Värmland","regionEmoji":"🏞️","image":"https://images.unsplash.com/photo-1661760287397-4078833d3f53?ixid=M3w5NTU4NjF8MHwxfHNlYXJjaHwxfHxMJUMzJUE0bnNtdXNlZXQlMjBBbHZhJTIwQXJ2aWthfGVufDF8MHx8fDE3ODM0MzMxMDF8MA&ixlib=rb-4.1.0&crop=entropy&cs=tinysrgb&fit=max&fm=jpg&q=80&w=1080"},{"placeId":"tofta_beach","name":"Tofta Beach","nameIt":"Tofta Strand","type":"COASTAL","lat":57.4789,"lng":18.2456,"regionId":"gotland","regionName":"Gotland","regionEmoji":"🏝️"},{"placeId":"kappelshamn","name":"Kappelshamn","nameIt":"Kappelshamn","type":"COASTAL","lat":57.5067,"lng":18.3867,"regionId":"gotland","regionName":"Gotland","regionEmoji":"🏝️"},{"placeId":"lummelunda_cave","name":"Lummelunda Cave","nameIt":"Lummelunda Grottor","type":"LANDMARK","lat":57.5789,"lng":18.4123,"regionId":"gotland","regionName":"Gotland","regionEmoji":"🏝️","image":"https://images.unsplash.com/photo-1510256506868-484d0db06ee2?ixid=M3w5NTU4NjF8MHwxfHNlYXJjaHwxfHxMdW1tZWx1bmRhJTIwQ2F2ZSUyMHN0YWxhY3RpdGVzfGVufDF8MHx8fDE3ODM0MzM4OTB8MA&ixlib=rb-4.1.0&crop=entropy&cs=tinysrgb&fit=max&fm=jpg&q=80&w=1080"},{"placeId":"hoburgen","name":"Hoburgen","nameIt":"Hoburgen","type":"NATURE","lat":57.3467,"lng":18.6234,"regionId":"gotland","regionName":"Gotland","regionEmoji":"🏝️"},{"placeId":"faro","name":"Faro","nameIt":"Faro","type":"ISLAND","lat":57.7834,"lng":18.5123,"regionId":"gotland","regionName":"Gotland","regionEmoji":"🏝️","image":"https://images.unsplash.com/photo-1564422780101-aa9dfd7f0160?ixid=M3w5NTU4NjF8MHwxfHNlYXJjaHwxfHxGYXJvJTIwcmF1a2FyJTIwbGltZXN0b25lJTIwc3RhY2tzfGVufDF8MHx8fDE3ODM0MzM4OTR8MA&ixlib=rb-4.1.0&crop=entropy&cs=tinysrgb&fit=max&fm=jpg&q=80&w=1080"},{"placeId":"hemse","name":"Hemse","nameIt":"Hemse","type":"TOWN","lat":57.4234,"lng":18.3678,"regionId":"gotland","regionName":"Gotland","regionEmoji":"🏝️","image":"https://images.unsplash.com/photo-1776090104133-c026dc9e1df3?ixid=M3w5NTU4NjF8MHwxfHNlYXJjaHwxfHxIZW1zZSUyMENodXJjaCUyMG1lZGlldmFsJTIwbXVyYWxzfGVufDF8MHx8fDE3ODM0MzM4OTd8MA&ixlib=rb-4.1.0&crop=entropy&cs=tinysrgb&fit=max&fm=jpg&q=80&w=1080"},{"placeId":"slite","name":"Slite","nameIt":"Slite","type":"TOWN","lat":57.6123,"lng":18.5789,"regionId":"gotland","regionName":"Gotland","regionEmoji":"🏝️","image":"https://images.unsplash.com/photo-1576723664541-23f84c3f93fb?ixid=M3w5NTU4NjF8MHwxfHNlYXJjaHwxfHxTbGl0ZSUyMGhhcmJvciUyMHJlc3RhdXJhbnRzfGVufDF8MHx8fDE3ODM0MzM5MDB8MA&ixlib=rb-4.1.0&crop=entropy&cs=tinysrgb&fit=max&fm=jpg&q=80&w=1080"},{"placeId":"botde_stone_ship","name":"Botde Stone Ship","nameIt":"Botde Skeppssattning","type":"LANDMARK","lat":57.5456,"lng":18.2345,"regionId":"gotland","regionName":"Gotland","regionEmoji":"🏝️","image":"https://images.unsplash.com/photo-1633555442524-533869f78371?ixid=M3w5NTU4NjF8MHwxfHNlYXJjaHwxfHxCb3RkZSUyMHN0b25lJTIwc2hpcHxlbnwxfDB8fHwxNzgzNDMzOTAyfDA&ixlib=rb-4.1.0&crop=entropy&cs=tinysrgb&fit=max&fm=jpg&q=80&w=1080"},{"placeId":"rone_sand","name":"Rone Sand Beach","nameIt":"Rone Sand","type":"COASTAL","lat":57.3234,"lng":18.6456,"regionId":"gotland","regionName":"Gotland","regionEmoji":"🏝️"},{"placeId":"ljugarn","name":"Ljugarn","nameIt":"Ljugarn","type":"COASTAL","lat":57.3956,"lng":18.7234,"regionId":"gotland","regionName":"Gotland","regionEmoji":"🏝️"},{"placeId":"gnisvard","name":"Gnisvard Picture Stones","nameIt":"Gnisvard Bildstenar","type":"LANDMARK","lat":57.4123,"lng":18.1567,"regionId":"gotland","regionName":"Gotland","regionEmoji":"🏝️","image":"https://images.unsplash.com/photo-1610130531315-98de9d5b357b?ixid=M3w5NTU4NjF8MHwxfHNlYXJjaHwxfHxHbmlzdmFyZCUyMHBpY3R1cmUlMjBzdG9uZXN8ZW58MXwwfHx8MTc4MzQzMzkwNnww&ixlib=rb-4.1.0&crop=entropy&cs=tinysrgb&fit=max&fm=jpg&q=80&w=1080"},{"placeId":"roma_church","name":"Roma Church","nameIt":"Roma Kyrka","type":"LANDMARK","lat":57.4567,"lng":18.4234,"regionId":"gotland","regionName":"Gotland","regionEmoji":"🏝️"}]