[
  {
    "placeId": "nottingham",
    "name": "Nottingham",
    "nameIt": "Nottingham",
    "type": "CITY",
    "lat": 52.9549,
    "lng": -1.1581,
    "regionId": "england_east_midlands",
    "regionName": "East Midlands",
    "regionEmoji": "🏭"
  },
  {
    "placeId": "leicester",
    "name": "Leicester",
    "nameIt": "Leicester",
    "type": "CITY",
    "lat": 52.6369,
    "lng": -1.1398,
    "regionId": "england_east_midlands",
    "regionName": "East Midlands",
    "regionEmoji": "🏭"
  },
  {
    "placeId": "derby",
    "name": "Derby",
    "nameIt": "Derby",
    "type": "CITY",
    "lat": 52.9229,
    "lng": -1.4766,
    "regionId": "england_east_midlands",
    "regionName": "East Midlands",
    "regionEmoji": "🏭"
  },
  {
    "placeId": "peak_district",
    "name": "Peak District",
    "nameIt": "Peak District",
    "type": "NATURE",
    "lat": 53.35,
    "lng": -1.8,
    "regionId": "england_east_midlands",
    "regionName": "East Midlands",
    "regionEmoji": "🏭"
  },
  {
    "placeId": "chatsworth",
    "name": "Chatsworth House",
    "nameIt": "Chatsworth House",
    "type": "LANDMARK",
    "lat": 53.2303,
    "lng": -1.6447,
    "regionId": "england_east_midlands",
    "regionName": "East Midlands",
    "regionEmoji": "🏭"
  },
  {
    "placeId": "matlock",
    "name": "Matlock",
    "nameIt": "Matlock",
    "type": "TOWN",
    "lat": 53.1476,
    "lng": -1.7942,
    "regionId": "england_east_midlands",
    "regionName": "East Midlands",
    "regionEmoji": "🏭"
  },
  {
    "placeId": "belper",
    "name": "Belper",
    "nameIt": "Belper",
    "type": "TOWN",
    "lat": 53.0226,
    "lng": -1.4879,
    "regionId": "england_east_midlands",
    "regionName": "East Midlands",
    "regionEmoji": "🏭"
  },
  {
    "placeId": "lincoln",
    "name": "Lincoln",
    "nameIt": "Lincoln",
    "type": "CITY",
    "lat": 53.2265,
    "lng": -0.5415,
    "regionId": "england_east_midlands",
    "regionName": "East Midlands",
    "regionEmoji": "🏭"
  },
  {
    "placeId": "ashby_de_la_zouch",
    "name": "Ashby-de-la-Zouch",
    "nameIt": "Ashby-de-la-Zouch",
    "type": "TOWN",
    "lat": 52.736,
    "lng": -1.4672,
    "regionId": "england_east_midlands",
    "regionName": "East Midlands",
    "regionEmoji": "🏭"
  },
  {
    "placeId": "stamford",
    "name": "Stamford",
    "nameIt": "Stamford",
    "type": "TOWN",
    "lat": 52.6568,
    "lng": -0.4832,
    "regionId": "england_east_midlands",
    "regionName": "East Midlands",
    "regionEmoji": "🏭"
  },
  {
    "placeId": "sudbury_hall",
    "name": "Sudbury Hall",
    "nameIt": "Sudbury Hall",
    "type": "LANDMARK",
    "lat": 53.1121,
    "lng": -1.7159,
    "regionId": "england_east_midlands",
    "regionName": "East Midlands",
    "regionEmoji": "🏭"
  },
  {
    "placeId": "oakham",
    "name": "Oakham",
    "nameIt": "Oakham",
    "type": "TOWN",
    "lat": 52.6743,
    "lng": -0.725,
    "regionId": "england_east_midlands",
    "regionName": "East Midlands",
    "regionEmoji": "🏭"
  },
  {
    "placeId": "clumber_park",
    "name": "Clumber Park",
    "nameIt": "Clumber Park",
    "type": "NATURE",
    "lat": 53.3089,
    "lng": -1.1844,
    "regionId": "england_east_midlands",
    "regionName": "East Midlands",
    "regionEmoji": "🏭"
  },
  {
    "placeId": "norwich",
    "name": "Norwich",
    "nameIt": "Norwich",
    "type": "CITY",
    "lat": 52.6286,
    "lng": 1.2977,
    "regionId": "england_east_anglia",
    "regionName": "East Anglia",
    "regionEmoji": "🌾"
  },
  {
    "placeId": "peterborough",
    "name": "Peterborough",
    "nameIt": "Peterborough",
    "type": "CITY",
    "lat": 52.5733,
    "lng": -0.2397,
    "regionId": "england_east_anglia",
    "regionName": "East Anglia",
    "regionEmoji": "🌾"
  },
  {
    "placeId": "cambridgeport",
    "name": "Cambridge",
    "nameIt": "Cambridge",
    "type": "CITY",
    "lat": 52.2043,
    "lng": 0.1197,
    "regionId": "england_east_anglia",
    "regionName": "East Anglia",
    "regionEmoji": "🌾"
  },
  {
    "placeId": "great_yarmouth",
    "name": "Great Yarmouth",
    "nameIt": "Great Yarmouth",
    "type": "COASTAL",
    "lat": 52.6092,
    "lng": 1.728,
    "regionId": "england_east_anglia",
    "regionName": "East Anglia",
    "regionEmoji": "🌾"
  },
  {
    "placeId": "cromer",
    "name": "Cromer",
    "nameIt": "Cromer",
    "type": "COASTAL",
    "lat": 52.9291,
    "lng": 1.2988,
    "regionId": "england_east_anglia",
    "regionName": "East Anglia",
    "regionEmoji": "🌾"
  },
  {
    "placeId": "wells_next_sea",
    "name": "Wells-next-the-Sea",
    "nameIt": "Wells-next-the-Sea",
    "type": "COASTAL",
    "lat": 52.9937,
    "lng": 0.8544,
    "regionId": "england_east_anglia",
    "regionName": "East Anglia",
    "regionEmoji": "🌾"
  },
  {
    "placeId": "king_lynn",
    "name": "King's Lynn",
    "nameIt": "King's Lynn",
    "type": "TOWN",
    "lat": 52.7518,
    "lng": 0.4012,
    "regionId": "england_east_anglia",
    "regionName": "East Anglia",
    "regionEmoji": "🌾"
  },
  {
    "placeId": "blakeney",
    "name": "Blakeney",
    "nameIt": "Blakeney",
    "type": "COASTAL",
    "lat": 52.9757,
    "lng": 0.8767,
    "regionId": "england_east_anglia",
    "regionName": "East Anglia",
    "regionEmoji": "🌾"
  },
  {
    "placeId": "sandringham",
    "name": "Sandringham",
    "nameIt": "Sandringham",
    "type": "LANDMARK",
    "lat": 52.8208,
    "lng": 0.495,
    "regionId": "england_east_anglia",
    "regionName": "East Anglia",
    "regionEmoji": "🌾"
  },
  {
    "placeId": "the_broads",
    "name": "The Broads",
    "nameIt": "The Broads",
    "type": "NATURE",
    "lat": 52.65,
    "lng": 1.55,
    "regionId": "england_east_anglia",
    "regionName": "East Anglia",
    "regionEmoji": "🌾"
  },
  {
    "placeId": "ely",
    "name": "Ely",
    "nameIt": "Ely",
    "type": "TOWN",
    "lat": 52.3989,
    "lng": 0.2665,
    "regionId": "england_east_anglia",
    "regionName": "East Anglia",
    "regionEmoji": "🌾"
  },
  {
    "placeId": "aldeburgh",
    "name": "Aldeburgh",
    "nameIt": "Aldeburgh",
    "type": "COASTAL",
    "lat": 52.0975,
    "lng": 1.5883,
    "regionId": "england_east_anglia",
    "regionName": "East Anglia",
    "regionEmoji": "🌾"
  },
  {
    "placeId": "southwold",
    "name": "Southwold",
    "nameIt": "Southwold",
    "type": "COASTAL",
    "lat": 52.3247,
    "lng": 1.6754,
    "regionId": "england_east_anglia",
    "regionName": "East Anglia",
    "regionEmoji": "🌾"
  },
  {
    "placeId": "tower_of_london",
    "name": "Tower of London",
    "nameIt": "Tower of London",
    "type": "LANDMARK",
    "lat": 51.5055,
    "lng": -0.0754,
    "regionId": "england_london",
    "regionName": "London",
    "regionEmoji": "🇬🇧"
  },
  {
    "placeId": "big_ben_parliament",
    "name": "Big Ben & Houses of Parliament",
    "nameIt": "Big Ben & Houses of Parliament",
    "type": "LANDMARK",
    "lat": 51.4975,
    "lng": -0.1248,
    "regionId": "england_london",
    "regionName": "London",
    "regionEmoji": "🇬🇧"
  },
  {
    "placeId": "buckingham_palace",
    "name": "Buckingham Palace",
    "nameIt": "Buckingham Palace",
    "type": "LANDMARK",
    "lat": 51.5014,
    "lng": -0.1419,
    "regionId": "england_london",
    "regionName": "London",
    "regionEmoji": "🇬🇧"
  },
  {
    "placeId": "tower_bridge",
    "name": "Tower Bridge",
    "nameIt": "Tower Bridge",
    "type": "LANDMARK",
    "lat": 51.5055,
    "lng": -0.0754,
    "regionId": "england_london",
    "regionName": "London",
    "regionEmoji": "🇬🇧"
  },
  {
    "placeId": "westminster_abbey",
    "name": "Westminster Abbey",
    "nameIt": "Westminster Abbey",
    "type": "LANDMARK",
    "lat": 51.4954,
    "lng": -0.1272,
    "regionId": "england_london",
    "regionName": "London",
    "regionEmoji": "🇬🇧"
  },
  {
    "placeId": "british_museum",
    "name": "British Museum",
    "nameIt": "British Museum",
    "type": "LANDMARK",
    "lat": 51.5194,
    "lng": -0.127,
    "regionId": "england_london",
    "regionName": "London",
    "regionEmoji": "🇬🇧"
  },
  {
    "placeId": "st_pauls_cathedral",
    "name": "St. Paul's Cathedral",
    "nameIt": "St. Paul's Cathedral",
    "type": "LANDMARK",
    "lat": 51.5138,
    "lng": -0.0984,
    "regionId": "england_london",
    "regionName": "London",
    "regionEmoji": "🇬🇧"
  },
  {
    "placeId": "london_eye",
    "name": "London Eye",
    "nameIt": "London Eye",
    "type": "LANDMARK",
    "lat": 51.5033,
    "lng": -0.1195,
    "regionId": "england_london",
    "regionName": "London",
    "regionEmoji": "🇬🇧"
  },
  {
    "placeId": "national_gallery",
    "name": "National Gallery",
    "nameIt": "National Gallery",
    "type": "LANDMARK",
    "lat": 51.5087,
    "lng": -0.1283,
    "regionId": "england_london",
    "regionName": "London",
    "regionEmoji": "🇬🇧"
  },
  {
    "placeId": "hyde_park",
    "name": "Hyde Park",
    "nameIt": "Hyde Park",
    "type": "NATURE",
    "lat": 51.5073,
    "lng": -0.1657,
    "regionId": "england_london",
    "regionName": "London",
    "regionEmoji": "🇬🇧"
  },
  {
    "placeId": "natural_history_museum",
    "name": "Natural History Museum",
    "nameIt": "Natural History Museum",
    "type": "LANDMARK",
    "lat": 51.4945,
    "lng": -0.1743,
    "regionId": "england_london",
    "regionName": "London",
    "regionEmoji": "🇬🇧"
  },
  {
    "placeId": "tate_modern",
    "name": "Tate Modern",
    "nameIt": "Tate Modern",
    "type": "LANDMARK",
    "lat": 51.5076,
    "lng": -0.0994,
    "regionId": "england_london",
    "regionName": "London",
    "regionEmoji": "🇬🇧"
  },
  {
    "placeId": "camden_market",
    "name": "Camden Market",
    "nameIt": "Camden Market",
    "type": "LANDMARK",
    "lat": 51.5391,
    "lng": -0.1426,
    "regionId": "england_london",
    "regionName": "London",
    "regionEmoji": "🇬🇧"
  },
  {
    "placeId": "covent_garden",
    "name": "Covent Garden",
    "nameIt": "Covent Garden",
    "type": "LANDMARK",
    "lat": 51.5113,
    "lng": -0.1229,
    "regionId": "england_london",
    "regionName": "London",
    "regionEmoji": "🇬🇧"
  },
  {
    "placeId": "brighton",
    "name": "Brighton",
    "nameIt": "Brighton",
    "type": "COASTAL",
    "lat": 50.8617,
    "lng": -0.0822,
    "regionId": "england_south_east",
    "regionName": "South East England",
    "regionEmoji": "🏖️"
  },
  {
    "placeId": "oxford",
    "name": "Oxford",
    "nameIt": "Oxford",
    "type": "CITY",
    "lat": 51.752,
    "lng": -1.2577,
    "regionId": "england_south_east",
    "regionName": "South East England",
    "regionEmoji": "🏖️"
  },
  {
    "placeId": "cambridge",
    "name": "Cambridge",
    "nameIt": "Cambridge",
    "type": "CITY",
    "lat": 52.2053,
    "lng": 0.1218,
    "regionId": "england_south_east",
    "regionName": "South East England",
    "regionEmoji": "🏖️"
  },
  {
    "placeId": "canterbury",
    "name": "Canterbury",
    "nameIt": "Canterbury",
    "type": "CITY",
    "lat": 51.2798,
    "lng": 1.083,
    "regionId": "england_south_east",
    "regionName": "South East England",
    "regionEmoji": "🏖️"
  },
  {
    "placeId": "windsor",
    "name": "Windsor",
    "nameIt": "Windsor",
    "type": "TOWN",
    "lat": 51.4839,
    "lng": -0.6075,
    "regionId": "england_south_east",
    "regionName": "South East England",
    "regionEmoji": "🏖️"
  },
  {
    "placeId": "hastings",
    "name": "Hastings",
    "nameIt": "Hastings",
    "type": "COASTAL",
    "lat": 50.855,
    "lng": 0.574,
    "regionId": "england_south_east",
    "regionName": "South East England",
    "regionEmoji": "🏖️"
  },
  {
    "placeId": "rye",
    "name": "Rye",
    "nameIt": "Rye",
    "type": "TOWN",
    "lat": 50.9268,
    "lng": 0.777,
    "regionId": "england_south_east",
    "regionName": "South East England",
    "regionEmoji": "🏖️"
  },
  {
    "placeId": "bath",
    "name": "Bath",
    "nameIt": "Bath",
    "type": "CITY",
    "lat": 51.3825,
    "lng": -2.3599,
    "regionId": "england_south_east",
    "regionName": "South East England",
    "regionEmoji": "🏖️"
  },
  {
    "placeId": "southend",
    "name": "Southend-on-Sea",
    "nameIt": "Southend-on-Sea",
    "type": "COASTAL",
    "lat": 51.5348,
    "lng": 0.7284,
    "regionId": "england_south_east",
    "regionName": "South East England",
    "regionEmoji": "🏖️"
  },
  {
    "placeId": "sandwich",
    "name": "Sandwich",
    "nameIt": "Sandwich",
    "type": "TOWN",
    "lat": 51.212,
    "lng": 1.336,
    "regionId": "england_south_east",
    "regionName": "South East England",
    "regionEmoji": "🏖️"
  },
  {
    "placeId": "henley",
    "name": "Henley-on-Thames",
    "nameIt": "Henley-on-Thames",
    "type": "TOWN",
    "lat": 51.5338,
    "lng": -0.8931,
    "regionId": "england_south_east",
    "regionName": "South East England",
    "regionEmoji": "🏖️"
  },
  {
    "placeId": "dover",
    "name": "Dover",
    "nameIt": "Dover",
    "type": "COASTAL",
    "lat": 51.1239,
    "lng": 1.3125,
    "regionId": "england_south_east",
    "regionName": "South East England",
    "regionEmoji": "🏖️"
  },
  {
    "placeId": "tunbridge_wells",
    "name": "Tunbridge Wells",
    "nameIt": "Tunbridge Wells",
    "type": "TOWN",
    "lat": 51.1328,
    "lng": 0.2663,
    "regionId": "england_south_east",
    "regionName": "South East England",
    "regionEmoji": "🏖️"
  },
  {
    "placeId": "margate",
    "name": "Margate",
    "nameIt": "Margate",
    "type": "COASTAL",
    "lat": 51.3867,
    "lng": 1.3806,
    "regionId": "england_south_east",
    "regionName": "South East England",
    "regionEmoji": "🏖️"
  },
  {
    "placeId": "kew_gardens",
    "name": "Kew Gardens",
    "nameIt": "Kew Gardens",
    "type": "NATURE",
    "lat": 51.4769,
    "lng": -0.2833,
    "regionId": "england_south_east",
    "regionName": "South East England",
    "regionEmoji": "🏖️"
  },
  {
    "placeId": "bath",
    "name": "Bath",
    "nameIt": "Bath",
    "type": "CITY",
    "lat": 51.3795,
    "lng": -2.3625,
    "regionId": "england_south_west",
    "regionName": "South West England",
    "regionEmoji": "🏔️"
  },
  {
    "placeId": "exeter",
    "name": "Exeter",
    "nameIt": "Exeter",
    "type": "CITY",
    "lat": 50.7184,
    "lng": -3.5339,
    "regionId": "england_south_west",
    "regionName": "South West England",
    "regionEmoji": "🏔️"
  },
  {
    "placeId": "cornwall_coast",
    "name": "Cornish Coast",
    "nameIt": "Cornish Coast",
    "type": "COASTAL",
    "lat": 50.4768,
    "lng": -4.759,
    "regionId": "england_south_west",
    "regionName": "South West England",
    "regionEmoji": "🏔️"
  },
  {
    "placeId": "st_ives",
    "name": "St Ives",
    "nameIt": "St Ives",
    "type": "COASTAL",
    "lat": 50.2105,
    "lng": -5.4818,
    "regionId": "england_south_west",
    "regionName": "South West England",
    "regionEmoji": "🏔️"
  },
  {
    "placeId": "stonehenge",
    "name": "Stonehenge",
    "nameIt": "Stonehenge",
    "type": "LANDMARK",
    "lat": 51.1789,
    "lng": -1.8262,
    "regionId": "england_south_west",
    "regionName": "South West England",
    "regionEmoji": "🏔️"
  },
  {
    "placeId": "glastonbury",
    "name": "Glastonbury",
    "nameIt": "Glastonbury",
    "type": "TOWN",
    "lat": 51.1438,
    "lng": -2.7146,
    "regionId": "england_south_west",
    "regionName": "South West England",
    "regionEmoji": "🏔️"
  },
  {
    "placeId": "salisbury",
    "name": "Salisbury",
    "nameIt": "Salisbury",
    "type": "CITY",
    "lat": 51.0644,
    "lng": -1.7955,
    "regionId": "england_south_west",
    "regionName": "South West England",
    "regionEmoji": "🏔️"
  },
  {
    "placeId": "cotswolds",
    "name": "Cotswolds",
    "nameIt": "Cotswolds",
    "type": "NATURE",
    "lat": 51.833,
    "lng": -1.8433,
    "regionId": "england_south_west",
    "regionName": "South West England",
    "regionEmoji": "🏔️"
  },
  {
    "placeId": "devon_moors",
    "name": "Dartmoor",
    "nameIt": "Dartmoor",
    "type": "NATURE",
    "lat": 50.5864,
    "lng": -3.9821,
    "regionId": "england_south_west",
    "regionName": "South West England",
    "regionEmoji": "🏔️"
  },
  {
    "placeId": "tintagel",
    "name": "Tintagel",
    "nameIt": "Tintagel",
    "type": "COASTAL",
    "lat": 50.6651,
    "lng": -4.7396,
    "regionId": "england_south_west",
    "regionName": "South West England",
    "regionEmoji": "🏔️"
  },
  {
    "placeId": "exeter_quay",
    "name": "Exmouth",
    "nameIt": "Exmouth",
    "type": "COASTAL",
    "lat": 50.6189,
    "lng": -3.4169,
    "regionId": "england_south_west",
    "regionName": "South West England",
    "regionEmoji": "🏔️"
  },
  {
    "placeId": "wells",
    "name": "Wells",
    "nameIt": "Wells",
    "type": "TOWN",
    "lat": 51.2093,
    "lng": -2.645,
    "regionId": "england_south_west",
    "regionName": "South West England",
    "regionEmoji": "🏔️"
  },
  {
    "placeId": "plymouth",
    "name": "Plymouth",
    "nameIt": "Plymouth",
    "type": "CITY",
    "lat": 50.3755,
    "lng": -4.1427,
    "regionId": "england_south_west",
    "regionName": "South West England",
    "regionEmoji": "🏔️"
  },
  {
    "placeId": "birmingham",
    "name": "Birmingham",
    "nameIt": "Birmingham",
    "type": "CITY",
    "lat": 52.5086,
    "lng": -1.8853,
    "regionId": "england_west_midlands",
    "regionName": "West Midlands",
    "regionEmoji": "🏛️"
  },
  {
    "placeId": "coventry",
    "name": "Coventry",
    "nameIt": "Coventry",
    "type": "CITY",
    "lat": 52.4082,
    "lng": -1.5104,
    "regionId": "england_west_midlands",
    "regionName": "West Midlands",
    "regionEmoji": "🏛️"
  },
  {
    "placeId": "wolverhampton",
    "name": "Wolverhampton",
    "nameIt": "Wolverhampton",
    "type": "CITY",
    "lat": 52.5898,
    "lng": -2.1298,
    "regionId": "england_west_midlands",
    "regionName": "West Midlands",
    "regionEmoji": "🏛️"
  },
  {
    "placeId": "dudley",
    "name": "Dudley",
    "nameIt": "Dudley",
    "type": "TOWN",
    "lat": 52.5125,
    "lng": -2.0836,
    "regionId": "england_west_midlands",
    "regionName": "West Midlands",
    "regionEmoji": "🏛️"
  },
  {
    "placeId": "worcester",
    "name": "Worcester",
    "nameIt": "Worcester",
    "type": "CITY",
    "lat": 52.1896,
    "lng": -2.2163,
    "regionId": "england_west_midlands",
    "regionName": "West Midlands",
    "regionEmoji": "🏛️"
  },
  {
    "placeId": "stratford_upon_avon",
    "name": "Stratford-upon-Avon",
    "nameIt": "Stratford-upon-Avon",
    "type": "TOWN",
    "lat": 52.1928,
    "lng": -1.7123,
    "regionId": "england_west_midlands",
    "regionName": "West Midlands",
    "regionEmoji": "🏛️"
  },
  {
    "placeId": "kidderminster",
    "name": "Kidderminster",
    "nameIt": "Kidderminster",
    "type": "TOWN",
    "lat": 52.3868,
    "lng": -2.2614,
    "regionId": "england_west_midlands",
    "regionName": "West Midlands",
    "regionEmoji": "🏛️"
  },
  {
    "placeId": "redditch",
    "name": "Redditch",
    "nameIt": "Redditch",
    "type": "TOWN",
    "lat": 52.3005,
    "lng": -1.8938,
    "regionId": "england_west_midlands",
    "regionName": "West Midlands",
    "regionEmoji": "🏛️"
  },
  {
    "placeId": "bromsgrove",
    "name": "Bromsgrove",
    "nameIt": "Bromsgrove",
    "type": "TOWN",
    "lat": 52.3408,
    "lng": -2.0539,
    "regionId": "england_west_midlands",
    "regionName": "West Midlands",
    "regionEmoji": "🏛️"
  },
  {
    "placeId": "cannock_chase",
    "name": "Cannock Chase",
    "nameIt": "Cannock Chase",
    "type": "NATURE",
    "lat": 52.6058,
    "lng": -2.0272,
    "regionId": "england_west_midlands",
    "regionName": "West Midlands",
    "regionEmoji": "🏛️"
  },
  {
    "placeId": "ironbridge",
    "name": "Ironbridge",
    "nameIt": "Ironbridge",
    "type": "LANDMARK",
    "lat": 52.6301,
    "lng": -2.4892,
    "regionId": "england_west_midlands",
    "regionName": "West Midlands",
    "regionEmoji": "🏛️"
  },
  {
    "placeId": "black_country",
    "name": "Black Country",
    "nameIt": "Black Country",
    "type": "LANDMARK",
    "lat": 52.53,
    "lng": -2.05,
    "regionId": "england_west_midlands",
    "regionName": "West Midlands",
    "regionEmoji": "🏛️"
  },
  {
    "placeId": "malvern_hills",
    "name": "Malvern Hills",
    "nameIt": "Malvern Hills",
    "type": "NATURE",
    "lat": 52.0974,
    "lng": -2.3151,
    "regionId": "england_west_midlands",
    "regionName": "West Midlands",
    "regionEmoji": "🏛️"
  },
  {
    "placeId": "manchester",
    "name": "Manchester",
    "nameIt": "Manchester",
    "type": "CITY",
    "lat": 53.4808,
    "lng": -2.2426,
    "regionId": "england_north_west",
    "regionName": "North West England",
    "regionEmoji": "🏙️"
  },
  {
    "placeId": "liverpool",
    "name": "Liverpool",
    "nameIt": "Liverpool",
    "type": "CITY",
    "lat": 53.4084,
    "lng": -2.9916,
    "regionId": "england_north_west",
    "regionName": "North West England",
    "regionEmoji": "🏙️"
  },
  {
    "placeId": "lake_district",
    "name": "Lake District",
    "nameIt": "Lake District",
    "type": "NATURE",
    "lat": 54.4609,
    "lng": -3.2026,
    "regionId": "england_north_west",
    "regionName": "North West England",
    "regionEmoji": "🏙️"
  },
  {
    "placeId": "chester",
    "name": "Chester",
    "nameIt": "Chester",
    "type": "TOWN",
    "lat": 53.1923,
    "lng": -2.8922,
    "regionId": "england_north_west",
    "regionName": "North West England",
    "regionEmoji": "🏙️"
  },
  {
    "placeId": "ambleside",
    "name": "Ambleside",
    "nameIt": "Ambleside",
    "type": "TOWN",
    "lat": 54.4293,
    "lng": -3.0349,
    "regionId": "england_north_west",
    "regionName": "North West England",
    "regionEmoji": "🏙️"
  },
  {
    "placeId": "blackpool",
    "name": "Blackpool",
    "nameIt": "Blackpool",
    "type": "COASTAL",
    "lat": 53.8143,
    "lng": -3.0585,
    "regionId": "england_north_west",
    "regionName": "North West England",
    "regionEmoji": "🏙️"
  },
  {
    "placeId": "penrith",
    "name": "Penrith",
    "nameIt": "Penrith",
    "type": "TOWN",
    "lat": 54.6644,
    "lng": -2.7519,
    "regionId": "england_north_west",
    "regionName": "North West England",
    "regionEmoji": "🏙️"
  },
  {
    "placeId": "conway",
    "name": "Conwy",
    "nameIt": "Conwy",
    "type": "TOWN",
    "lat": 53.2829,
    "lng": -3.8268,
    "regionId": "england_north_west",
    "regionName": "North West England",
    "regionEmoji": "🏙️"
  },
  {
    "placeId": "kendal",
    "name": "Kendal",
    "nameIt": "Kendal",
    "type": "TOWN",
    "lat": 54.3268,
    "lng": -2.743,
    "regionId": "england_north_west",
    "regionName": "North West England",
    "regionEmoji": "🏙️"
  },
  {
    "placeId": "isle_of_man",
    "name": "Isle of Man",
    "nameIt": "Ellan Vannin",
    "type": "ISLAND",
    "lat": 54.2361,
    "lng": -4.5481,
    "regionId": "england_north_west",
    "regionName": "North West England",
    "regionEmoji": "🏙️"
  },
  {
    "placeId": "bolton",
    "name": "Bolton",
    "nameIt": "Bolton",
    "type": "TOWN",
    "lat": 53.5755,
    "lng": -2.4259,
    "regionId": "england_north_west",
    "regionName": "North West England",
    "regionEmoji": "🏙️"
  },
  {
    "placeId": "rydal_water",
    "name": "Rydal Water",
    "nameIt": "Rydal Water",
    "type": "NATURE",
    "lat": 54.3841,
    "lng": -3.1002,
    "regionId": "england_north_west",
    "regionName": "North West England",
    "regionEmoji": "🏙️"
  },
  {
    "placeId": "anglesey",
    "name": "Anglesey",
    "nameIt": "Ynys Môn",
    "type": "ISLAND",
    "lat": 53.2656,
    "lng": -4.1875,
    "regionId": "england_north_west",
    "regionName": "North West England",
    "regionEmoji": "🏙️"
  },
  {
    "placeId": "newcastle_upon_tyne",
    "name": "Newcastle upon Tyne",
    "nameIt": "Newcastle upon Tyne",
    "type": "CITY",
    "lat": 54.9783,
    "lng": -1.6178,
    "regionId": "england_north_east",
    "regionName": "North East England",
    "regionEmoji": "⛓️"
  },
  {
    "placeId": "durham",
    "name": "Durham",
    "nameIt": "Durham",
    "type": "CITY",
    "lat": 54.7753,
    "lng": -1.5743,
    "regionId": "england_north_east",
    "regionName": "North East England",
    "regionEmoji": "⛓️"
  },
  {
    "placeId": "hadrians_wall",
    "name": "Hadrian's Wall",
    "nameIt": "Hadrian's Wall",
    "type": "LANDMARK",
    "lat": 54.99,
    "lng": -2.35,
    "regionId": "england_north_east",
    "regionName": "North East England",
    "regionEmoji": "⛓️"
  },
  {
    "placeId": "northumberland_coast",
    "name": "Northumberland Coast",
    "nameIt": "Northumberland Coast",
    "type": "COASTAL",
    "lat": 55.5,
    "lng": -1.7,
    "regionId": "england_north_east",
    "regionName": "North East England",
    "regionEmoji": "⛓️"
  },
  {
    "placeId": "lindisfarne_island",
    "name": "Lindisfarne Island",
    "nameIt": "Lindisfarne Island",
    "type": "ISLAND",
    "lat": 55.6436,
    "lng": -1.8047,
    "regionId": "england_north_east",
    "regionName": "North East England",
    "regionEmoji": "⛓️"
  },
  {
    "placeId": "beamish_museum",
    "name": "Beamish Museum",
    "nameIt": "Beamish Museum",
    "type": "LANDMARK",
    "lat": 54.9642,
    "lng": -1.5303,
    "regionId": "england_north_east",
    "regionName": "North East England",
    "regionEmoji": "⛓️"
  },
  {
    "placeId": "whitley_bay",
    "name": "Whitley Bay",
    "nameIt": "Whitley Bay",
    "type": "COASTAL",
    "lat": 55.0403,
    "lng": -1.4089,
    "regionId": "england_north_east",
    "regionName": "North East England",
    "regionEmoji": "⛓️"
  },
  {
    "placeId": "bamburgh_castle",
    "name": "Bamburgh Castle",
    "nameIt": "Bamburgh Castle",
    "type": "LANDMARK",
    "lat": 55.6078,
    "lng": -1.7094,
    "regionId": "england_north_east",
    "regionName": "North East England",
    "regionEmoji": "⛓️"
  },
  {
    "placeId": "farne_islands",
    "name": "The Farne Islands",
    "nameIt": "The Farne Islands",
    "type": "ISLAND",
    "lat": 55.6333,
    "lng": -1.6333,
    "regionId": "england_north_east",
    "regionName": "North East England",
    "regionEmoji": "⛓️"
  },
  {
    "placeId": "tynemouth_priory",
    "name": "Tynemouth Priory and Castle",
    "nameIt": "Tynemouth Priory and Castle",
    "type": "LANDMARK",
    "lat": 55.0186,
    "lng": -1.4214,
    "regionId": "england_north_east",
    "regionName": "North East England",
    "regionEmoji": "⛓️"
  },
  {
    "placeId": "hexham",
    "name": "Hexham",
    "nameIt": "Hexham",
    "type": "TOWN",
    "lat": 54.9631,
    "lng": -2.1019,
    "regionId": "england_north_east",
    "regionName": "North East England",
    "regionEmoji": "⛓️"
  },
  {
    "placeId": "kielder_water",
    "name": "Kielder Water and Forest",
    "nameIt": "Kielder Water and Forest",
    "type": "NATURE",
    "lat": 54.85,
    "lng": -2.5,
    "regionId": "england_north_east",
    "regionName": "North East England",
    "regionEmoji": "⛓️"
  },
  {
    "placeId": "sunderland",
    "name": "Sunderland",
    "nameIt": "Sunderland",
    "type": "CITY",
    "lat": 54.9053,
    "lng": -1.3853,
    "regionId": "england_north_east",
    "regionName": "North East England",
    "regionEmoji": "⛓️"
  },
  {
    "placeId": "york",
    "name": "York",
    "nameIt": "York",
    "type": "CITY",
    "lat": 53.9581,
    "lng": -1.0873,
    "regionId": "england_yorkshire",
    "regionName": "Yorkshire",
    "regionEmoji": "🐑"
  },
  {
    "placeId": "leeds",
    "name": "Leeds",
    "nameIt": "Leeds",
    "type": "CITY",
    "lat": 53.8008,
    "lng": -1.5491,
    "regionId": "england_yorkshire",
    "regionName": "Yorkshire",
    "regionEmoji": "🐑"
  },
  {
    "placeId": "harrogate",
    "name": "Harrogate",
    "nameIt": "Harrogate",
    "type": "TOWN",
    "lat": 55.8873,
    "lng": -1.5341,
    "regionId": "england_yorkshire",
    "regionName": "Yorkshire",
    "regionEmoji": "🐑"
  },
  {
    "placeId": "bolton_abbey",
    "name": "Bolton Abbey",
    "nameIt": "Bolton Abbey",
    "type": "LANDMARK",
    "lat": 53.9939,
    "lng": -1.9378,
    "regionId": "england_yorkshire",
    "regionName": "Yorkshire",
    "regionEmoji": "🐑"
  },
  {
    "placeId": "whitby",
    "name": "Whitby",
    "nameIt": "Whitby",
    "type": "COASTAL",
    "lat": 54.491,
    "lng": -0.6278,
    "regionId": "england_yorkshire",
    "regionName": "Yorkshire",
    "regionEmoji": "🐑"
  },
  {
    "placeId": "scarborough",
    "name": "Scarborough",
    "nameIt": "Scarborough",
    "type": "COASTAL",
    "lat": 54.2797,
    "lng": -0.3916,
    "regionId": "england_yorkshire",
    "regionName": "Yorkshire",
    "regionEmoji": "🐑"
  },
  {
    "placeId": "haworth",
    "name": "Haworth",
    "nameIt": "Haworth",
    "type": "VILLAGE",
    "lat": 53.8242,
    "lng": -2.034,
    "regionId": "england_yorkshire",
    "regionName": "Yorkshire",
    "regionEmoji": "🐑"
  },
  {
    "placeId": "fountains_abbey",
    "name": "Fountains Abbey",
    "nameIt": "Fountains Abbey",
    "type": "LANDMARK",
    "lat": 54.1283,
    "lng": -1.6636,
    "regionId": "england_yorkshire",
    "regionName": "Yorkshire",
    "regionEmoji": "🐑"
  },
  {
    "placeId": "malham",
    "name": "Malham",
    "nameIt": "Malham",
    "type": "VILLAGE",
    "lat": 54.0817,
    "lng": -2.1622,
    "regionId": "england_yorkshire",
    "regionName": "Yorkshire",
    "regionEmoji": "🐑"
  },
  {
    "placeId": "hebden_bridge",
    "name": "Hebden Bridge",
    "nameIt": "Hebden Bridge",
    "type": "TOWN",
    "lat": 53.7442,
    "lng": -2.0226,
    "regionId": "england_yorkshire",
    "regionName": "Yorkshire",
    "regionEmoji": "🐑"
  },
  {
    "placeId": "skipton",
    "name": "Skipton",
    "nameIt": "Skipton",
    "type": "TOWN",
    "lat": 54.0068,
    "lng": -2.0235,
    "regionId": "england_yorkshire",
    "regionName": "Yorkshire",
    "regionEmoji": "🐑"
  },
  {
    "placeId": "knaresborough",
    "name": "Knaresborough",
    "nameIt": "Knaresborough",
    "type": "TOWN",
    "lat": 54.0062,
    "lng": -1.4656,
    "regionId": "england_yorkshire",
    "regionName": "Yorkshire",
    "regionEmoji": "🐑"
  },
  {
    "placeId": "ilkley",
    "name": "Ilkley",
    "nameIt": "Ilkley",
    "type": "TOWN",
    "lat": 53.9205,
    "lng": -1.8302,
    "regionId": "england_yorkshire",
    "regionName": "Yorkshire",
    "regionEmoji": "🐑"
  },
  {
    "placeId": "helmsley",
    "name": "Helmsley",
    "nameIt": "Helmsley",
    "type": "TOWN",
    "lat": 54.2306,
    "lng": -0.6367,
    "regionId": "england_yorkshire",
    "regionName": "Yorkshire",
    "regionEmoji": "🐑"
  },
  {
    "placeId": "grassington",
    "name": "Grassington",
    "nameIt": "Grassington",
    "type": "VILLAGE",
    "lat": 54.0355,
    "lng": -1.9945,
    "regionId": "england_yorkshire",
    "regionName": "Yorkshire",
    "regionEmoji": "🐑"
  },
  {
    "placeId": "edinburgh",
    "name": "Edinburgh",
    "nameIt": "Edinburgh",
    "type": "CITY",
    "lat": 55.9533,
    "lng": -3.1883,
    "regionId": "scotland_lowlands",
    "regionName": "Scottish Lowlands",
    "regionEmoji": "🏰"
  },
  {
    "placeId": "glasgow",
    "name": "Glasgow",
    "nameIt": "Glasgow",
    "type": "CITY",
    "lat": 55.8642,
    "lng": -4.2518,
    "regionId": "scotland_lowlands",
    "regionName": "Scottish Lowlands",
    "regionEmoji": "🏰"
  },
  {
    "placeId": "stirling",
    "name": "Stirling",
    "nameIt": "Stirling",
    "type": "CITY",
    "lat": 56.1165,
    "lng": -3.9369,
    "regionId": "scotland_lowlands",
    "regionName": "Scottish Lowlands",
    "regionEmoji": "🏰"
  },
  {
    "placeId": "melrose",
    "name": "Melrose",
    "nameIt": "Melrose",
    "type": "TOWN",
    "lat": 55.5933,
    "lng": -2.7267,
    "regionId": "scotland_lowlands",
    "regionName": "Scottish Lowlands",
    "regionEmoji": "🏰"
  },
  {
    "placeId": "dumfries",
    "name": "Dumfries",
    "nameIt": "Dumfries",
    "type": "TOWN",
    "lat": 55.0764,
    "lng": -3.614,
    "regionId": "scotland_lowlands",
    "regionName": "Scottish Lowlands",
    "regionEmoji": "🏰"
  },
  {
    "placeId": "peebles",
    "name": "Peebles",
    "nameIt": "Peebles",
    "type": "TOWN",
    "lat": 55.6408,
    "lng": -3.1817,
    "regionId": "scotland_lowlands",
    "regionName": "Scottish Lowlands",
    "regionEmoji": "🏰"
  },
  {
    "placeId": "linlithgow",
    "name": "Linlithgow",
    "nameIt": "Linlithgow",
    "type": "TOWN",
    "lat": 55.9774,
    "lng": -3.5049,
    "regionId": "scotland_lowlands",
    "regionName": "Scottish Lowlands",
    "regionEmoji": "🏰"
  },
  {
    "placeId": "jedburgh",
    "name": "Jedburgh",
    "nameIt": "Jedburgh",
    "type": "TOWN",
    "lat": 55.4831,
    "lng": -2.5573,
    "regionId": "scotland_lowlands",
    "regionName": "Scottish Lowlands",
    "regionEmoji": "🏰"
  },
  {
    "placeId": "kelso",
    "name": "Kelso",
    "nameIt": "Kelso",
    "type": "TOWN",
    "lat": 55.4602,
    "lng": -2.4176,
    "regionId": "scotland_lowlands",
    "regionName": "Scottish Lowlands",
    "regionEmoji": "🏰"
  },
  {
    "placeId": "galashiels",
    "name": "Galashiels",
    "nameIt": "Galashiels",
    "type": "TOWN",
    "lat": 55.6149,
    "lng": -2.7933,
    "regionId": "scotland_lowlands",
    "regionName": "Scottish Lowlands",
    "regionEmoji": "🏰"
  },
  {
    "placeId": "falkirk",
    "name": "Falkirk",
    "nameIt": "Falkirk",
    "type": "TOWN",
    "lat": 55.9947,
    "lng": -3.785,
    "regionId": "scotland_lowlands",
    "regionName": "Scottish Lowlands",
    "regionEmoji": "🏰"
  },
  {
    "placeId": "north_berwick",
    "name": "North Berwick",
    "nameIt": "North Berwick",
    "type": "COASTAL",
    "lat": 56.061,
    "lng": -2.725,
    "regionId": "scotland_lowlands",
    "regionName": "Scottish Lowlands",
    "regionEmoji": "🏰"
  },
  {
    "placeId": "coldstream",
    "name": "Coldstream",
    "nameIt": "Coldstream",
    "type": "TOWN",
    "lat": 55.3933,
    "lng": -2.245,
    "regionId": "scotland_lowlands",
    "regionName": "Scottish Lowlands",
    "regionEmoji": "🏰"
  },
  {
    "placeId": "dunfermline",
    "name": "Dunfermline",
    "nameIt": "Dunfermline",
    "type": "TOWN",
    "lat": 56.0644,
    "lng": -3.4331,
    "regionId": "scotland_lowlands",
    "regionName": "Scottish Lowlands",
    "regionEmoji": "🏰"
  },
  {
    "placeId": "glasgow",
    "name": "Glasgow",
    "nameIt": "Glasgow",
    "type": "CITY",
    "lat": 55.8642,
    "lng": -4.2518,
    "regionId": "scotland_central",
    "regionName": "Scottish Central Belt",
    "regionEmoji": "🎨"
  },
  {
    "placeId": "edinburgh",
    "name": "Edinburgh",
    "nameIt": "Edinburgh",
    "type": "CITY",
    "lat": 55.9533,
    "lng": -3.1883,
    "regionId": "scotland_central",
    "regionName": "Scottish Central Belt",
    "regionEmoji": "🎨"
  },
  {
    "placeId": "stirling",
    "name": "Stirling",
    "nameIt": "Stirling",
    "type": "TOWN",
    "lat": 56.1243,
    "lng": -3.9369,
    "regionId": "scotland_central",
    "regionName": "Scottish Central Belt",
    "regionEmoji": "🎨"
  },
  {
    "placeId": "perth",
    "name": "Perth",
    "nameIt": "Perth",
    "type": "TOWN",
    "lat": 56.3975,
    "lng": -3.401,
    "regionId": "scotland_central",
    "regionName": "Scottish Central Belt",
    "regionEmoji": "🎨"
  },
  {
    "placeId": "dunfermline",
    "name": "Dunfermline",
    "nameIt": "Dunfermline",
    "type": "TOWN",
    "lat": 56.0652,
    "lng": -3.4505,
    "regionId": "scotland_central",
    "regionName": "Scottish Central Belt",
    "regionEmoji": "🎨"
  },
  {
    "placeId": "falkirk",
    "name": "Falkirk",
    "nameIt": "Falkirk",
    "type": "TOWN",
    "lat": 56.0015,
    "lng": -3.7842,
    "regionId": "scotland_central",
    "regionName": "Scottish Central Belt",
    "regionEmoji": "🎨"
  },
  {
    "placeId": "linlithgow",
    "name": "Linlithgow",
    "nameIt": "Linlithgow",
    "type": "TOWN",
    "lat": 55.9768,
    "lng": -3.6067,
    "regionId": "scotland_central",
    "regionName": "Scottish Central Belt",
    "regionEmoji": "🎨"
  },
  {
    "placeId": "aberdeen",
    "name": "Aberdeen",
    "nameIt": "Aberdeen",
    "type": "CITY",
    "lat": 57.1497,
    "lng": -2.0979,
    "regionId": "scotland_central",
    "regionName": "Scottish Central Belt",
    "regionEmoji": "🎨"
  },
  {
    "placeId": "blackness",
    "name": "Blackness",
    "nameIt": "Blackness",
    "type": "VILLAGE",
    "lat": 56.0069,
    "lng": -3.5014,
    "regionId": "scotland_central",
    "regionName": "Scottish Central Belt",
    "regionEmoji": "🎨"
  },
  {
    "placeId": "culross",
    "name": "Culross",
    "nameIt": "Culross",
    "type": "VILLAGE",
    "lat": 56.0629,
    "lng": -3.5923,
    "regionId": "scotland_central",
    "regionName": "Scottish Central Belt",
    "regionEmoji": "🎨"
  },
  {
    "placeId": "balquhidder",
    "name": "Balquhidder",
    "nameIt": "Balquhidder",
    "type": "VILLAGE",
    "lat": 56.3833,
    "lng": -4.5333,
    "regionId": "scotland_central",
    "regionName": "Scottish Central Belt",
    "regionEmoji": "🎨"
  },
  {
    "placeId": "stirling_bridge",
    "name": "Bridge of Allan",
    "nameIt": "Bridge of Allan",
    "type": "TOWN",
    "lat": 56.1667,
    "lng": -3.9833,
    "regionId": "scotland_central",
    "regionName": "Scottish Central Belt",
    "regionEmoji": "🎨"
  },
  {
    "placeId": "clackmannan",
    "name": "Clackmannan",
    "nameIt": "Clackmannan",
    "type": "TOWN",
    "lat": 56.05,
    "lng": -3.7333,
    "regionId": "scotland_central",
    "regionName": "Scottish Central Belt",
    "regionEmoji": "🎨"
  },
  {
    "placeId": "loch_ness",
    "name": "Loch Ness",
    "nameIt": "Loch Nis",
    "type": "NATURE",
    "lat": 57.3268,
    "lng": -4.4757,
    "regionId": "scotland_highlands",
    "regionName": "Scottish Highlands",
    "regionEmoji": "⛰️"
  },
  {
    "placeId": "inverness",
    "name": "Inverness",
    "nameIt": "Inbhir Nis",
    "type": "CITY",
    "lat": 57.4778,
    "lng": -4.2247,
    "regionId": "scotland_highlands",
    "regionName": "Scottish Highlands",
    "regionEmoji": "⛰️"
  },
  {
    "placeId": "ben_nevis",
    "name": "Ben Nevis",
    "nameIt": "Beinn Nibheis",
    "type": "LANDMARK",
    "lat": 56.7967,
    "lng": -5.0036,
    "regionId": "scotland_highlands",
    "regionName": "Scottish Highlands",
    "regionEmoji": "⛰️"
  },
  {
    "placeId": "glencoe",
    "name": "Glencoe",
    "nameIt": "Gleann Comhann",
    "type": "NATURE",
    "lat": 56.6743,
    "lng": -5.1114,
    "regionId": "scotland_highlands",
    "regionName": "Scottish Highlands",
    "regionEmoji": "⛰️"
  },
  {
    "placeId": "fort_william",
    "name": "Fort William",
    "nameIt": "An Gearasdan",
    "type": "TOWN",
    "lat": 56.8269,
    "lng": -5.1075,
    "regionId": "scotland_highlands",
    "regionName": "Scottish Highlands",
    "regionEmoji": "⛰️"
  },
  {
    "placeId": "isle_of_skye",
    "name": "Isle of Skye",
    "nameIt": "An t-Eilean Sgitheanach",
    "type": "ISLAND",
    "lat": 57.517,
    "lng": -6.205,
    "regionId": "scotland_highlands",
    "regionName": "Scottish Highlands",
    "regionEmoji": "⛰️"
  },
  {
    "placeId": "portree",
    "name": "Portree",
    "nameIt": "Port Rìgh",
    "type": "TOWN",
    "lat": 57.5119,
    "lng": -6.1921,
    "regionId": "scotland_highlands",
    "regionName": "Scottish Highlands",
    "regionEmoji": "⛰️"
  },
  {
    "placeId": "culloden",
    "name": "Culloden Battlefield",
    "nameIt": "Blàr Chùil Lodair",
    "type": "LANDMARK",
    "lat": 57.4805,
    "lng": -4.096,
    "regionId": "scotland_highlands",
    "regionName": "Scottish Highlands",
    "regionEmoji": "⛰️"
  },
  {
    "placeId": "loch_lomond",
    "name": "Loch Lomond",
    "nameIt": "Loch Laomainn",
    "type": "NATURE",
    "lat": 56.0977,
    "lng": -4.5781,
    "regionId": "scotland_highlands",
    "regionName": "Scottish Highlands",
    "regionEmoji": "⛰️"
  },
  {
    "placeId": "glencoe_village",
    "name": "Glencoe Village",
    "nameIt": "Baile Ghlinne Comhann",
    "type": "VILLAGE",
    "lat": 56.6614,
    "lng": -5.1028,
    "regionId": "scotland_highlands",
    "regionName": "Scottish Highlands",
    "regionEmoji": "⛰️"
  },
  {
    "placeId": "pitlochry",
    "name": "Pitlochry",
    "nameIt": "Baile Bhraghad",
    "type": "TOWN",
    "lat": 56.9491,
    "lng": -3.7229,
    "regionId": "scotland_highlands",
    "regionName": "Scottish Highlands",
    "regionEmoji": "⛰️"
  },
  {
    "placeId": "neist_point",
    "name": "Neist Point",
    "nameIt": "Rubha an Nist",
    "type": "COASTAL",
    "lat": 57.4488,
    "lng": -6.7872,
    "regionId": "scotland_highlands",
    "regionName": "Scottish Highlands",
    "regionEmoji": "⛰️"
  },
  {
    "placeId": "fairy_pools",
    "name": "Fairy Pools",
    "nameIt": "Linntean nam Filidh",
    "type": "NATURE",
    "lat": 57.4667,
    "lng": -6.4,
    "regionId": "scotland_highlands",
    "regionName": "Scottish Highlands",
    "regionEmoji": "⛰️"
  },
  {
    "placeId": "urquhart_castle",
    "name": "Urquhart Castle",
    "nameIt": "Caisteal Eachdraidh",
    "type": "LANDMARK",
    "lat": 57.339,
    "lng": -4.4332,
    "regionId": "scotland_highlands",
    "regionName": "Scottish Highlands",
    "regionEmoji": "⛰️"
  },
  {
    "placeId": "isle_of_skye",
    "name": "Isle of Skye",
    "nameIt": "An t-Eilean Sgitheanach",
    "type": "ISLAND",
    "lat": 57.5,
    "lng": -6.2,
    "regionId": "scotland_islands",
    "regionName": "Scottish Islands",
    "regionEmoji": "🏝️"
  },
  {
    "placeId": "portree",
    "name": "Portree",
    "nameIt": "Port Rìgh",
    "type": "TOWN",
    "lat": 57.513,
    "lng": -6.187,
    "regionId": "scotland_islands",
    "regionName": "Scottish Islands",
    "regionEmoji": "🏝️"
  },
  {
    "placeId": "old_man_of_storr",
    "name": "Old Man of Storr",
    "nameIt": "Bodach an Storr",
    "type": "LANDMARK",
    "lat": 57.507,
    "lng": -6.167,
    "regionId": "scotland_islands",
    "regionName": "Scottish Islands",
    "regionEmoji": "🏝️"
  },
  {
    "placeId": "quiraing",
    "name": "The Quiraing",
    "nameIt": "An Curacag",
    "type": "NATURE",
    "lat": 57.554,
    "lng": -6.264,
    "regionId": "scotland_islands",
    "regionName": "Scottish Islands",
    "regionEmoji": "🏝️"
  },
  {
    "placeId": "dunvegan_castle",
    "name": "Dunvegan Castle",
    "nameIt": "Caisteal Dhùn Bheagain",
    "type": "LANDMARK",
    "lat": 57.628,
    "lng": -6.566,
    "regionId": "scotland_islands",
    "regionName": "Scottish Islands",
    "regionEmoji": "🏝️"
  },
  {
    "placeId": "fairy_pools",
    "name": "Fairy Pools",
    "nameIt": "Linne nan Sìthichean",
    "type": "NATURE",
    "lat": 57.451,
    "lng": -6.397,
    "regionId": "scotland_islands",
    "regionName": "Scottish Islands",
    "regionEmoji": "🏝️"
  },
  {
    "placeId": "isle_of_mull",
    "name": "Isle of Mull",
    "nameIt": "An t-Eilean Eile",
    "type": "ISLAND",
    "lat": 56.5,
    "lng": -6,
    "regionId": "scotland_islands",
    "regionName": "Scottish Islands",
    "regionEmoji": "🏝️"
  },
  {
    "placeId": "tobermory",
    "name": "Tobermory",
    "nameIt": "Tobar Mhoire",
    "type": "TOWN",
    "lat": 56.622,
    "lng": -6.073,
    "regionId": "scotland_islands",
    "regionName": "Scottish Islands",
    "regionEmoji": "🏝️"
  },
  {
    "placeId": "iona",
    "name": "Isle of Iona",
    "nameIt": "I Chaluim Chille",
    "type": "ISLAND",
    "lat": 56.333,
    "lng": -6.421,
    "regionId": "scotland_islands",
    "regionName": "Scottish Islands",
    "regionEmoji": "🏝️"
  },
  {
    "placeId": "orkney_islands",
    "name": "Orkney Islands",
    "nameIt": "Arcaibh",
    "type": "ISLAND",
    "lat": 59,
    "lng": -3,
    "regionId": "scotland_islands",
    "regionName": "Scottish Islands",
    "regionEmoji": "🏝️"
  },
  {
    "placeId": "kirkwall",
    "name": "Kirkwall",
    "nameIt": "Kirkwall",
    "type": "TOWN",
    "lat": 59.108,
    "lng": -2.958,
    "regionId": "scotland_islands",
    "regionName": "Scottish Islands",
    "regionEmoji": "🏝️"
  },
  {
    "placeId": "ring_of_brodgar",
    "name": "Ring of Brodgar",
    "nameIt": "Ring of Brodgar",
    "type": "LANDMARK",
    "lat": 59.066,
    "lng": -3.159,
    "regionId": "scotland_islands",
    "regionName": "Scottish Islands",
    "regionEmoji": "🏝️"
  },
  {
    "placeId": "skara_brae",
    "name": "Skara Brae",
    "nameIt": "Skara Brae",
    "type": "LANDMARK",
    "lat": 59.041,
    "lng": -3.259,
    "regionId": "scotland_islands",
    "regionName": "Scottish Islands",
    "regionEmoji": "🏝️"
  },
  {
    "placeId": "outer_hebrides",
    "name": "Outer Hebrides",
    "nameIt": "Na h-Eileanan Siar",
    "type": "ISLAND",
    "lat": 57.9,
    "lng": -7,
    "regionId": "scotland_islands",
    "regionName": "Scottish Islands",
    "regionEmoji": "🏝️"
  },
  {
    "placeId": "stornoway",
    "name": "Stornoway",
    "nameIt": "Steòrnabhagh",
    "type": "TOWN",
    "lat": 58.208,
    "lng": -6.391,
    "regionId": "scotland_islands",
    "regionName": "Scottish Islands",
    "regionEmoji": "🏝️"
  },
  {
    "placeId": "caernarfon_castle",
    "name": "Caernarfon Castle",
    "nameIt": "Castell Caernarfon",
    "type": "LANDMARK",
    "lat": 53.1424,
    "lng": -4.2747,
    "regionId": "wales_north",
    "regionName": "North Wales",
    "regionEmoji": "🏔️"
  },
  {
    "placeId": "snowdonia_national_park",
    "name": "Snowdonia National Park",
    "nameIt": "Parc Cenedlaethol Eryri",
    "type": "NATURE",
    "lat": 53.0687,
    "lng": -3.9281,
    "regionId": "wales_north",
    "regionName": "North Wales",
    "regionEmoji": "🏔️"
  },
  {
    "placeId": "bangor",
    "name": "Bangor",
    "nameIt": "Bangor",
    "type": "CITY",
    "lat": 53.2281,
    "lng": -4.1274,
    "regionId": "wales_north",
    "regionName": "North Wales",
    "regionEmoji": "🏔️"
  },
  {
    "placeId": "conwy_castle",
    "name": "Conwy Castle",
    "nameIt": "Castell Conwy",
    "type": "LANDMARK",
    "lat": 53.2074,
    "lng": -3.8272,
    "regionId": "wales_north",
    "regionName": "North Wales",
    "regionEmoji": "🏔️"
  },
  {
    "placeId": "llandudno",
    "name": "Llandudno",
    "nameIt": "Llandudno",
    "type": "COASTAL",
    "lat": 53.3256,
    "lng": -3.8262,
    "regionId": "wales_north",
    "regionName": "North Wales",
    "regionEmoji": "🏔️"
  },
  {
    "placeId": "betws_y_coed",
    "name": "Betws-y-Coed",
    "nameIt": "Betws-y-Coed",
    "type": "VILLAGE",
    "lat": 53.0987,
    "lng": -3.7987,
    "regionId": "wales_north",
    "regionName": "North Wales",
    "regionEmoji": "🏔️"
  },
  {
    "placeId": "anglesey_island",
    "name": "Anglesey",
    "nameIt": "Ynys Môn",
    "type": "ISLAND",
    "lat": 53.2644,
    "lng": -4.2265,
    "regionId": "wales_north",
    "regionName": "North Wales",
    "regionEmoji": "🏔️"
  },
  {
    "placeId": "beaumaris_castle",
    "name": "Beaumaris Castle",
    "nameIt": "Castell Biwmares",
    "type": "LANDMARK",
    "lat": 53.3022,
    "lng": -4.0959,
    "regionId": "wales_north",
    "regionName": "North Wales",
    "regionEmoji": "🏔️"
  },
  {
    "placeId": "caerphilly_mountain",
    "name": "Penmaenmawr Mountain",
    "nameIt": "Mynydd Penmaenmawr",
    "type": "NATURE",
    "lat": 53.2426,
    "lng": -3.9187,
    "regionId": "wales_north",
    "regionName": "North Wales",
    "regionEmoji": "🏔️"
  },
  {
    "placeId": "caernarfon_town",
    "name": "Caernarfon",
    "nameIt": "Caernarfon",
    "type": "TOWN",
    "lat": 53.1424,
    "lng": -4.2747,
    "regionId": "wales_north",
    "regionName": "North Wales",
    "regionEmoji": "🏔️"
  },
  {
    "placeId": "great_orme",
    "name": "Great Orme",
    "nameIt": "Pen y Gogarth",
    "type": "LANDMARK",
    "lat": 53.3334,
    "lng": -3.85,
    "regionId": "wales_north",
    "regionName": "North Wales",
    "regionEmoji": "🏔️"
  },
  {
    "placeId": "conwy_town",
    "name": "Conwy",
    "nameIt": "Conwy",
    "type": "TOWN",
    "lat": 53.2074,
    "lng": -3.8272,
    "regionId": "wales_north",
    "regionName": "North Wales",
    "regionEmoji": "🏔️"
  },
  {
    "placeId": "mount_snowdon",
    "name": "Mount Snowdon",
    "nameIt": "Yr Wyddfa",
    "type": "LANDMARK",
    "lat": 53.0687,
    "lng": -3.9281,
    "regionId": "wales_north",
    "regionName": "North Wales",
    "regionEmoji": "🏔️"
  },
  {
    "placeId": "aberystwyth",
    "name": "Aberystwyth",
    "nameIt": "Aberystwyth",
    "type": "COASTAL",
    "lat": 52.4115,
    "lng": -4.0826,
    "regionId": "wales_central",
    "regionName": "Central Wales",
    "regionEmoji": "🌲"
  },
  {
    "placeId": "snowdonia_national_park",
    "name": "Snowdonia National Park",
    "nameIt": "Parc Cenedlaethol Eryri",
    "type": "NATURE",
    "lat": 53.0667,
    "lng": -3.9167,
    "regionId": "wales_central",
    "regionName": "Central Wales",
    "regionEmoji": "🌲"
  },
  {
    "placeId": "llandrillo_village",
    "name": "Llandrillo",
    "nameIt": "Llandrillo",
    "type": "VILLAGE",
    "lat": 52.8833,
    "lng": -3.7167,
    "regionId": "wales_central",
    "regionName": "Central Wales",
    "regionEmoji": "🌲"
  },
  {
    "placeId": "cadair_idris",
    "name": "Cadair Idris",
    "nameIt": "Cadair Idris",
    "type": "LANDMARK",
    "lat": 52.6833,
    "lng": -3.9167,
    "regionId": "wales_central",
    "regionName": "Central Wales",
    "regionEmoji": "🌲"
  },
  {
    "placeId": "dolgellau",
    "name": "Dolgellau",
    "nameIt": "Dolgellau",
    "type": "TOWN",
    "lat": 52.7167,
    "lng": -3.8833,
    "regionId": "wales_central",
    "regionName": "Central Wales",
    "regionEmoji": "🌲"
  },
  {
    "placeId": "bala_lake",
    "name": "Bala Lake",
    "nameIt": "Llyn Tegid",
    "type": "NATURE",
    "lat": 52.9167,
    "lng": -3.5667,
    "regionId": "wales_central",
    "regionName": "Central Wales",
    "regionEmoji": "🌲"
  },
  {
    "placeId": "barmouth",
    "name": "Barmouth",
    "nameIt": "Abermaw",
    "type": "COASTAL",
    "lat": 52.7167,
    "lng": -4.0667,
    "regionId": "wales_central",
    "regionName": "Central Wales",
    "regionEmoji": "🌲"
  },
  {
    "placeId": "porthmadog",
    "name": "Porthmadog",
    "nameIt": "Porthmadog",
    "type": "COASTAL",
    "lat": 52.8833,
    "lng": -4.1167,
    "regionId": "wales_central",
    "regionName": "Central Wales",
    "regionEmoji": "🌲"
  },
  {
    "placeId": "caernarfon_castle",
    "name": "Caernarfon Castle",
    "nameIt": "Castell Caernarfon",
    "type": "LANDMARK",
    "lat": 53.1417,
    "lng": -4.2667,
    "regionId": "wales_central",
    "regionName": "Central Wales",
    "regionEmoji": "🌲"
  },
  {
    "placeId": "betws_y_coed",
    "name": "Betws-y-Coed",
    "nameIt": "Betws-y-Coed",
    "type": "VILLAGE",
    "lat": 53.0833,
    "lng": -3.7833,
    "regionId": "wales_central",
    "regionName": "Central Wales",
    "regionEmoji": "🌲"
  },
  {
    "placeId": "conwy_castle",
    "name": "Conwy Castle",
    "nameIt": "Castell Conwy",
    "type": "LANDMARK",
    "lat": 53.2833,
    "lng": -3.8333,
    "regionId": "wales_central",
    "regionName": "Central Wales",
    "regionEmoji": "🌲"
  },
  {
    "placeId": "cardigan_town",
    "name": "Cardigan",
    "nameIt": "Aberteifi",
    "type": "TOWN",
    "lat": 52.0833,
    "lng": -4.6667,
    "regionId": "wales_central",
    "regionName": "Central Wales",
    "regionEmoji": "🌲"
  },
  {
    "placeId": "devil_s_bridge",
    "name": "Devil's Bridge",
    "nameIt": "Pont y Diafol",
    "type": "LANDMARK",
    "lat": 52.3667,
    "lng": -3.8,
    "regionId": "wales_central",
    "regionName": "Central Wales",
    "regionEmoji": "🌲"
  },
  {
    "placeId": "teifi_valley",
    "name": "Teifi Valley",
    "nameIt": "Dyffryn Teifi",
    "type": "NATURE",
    "lat": 52.2167,
    "lng": -4.1667,
    "regionId": "wales_central",
    "regionName": "Central Wales",
    "regionEmoji": "🌲"
  },
  {
    "placeId": "cardiff",
    "name": "Cardiff",
    "nameIt": "Caerdydd",
    "type": "CITY",
    "lat": 51.4816,
    "lng": -3.1791,
    "regionId": "wales_south",
    "regionName": "South Wales",
    "regionEmoji": "🏭"
  },
  {
    "placeId": "swansea",
    "name": "Swansea",
    "nameIt": "Abertawe",
    "type": "CITY",
    "lat": 51.6214,
    "lng": -3.9436,
    "regionId": "wales_south",
    "regionName": "South Wales",
    "regionEmoji": "🏭"
  },
  {
    "placeId": "caerphilly_castle",
    "name": "Caerphilly Castle",
    "nameIt": "Castell Caerffili",
    "type": "LANDMARK",
    "lat": 51.4509,
    "lng": -3.2119,
    "regionId": "wales_south",
    "regionName": "South Wales",
    "regionEmoji": "🏭"
  },
  {
    "placeId": "tenby",
    "name": "Tenby",
    "nameIt": "Dinbych-y-Pysgod",
    "type": "COASTAL",
    "lat": 51.664,
    "lng": -5.0632,
    "regionId": "wales_south",
    "regionName": "South Wales",
    "regionEmoji": "🏭"
  },
  {
    "placeId": "pembroke_castle",
    "name": "Pembroke Castle",
    "nameIt": "Castell Penfro",
    "type": "LANDMARK",
    "lat": 51.6776,
    "lng": -5.1142,
    "regionId": "wales_south",
    "regionName": "South Wales",
    "regionEmoji": "🏭"
  },
  {
    "placeId": "brecon_beacons",
    "name": "Brecon Beacons",
    "nameIt": "Bannau Brycheiniog",
    "type": "NATURE",
    "lat": 51.8906,
    "lng": -3.4394,
    "regionId": "wales_south",
    "regionName": "South Wales",
    "regionEmoji": "🏭"
  },
  {
    "placeId": "st_davids",
    "name": "St Davids",
    "nameIt": "Tyddewi",
    "type": "VILLAGE",
    "lat": 51.8813,
    "lng": -5.2687,
    "regionId": "wales_south",
    "regionName": "South Wales",
    "regionEmoji": "🏭"
  },
  {
    "placeId": "gower_peninsula",
    "name": "Gower Peninsula",
    "nameIt": "Penrhyn Gŵyr",
    "type": "COASTAL",
    "lat": 51.5635,
    "lng": -3.9865,
    "regionId": "wales_south",
    "regionName": "South Wales",
    "regionEmoji": "🏭"
  },
  {
    "placeId": "hay_on_wye",
    "name": "Hay-on-Wye",
    "nameIt": "Y Gelli Gandryll",
    "type": "TOWN",
    "lat": 52.0725,
    "lng": -3.1201,
    "regionId": "wales_south",
    "regionName": "South Wales",
    "regionEmoji": "🏭"
  },
  {
    "placeId": "tintern_abbey",
    "name": "Tintern Abbey",
    "nameIt": "Abaty Tyndyrn",
    "type": "LANDMARK",
    "lat": 51.708,
    "lng": -2.6745,
    "regionId": "wales_south",
    "regionName": "South Wales",
    "regionEmoji": "🏭"
  },
  {
    "placeId": "caerleon",
    "name": "Caerleon",
    "nameIt": "Caerlion",
    "type": "TOWN",
    "lat": 51.6121,
    "lng": -2.9668,
    "regionId": "wales_south",
    "regionName": "South Wales",
    "regionEmoji": "🏭"
  },
  {
    "placeId": "barry",
    "name": "Barry",
    "nameIt": "Y Barri",
    "type": "COASTAL",
    "lat": 51.3992,
    "lng": -3.276,
    "regionId": "wales_south",
    "regionName": "South Wales",
    "regionEmoji": "🏭"
  },
  {
    "placeId": "brecon",
    "name": "Brecon",
    "nameIt": "Aberhonddu",
    "type": "TOWN",
    "lat": 51.9468,
    "lng": -3.3847,
    "regionId": "wales_south",
    "regionName": "South Wales",
    "regionEmoji": "🏭"
  },
  {
    "placeId": "saundersfoot",
    "name": "Saundersfoot",
    "nameIt": "Traeth Saunders",
    "type": "COASTAL",
    "lat": 51.6908,
    "lng": -5.0237,
    "regionId": "wales_south",
    "regionName": "South Wales",
    "regionEmoji": "🏭"
  },
  {
    "placeId": "monmouth",
    "name": "Monmouth",
    "nameIt": "Trefynwy",
    "type": "TOWN",
    "lat": 51.8117,
    "lng": -2.7139,
    "regionId": "wales_south",
    "regionName": "South Wales",
    "regionEmoji": "🏭"
  },
  {
    "placeId": "belfast",
    "name": "Belfast",
    "nameIt": "Béal Feirste",
    "type": "CITY",
    "lat": 54.5973,
    "lng": -5.9301,
    "regionId": "northern_ireland",
    "regionName": "Northern Ireland",
    "regionEmoji": "🥃"
  },
  {
    "placeId": "giants_causeway",
    "name": "Giant's Causeway",
    "nameIt": "Clochán an Aifir",
    "type": "COASTAL",
    "lat": 55.2408,
    "lng": -6.5117,
    "regionId": "northern_ireland",
    "regionName": "Northern Ireland",
    "regionEmoji": "🥃"
  },
  {
    "placeId": "derry_londonderry",
    "name": "Derry/Londonderry",
    "nameIt": "Doire",
    "type": "CITY",
    "lat": 55.0078,
    "lng": -7.3089,
    "regionId": "northern_ireland",
    "regionName": "Northern Ireland",
    "regionEmoji": "🥃"
  },
  {
    "placeId": "dunluce_castle",
    "name": "Dunluce Castle",
    "nameIt": "Caisleán Dhún Lúiche",
    "type": "LANDMARK",
    "lat": 55.2093,
    "lng": -6.6366,
    "regionId": "northern_ireland",
    "regionName": "Northern Ireland",
    "regionEmoji": "🥃"
  },
  {
    "placeId": "causeway_coast",
    "name": "Causeway Coast",
    "nameIt": "Cósta an Chlocháin",
    "type": "COASTAL",
    "lat": 55.195,
    "lng": -6.55,
    "regionId": "northern_ireland",
    "regionName": "Northern Ireland",
    "regionEmoji": "🥃"
  },
  {
    "placeId": "carrick_a_rede",
    "name": "Carrick-a-Rede Rope Bridge",
    "nameIt": "Droichead Rópa Charraig a' Ráda",
    "type": "LANDMARK",
    "lat": 55.2212,
    "lng": -6.42,
    "regionId": "northern_ireland",
    "regionName": "Northern Ireland",
    "regionEmoji": "🥃"
  },
  {
    "placeId": "slieve_patrick",
    "name": "Slemish",
    "nameIt": "Slemish",
    "type": "NATURE",
    "lat": 54.8664,
    "lng": -6.3486,
    "regionId": "northern_ireland",
    "regionName": "Northern Ireland",
    "regionEmoji": "🥃"
  },
  {
    "placeId": "mourne_mountains",
    "name": "Mourne Mountains",
    "nameIt": "Sléibhte an Mhourne",
    "type": "NATURE",
    "lat": 54.25,
    "lng": -6.35,
    "regionId": "northern_ireland",
    "regionName": "Northern Ireland",
    "regionEmoji": "🥃"
  },
  {
    "placeId": "newcastle",
    "name": "Newcastle",
    "nameIt": "An Caisleán Nua",
    "type": "TOWN",
    "lat": 54.2333,
    "lng": -6.3667,
    "regionId": "northern_ireland",
    "regionName": "Northern Ireland",
    "regionEmoji": "🥃"
  },
  {
    "placeId": "silent_valley",
    "name": "Silent Valley",
    "nameIt": "Gleann Ciúin",
    "type": "NATURE",
    "lat": 54.1833,
    "lng": -6.2667,
    "regionId": "northern_ireland",
    "regionName": "Northern Ireland",
    "regionEmoji": "🥃"
  },
  {
    "placeId": "downpatrick",
    "name": "Downpatrick",
    "nameIt": "Dún Pádraig",
    "type": "TOWN",
    "lat": 54.3333,
    "lng": -5.7167,
    "regionId": "northern_ireland",
    "regionName": "Northern Ireland",
    "regionEmoji": "🥃"
  },
  {
    "placeId": "armagh",
    "name": "Armagh",
    "nameIt": "Ard Mhacha",
    "type": "CITY",
    "lat": 54.3507,
    "lng": -6.6546,
    "regionId": "northern_ireland",
    "regionName": "Northern Ireland",
    "regionEmoji": "🥃"
  },
  {
    "placeId": "bushmills",
    "name": "Bushmills",
    "nameIt": "Poitín na Bos",
    "type": "TOWN",
    "lat": 55.1869,
    "lng": -6.5142,
    "regionId": "northern_ireland",
    "regionName": "Northern Ireland",
    "regionEmoji": "🥃"
  },
  {
    "placeId": "portstewart",
    "name": "Portstewart",
    "nameIt": "Port Stíobhaird",
    "type": "COASTAL",
    "lat": 55.1869,
    "lng": -6.7209,
    "regionId": "northern_ireland",
    "regionName": "Northern Ireland",
    "regionEmoji": "🥃"
  },
  {
    "placeId": "strangford_lough",
    "name": "Strangford Lough",
    "nameIt": "Loch Strangabhort",
    "type": "NATURE",
    "lat": 54.35,
    "lng": -5.55,
    "regionId": "northern_ireland",
    "regionName": "Northern Ireland",
    "regionEmoji": "🥃"
  }
]