[{"placeId":"nottingham","name":"Nottingham","nameIt":"Nottingham","type":"CITY","lat":52.9549,"lng":-1.1581,"regionId":"england_east_midlands","regionName":"East Midlands","regionEmoji":"🏭","image":"https://images.unsplash.com/photo-1695824630916-f6fd950de3b1?ixid=M3w5NTU4NjF8MHwxfHNlYXJjaHwxfHxOb3R0aW5naGFtJTIwQ2FzdGxlJTIwbWVkaWV2YWx8ZW58MXwwfHx8MTc4MzI4NTU4OXww&ixlib=rb-4.1.0&crop=entropy&cs=tinysrgb&fit=max&fm=jpg&q=80&w=1080"},{"placeId":"leicester","name":"Leicester","nameIt":"Leicester","type":"CITY","lat":52.6369,"lng":-1.1398,"regionId":"england_east_midlands","regionName":"East Midlands","regionEmoji":"🏭"},{"placeId":"derby","name":"Derby","nameIt":"Derby","type":"CITY","lat":52.9229,"lng":-1.4766,"regionId":"england_east_midlands","regionName":"East Midlands","regionEmoji":"🏭"},{"placeId":"peak_district","name":"Peak District","nameIt":"Peak District","type":"NATURE","lat":53.35,"lng":-1.8,"regionId":"england_east_midlands","regionName":"East Midlands","regionEmoji":"🏭","image":"https://images.unsplash.com/photo-1620127471607-eb3d1ebfc8f0?ixid=M3w5NTU4NjF8MHwxfHNlYXJjaHwxfHxQZWFrJTIwRGlzdHJpY3QlMjBuYXRpb25hbCUyMHBhcmslMjBtb29ybGFuZHxlbnwxfDB8fHwxNzgzMjg1NTkzfDA&ixlib=rb-4.1.0&crop=entropy&cs=tinysrgb&fit=max&fm=jpg&q=80&w=1080"},{"placeId":"chatsworth","name":"Chatsworth House","nameIt":"Chatsworth House","type":"LANDMARK","lat":53.2303,"lng":-1.6447,"regionId":"england_east_midlands","regionName":"East Midlands","regionEmoji":"🏭","image":"https://images.unsplash.com/photo-1644567074692-177e57d0fd5f?ixid=M3w5NTU4NjF8MHwxfHNlYXJjaHwxfHxDaGF0c3dvcnRoJTIwSG91c2UlMjBzdGF0ZWx5JTIwaG9tZXxlbnwxfDB8fHwxNzgzMjg1NTk1fDA&ixlib=rb-4.1.0&crop=entropy&cs=tinysrgb&fit=max&fm=jpg&q=80&w=1080"},{"placeId":"matlock","name":"Matlock","nameIt":"Matlock","type":"TOWN","lat":53.1476,"lng":-1.7942,"regionId":"england_east_midlands","regionName":"East Midlands","regionEmoji":"🏭","image":"https://images.unsplash.com/photo-1782994978672-9430a2d76baa?ixid=M3w5NTU4NjF8MHwxfHNlYXJjaHwxfHxNYXRsb2NrJTIwVmljdG9yaWFuJTIwc3BhJTIwdG93bnxlbnwxfDB8fHwxNzgzMjg1NTk3fDA&ixlib=rb-4.1.0&crop=entropy&cs=tinysrgb&fit=max&fm=jpg&q=80&w=1080"},{"placeId":"belper","name":"Belper","nameIt":"Belper","type":"TOWN","lat":53.0226,"lng":-1.4879,"regionId":"england_east_midlands","regionName":"East Midlands","regionEmoji":"🏭"},{"placeId":"lincoln","name":"Lincoln","nameIt":"Lincoln","type":"CITY","lat":53.2265,"lng":-0.5415,"regionId":"england_east_midlands","regionName":"East Midlands","regionEmoji":"🏭","image":"https://images.unsplash.com/photo-1528784107384-a799cbef4c80?ixid=M3w5NTU4NjF8MHwxfHNlYXJjaHwxfHxMaW5jb2xuJTIwQ2F0aGVkcmFsJTIwbWVkaWV2YWx8ZW58MXwwfHx8MTc4MzI4NTYwMXww&ixlib=rb-4.1.0&crop=entropy&cs=tinysrgb&fit=max&fm=jpg&q=80&w=1080"},{"placeId":"ashby_de_la_zouch","name":"Ashby-de-la-Zouch","nameIt":"Ashby-de-la-Zouch","type":"TOWN","lat":52.736,"lng":-1.4672,"regionId":"england_east_midlands","regionName":"East Midlands","regionEmoji":"🏭","image":"https://images.unsplash.com/photo-1581262214494-195bc159492e?ixid=M3w5NTU4NjF8MHwxfHNlYXJjaHwxfHxBc2hieS1kZS1sYS1ab3VjaCUyMGNhc3RsZSUyMHJ1aW5zfGVufDF8MHx8fDE3ODMyODU2MDN8MA&ixlib=rb-4.1.0&crop=entropy&cs=tinysrgb&fit=max&fm=jpg&q=80&w=1080"},{"placeId":"stamford","name":"Stamford","nameIt":"Stamford","type":"TOWN","lat":52.6568,"lng":-0.4832,"regionId":"england_east_midlands","regionName":"East Midlands","regionEmoji":"🏭"},{"placeId":"sudbury_hall","name":"Sudbury Hall","nameIt":"Sudbury Hall","type":"LANDMARK","lat":53.1121,"lng":-1.7159,"regionId":"england_east_midlands","regionName":"East Midlands","regionEmoji":"🏭"},{"placeId":"oakham","name":"Oakham","nameIt":"Oakham","type":"TOWN","lat":52.6743,"lng":-0.725,"regionId":"england_east_midlands","regionName":"East Midlands","regionEmoji":"🏭"},{"placeId":"clumber_park","name":"Clumber Park","nameIt":"Clumber Park","type":"NATURE","lat":53.3089,"lng":-1.1844,"regionId":"england_east_midlands","regionName":"East Midlands","regionEmoji":"🏭"},{"placeId":"norwich","name":"Norwich","nameIt":"Norwich","type":"CITY","lat":52.6286,"lng":1.2977,"regionId":"england_east_anglia","regionName":"East Anglia","regionEmoji":"🌾","image":"https://images.unsplash.com/photo-1725746562351-71f613a7b8c2?ixid=M3w5NTU4NjF8MHwxfHNlYXJjaHwxfHxOb3J3aWNoJTIwQ2F0aGVkcmFsJTIwbWVkaWV2YWx8ZW58MXwwfHx8MTc4MzI4NTYxNXww&ixlib=rb-4.1.0&crop=entropy&cs=tinysrgb&fit=max&fm=jpg&q=80&w=1080"},{"placeId":"peterborough","name":"Peterborough","nameIt":"Peterborough","type":"CITY","lat":52.5733,"lng":-0.2397,"regionId":"england_east_anglia","regionName":"East Anglia","regionEmoji":"🌾","image":"https://images.unsplash.com/photo-1612798765258-2124fabfdc51?ixid=M3w5NTU4NjF8MHwxfHNlYXJjaHwxfHxQZXRlcmJvcm91Z2glMjBDYXRoZWRyYWx8ZW58MXwwfHx8MTc4MzI4NTYxN3ww&ixlib=rb-4.1.0&crop=entropy&cs=tinysrgb&fit=max&fm=jpg&q=80&w=1080"},{"placeId":"great_yarmouth","name":"Great Yarmouth","nameIt":"Great Yarmouth","type":"COASTAL","lat":52.6092,"lng":1.728,"regionId":"england_east_anglia","regionName":"East Anglia","regionEmoji":"🌾"},{"placeId":"cromer","name":"Cromer","nameIt":"Cromer","type":"COASTAL","lat":52.9291,"lng":1.2988,"regionId":"england_east_anglia","regionName":"East Anglia","regionEmoji":"🌾","image":"https://images.unsplash.com/photo-1672838036459-7ddc14af6e6a?ixid=M3w5NTU4NjF8MHwxfHNlYXJjaHwxfHxDcm9tZXIlMjBwaWVyJTIwTm9yZm9sayUyMGNvYXN0fGVufDF8MHx8fDE3ODMyODU2MjN8MA&ixlib=rb-4.1.0&crop=entropy&cs=tinysrgb&fit=max&fm=jpg&q=80&w=1080"},{"placeId":"wells_next_sea","name":"Wells-next-the-Sea","nameIt":"Wells-next-the-Sea","type":"COASTAL","lat":52.9937,"lng":0.8544,"regionId":"england_east_anglia","regionName":"East Anglia","regionEmoji":"🌾","image":"https://images.unsplash.com/photo-1642264053585-be9e9432396f?ixid=M3w5NTU4NjF8MHwxfHNlYXJjaHwxfHxXZWxscy1uZXh0LXRoZS1TZWElMjBoYXJib3J8ZW58MXwwfHx8MTc4MzI4NTYyNXww&ixlib=rb-4.1.0&crop=entropy&cs=tinysrgb&fit=max&fm=jpg&q=80&w=1080"},{"placeId":"king_lynn","name":"King's Lynn","nameIt":"King's Lynn","type":"TOWN","lat":52.7518,"lng":0.4012,"regionId":"england_east_anglia","regionName":"East Anglia","regionEmoji":"🌾","image":"https://images.unsplash.com/photo-1773408131056-46d514e549a3?ixid=M3w5NTU4NjF8MHwxfHNlYXJjaHwxfHxLaW5nJTI3cyUyMEx5bm4lMjBoaXN0b3JpYyUyMHRvd24lMjBoYWxsfGVufDF8MHx8fDE3ODMyODU2Mjd8MA&ixlib=rb-4.1.0&crop=entropy&cs=tinysrgb&fit=max&fm=jpg&q=80&w=1080"},{"placeId":"blakeney","name":"Blakeney","nameIt":"Blakeney","type":"COASTAL","lat":52.9757,"lng":0.8767,"regionId":"england_east_anglia","regionName":"East Anglia","regionEmoji":"🌾"},{"placeId":"sandringham","name":"Sandringham","nameIt":"Sandringham","type":"LANDMARK","lat":52.8208,"lng":0.495,"regionId":"england_east_anglia","regionName":"East Anglia","regionEmoji":"🌾","image":"https://images.unsplash.com/photo-1660930854679-00512cee59d5?ixid=M3w5NTU4NjF8MHwxfHNlYXJjaHwxfHxTYW5kcmluZ2hhbSUyMEhvdXNlJTIwcm95YWwlMjByZXNpZGVuY2V8ZW58MXwwfHx8MTc4MzI4NTYzMXww&ixlib=rb-4.1.0&crop=entropy&cs=tinysrgb&fit=max&fm=jpg&q=80&w=1080"},{"placeId":"the_broads","name":"The Broads","nameIt":"The Broads","type":"NATURE","lat":52.65,"lng":1.55,"regionId":"england_east_anglia","regionName":"East Anglia","regionEmoji":"🌾"},{"placeId":"ely","name":"Ely","nameIt":"Ely","type":"TOWN","lat":52.3989,"lng":0.2665,"regionId":"england_east_anglia","regionName":"East Anglia","regionEmoji":"🌾","image":"https://images.unsplash.com/photo-1601401465278-0b358f022f18?ixid=M3w5NTU4NjF8MHwxfHNlYXJjaHwxfHxFbHklMjBDYXRoZWRyYWwlMjBPY3RhZ29uJTIwbGFudGVybnxlbnwxfDB8fHwxNzgzMjg1NjM0fDA&ixlib=rb-4.1.0&crop=entropy&cs=tinysrgb&fit=max&fm=jpg&q=80&w=1080"},{"placeId":"aldeburgh","name":"Aldeburgh","nameIt":"Aldeburgh","type":"COASTAL","lat":52.0975,"lng":1.5883,"regionId":"england_east_anglia","regionName":"East Anglia","regionEmoji":"🌾"},{"placeId":"southwold","name":"Southwold","nameIt":"Southwold","type":"COASTAL","lat":52.3247,"lng":1.6754,"regionId":"england_east_anglia","regionName":"East Anglia","regionEmoji":"🌾","image":"https://images.unsplash.com/photo-1781458264626-6766683e8d82?ixid=M3w5NTU4NjF8MHwxfHNlYXJjaHwxfHxTb3V0aHdvbGQlMjBwaWVyJTIwYmVhY2glMjBodXRzfGVufDF8MHx8fDE3ODMyODU2Mzd8MA&ixlib=rb-4.1.0&crop=entropy&cs=tinysrgb&fit=max&fm=jpg&q=80&w=1080"},{"placeId":"tower_of_london","name":"Tower of London","nameIt":"Tower of London","type":"LANDMARK","lat":51.5055,"lng":-0.0754,"regionId":"england_london","regionName":"London","regionEmoji":"🇬🇧","image":"https://images.unsplash.com/photo-1633894914370-6935b23ccbce?ixid=M3w5NTU4NjF8MHwxfHNlYXJjaHwxfHxUb3dlciUyMG9mJTIwTG9uZG9uJTIwQ3Jvd24lMjBKZXdlbHN8ZW58MXwwfHx8MTc4MzI4NTY0N3ww&ixlib=rb-4.1.0&crop=entropy&cs=tinysrgb&fit=max&fm=jpg&q=80&w=1080"},{"placeId":"big_ben_parliament","name":"Big Ben & Houses of Parliament","nameIt":"Big Ben & Houses of Parliament","type":"LANDMARK","lat":51.4975,"lng":-0.1248,"regionId":"england_london","regionName":"London","regionEmoji":"🇬🇧","image":"https://images.unsplash.com/photo-1486299267070-83823f5448dd?ixid=M3w5NTU4NjF8MHwxfHNlYXJjaHwxfHxCaWclMjBCZW4lMjBjbG9jayUyMHRvd2VyJTIwTG9uZG9ufGVufDF8MHx8fDE3ODMyODU2NTB8MA&ixlib=rb-4.1.0&crop=entropy&cs=tinysrgb&fit=max&fm=jpg&q=80&w=1080"},{"placeId":"buckingham_palace","name":"Buckingham Palace","nameIt":"Buckingham Palace","type":"LANDMARK","lat":51.5014,"lng":-0.1419,"regionId":"england_london","regionName":"London","regionEmoji":"🇬🇧","image":"https://images.unsplash.com/photo-1759875522780-bba93968ca12?ixid=M3w5NTU4NjF8MHwxfHNlYXJjaHwxfHxCdWNraW5naGFtJTIwUGFsYWNlJTIwcm95YWwlMjByZXNpZGVuY2V8ZW58MXwwfHx8MTc4MzI4NTY1Mnww&ixlib=rb-4.1.0&crop=entropy&cs=tinysrgb&fit=max&fm=jpg&q=80&w=1080"},{"placeId":"tower_bridge","name":"Tower Bridge","nameIt":"Tower Bridge","type":"LANDMARK","lat":51.5055,"lng":-0.0754,"regionId":"england_london","regionName":"London","regionEmoji":"🇬🇧","image":"https://images.unsplash.com/photo-1533204515132-035bc8d4128c?ixid=M3w5NTU4NjF8MHwxfHNlYXJjaHwxfHxUb3dlciUyMEJyaWRnZSUyMExvbmRvbiUyMFRoYW1lc3xlbnwxfDB8fHwxNzgzMjg1NjU0fDA&ixlib=rb-4.1.0&crop=entropy&cs=tinysrgb&fit=max&fm=jpg&q=80&w=1080"},{"placeId":"westminster_abbey","name":"Westminster Abbey","nameIt":"Westminster Abbey","type":"LANDMARK","lat":51.4954,"lng":-0.1272,"regionId":"england_london","regionName":"London","regionEmoji":"🇬🇧","image":"https://images.unsplash.com/photo-1633094625975-1b70f1ccf1df?ixid=M3w5NTU4NjF8MHwxfHNlYXJjaHwxfHxXZXN0bWluc3RlciUyMEFiYmV5JTIwR290aGljJTIwYXJjaGl0ZWN0dXJlfGVufDF8MHx8fDE3ODMyODU2NTZ8MA&ixlib=rb-4.1.0&crop=entropy&cs=tinysrgb&fit=max&fm=jpg&q=80&w=1080"},{"placeId":"british_museum","name":"British Museum","nameIt":"British Museum","type":"LANDMARK","lat":51.5194,"lng":-0.127,"regionId":"england_london","regionName":"London","regionEmoji":"🇬🇧","image":"https://images.unsplash.com/photo-1770910339393-6894daf06334?ixid=M3w5NTU4NjF8MHwxfHNlYXJjaHwxfHxCcml0aXNoJTIwTXVzZXVtJTIwR3JlYXQlMjBDb3VydHxlbnwxfDB8fHwxNzgzMjg1NjU4fDA&ixlib=rb-4.1.0&crop=entropy&cs=tinysrgb&fit=max&fm=jpg&q=80&w=1080"},{"placeId":"st_pauls_cathedral","name":"St. Paul's Cathedral","nameIt":"St. Paul's Cathedral","type":"LANDMARK","lat":51.5138,"lng":-0.0984,"regionId":"england_london","regionName":"London","regionEmoji":"🇬🇧","image":"https://images.unsplash.com/photo-1589731931772-2e977385ddcb?ixid=M3w5NTU4NjF8MHwxfHNlYXJjaHwxfHxTdCUyMFBhdWwlMjdzJTIwQ2F0aGVkcmFsJTIwZG9tZSUyMExvbmRvbnxlbnwxfDB8fHwxNzgzMjg1NjYwfDA&ixlib=rb-4.1.0&crop=entropy&cs=tinysrgb&fit=max&fm=jpg&q=80&w=1080"},{"placeId":"london_eye","name":"London Eye","nameIt":"London Eye","type":"LANDMARK","lat":51.5033,"lng":-0.1195,"regionId":"england_london","regionName":"London","regionEmoji":"🇬🇧","image":"https://images.unsplash.com/photo-1587659901518-7020d4413085?ixid=M3w5NTU4NjF8MHwxfHNlYXJjaHwxfHxMb25kb24lMjBFeWUlMjBvYnNlcnZhdGlvbiUyMHdoZWVsfGVufDF8MHx8fDE3ODMyODU2NjJ8MA&ixlib=rb-4.1.0&crop=entropy&cs=tinysrgb&fit=max&fm=jpg&q=80&w=1080"},{"placeId":"national_gallery","name":"National Gallery","nameIt":"National Gallery","type":"LANDMARK","lat":51.5087,"lng":-0.1283,"regionId":"england_london","regionName":"London","regionEmoji":"🇬🇧","image":"https://images.unsplash.com/photo-1587508335272-0efe0e8a3eec?ixid=M3w5NTU4NjF8MHwxfHNlYXJjaHwxfHxOYXRpb25hbCUyMEdhbGxlcnklMjBMb25kb24lMjBUcmFmYWxnYXIlMjBTcXVhcmV8ZW58MXwwfHx8MTc4MzI4NTY2NXww&ixlib=rb-4.1.0&crop=entropy&cs=tinysrgb&fit=max&fm=jpg&q=80&w=1080"},{"placeId":"hyde_park","name":"Hyde Park","nameIt":"Hyde Park","type":"NATURE","lat":51.5073,"lng":-0.1657,"regionId":"england_london","regionName":"London","regionEmoji":"🇬🇧","image":"https://images.unsplash.com/photo-1661105663794-8a5491739f5a?ixid=M3w5NTU4NjF8MHwxfHNlYXJjaHwxfHxIeWRlJTIwUGFyayUyMExvbmRvbiUyMFNlcnBlbnRpbmUlMjBsYWtlfGVufDF8MHx8fDE3ODMyODU2Njd8MA&ixlib=rb-4.1.0&crop=entropy&cs=tinysrgb&fit=max&fm=jpg&q=80&w=1080"},{"placeId":"natural_history_museum","name":"Natural History Museum","nameIt":"Natural History Museum","type":"LANDMARK","lat":51.4945,"lng":-0.1743,"regionId":"england_london","regionName":"London","regionEmoji":"🇬🇧","image":"https://images.unsplash.com/photo-1657623876787-02213dbe8940?ixid=M3w5NTU4NjF8MHwxfHNlYXJjaHwxfHxOYXR1cmFsJTIwSGlzdG9yeSUyME11c2V1bSUyMExvbmRvbiUyMGRpbm9zYXVyfGVufDF8MHx8fDE3ODMyODU2Njl8MA&ixlib=rb-4.1.0&crop=entropy&cs=tinysrgb&fit=max&fm=jpg&q=80&w=1080"},{"placeId":"tate_modern","name":"Tate Modern","nameIt":"Tate Modern","type":"LANDMARK","lat":51.5076,"lng":-0.0994,"regionId":"england_london","regionName":"London","regionEmoji":"🇬🇧","image":"https://images.unsplash.com/photo-1673028853609-3c8f0c6134cc?ixid=M3w5NTU4NjF8MHwxfHNlYXJjaHwxfHxUYXRlJTIwTW9kZXJuJTIwcG93ZXIlMjBzdGF0aW9uJTIwTG9uZG9ufGVufDF8MHx8fDE3ODMyODU2NzF8MA&ixlib=rb-4.1.0&crop=entropy&cs=tinysrgb&fit=max&fm=jpg&q=80&w=1080"},{"placeId":"camden_market","name":"Camden Market","nameIt":"Camden Market","type":"LANDMARK","lat":51.5391,"lng":-0.1426,"regionId":"england_london","regionName":"London","regionEmoji":"🇬🇧","image":"https://images.unsplash.com/photo-1768548318404-3a9584776e73?ixid=M3w5NTU4NjF8MHwxfHNlYXJjaHwxfHxDYW1kZW4lMjBNYXJrZXQlMjBMb25kb24lMjB2aW50YWdlJTIwY2xvdGhpbmd8ZW58MXwwfHx8MTc4MzI4NTY3M3ww&ixlib=rb-4.1.0&crop=entropy&cs=tinysrgb&fit=max&fm=jpg&q=80&w=1080"},{"placeId":"covent_garden","name":"Covent Garden","nameIt":"Covent Garden","type":"LANDMARK","lat":51.5113,"lng":-0.1229,"regionId":"england_london","regionName":"London","regionEmoji":"🇬🇧","image":"https://images.unsplash.com/photo-1662714215815-ca120064ab62?ixid=M3w5NTU4NjF8MHwxfHNlYXJjaHwxfHxDb3ZlbnQlMjBHYXJkZW4lMjBtYXJrZXQlMjBMb25kb258ZW58MXwwfHx8MTc4MzI4NTY3NHww&ixlib=rb-4.1.0&crop=entropy&cs=tinysrgb&fit=max&fm=jpg&q=80&w=1080"},{"placeId":"london_city","name":"London","type":"CITY","lat":51.5074,"lng":-0.1278,"regionId":"england_london","regionName":"London","regionEmoji":"🇬🇧","image":"https://images.unsplash.com/photo-1513635269975-59663e0ac1ad?ixid=M3w5NTU4NjF8MHwxfHNlYXJjaHwxfHxMb25kb24lMjBVbml0ZWQlMjBLaW5nZG9tfGVufDF8MHx8fDE3ODQwMjIwMzF8MA&ixlib=rb-4.1.0&crop=entropy&cs=tinysrgb&fit=max&fm=jpg&q=80&w=1080"},{"placeId":"brighton","name":"Brighton","nameIt":"Brighton","type":"COASTAL","lat":50.8617,"lng":-0.0822,"regionId":"england_south_east","regionName":"South East England","regionEmoji":"🏖️","image":"https://images.unsplash.com/photo-1603776032023-ec5e5201c36e?ixid=M3w5NTU4NjF8MHwxfHNlYXJjaHwxfHxCcmlnaHRvbiUyMFBpZXIlMjBzdW5zZXR8ZW58MXwwfHx8MTc4MzI4NTY4M3ww&ixlib=rb-4.1.0&crop=entropy&cs=tinysrgb&fit=max&fm=jpg&q=80&w=1080"},{"placeId":"oxford","name":"Oxford","nameIt":"Oxford","type":"CITY","lat":51.752,"lng":-1.2577,"regionId":"england_south_east","regionName":"South East England","regionEmoji":"🏖️","image":"https://images.unsplash.com/20/cambridge.JPG?ixid=M3w5NTU4NjF8MHwxfHNlYXJjaHwxfHxPeGZvcmQlMjBjb2xsZWdlcyUyMFJhZGNsaWZmZSUyMENhbWVyYXxlbnwxfDB8fHwxNzgzMjg1Njg1fDA&ixlib=rb-4.1.0&crop=entropy&cs=tinysrgb&fit=max&fm=jpg&q=80&w=1080"},{"placeId":"cambridge","name":"Cambridge","nameIt":"Cambridge","type":"CITY","lat":52.2053,"lng":0.1218,"regionId":"england_south_east","regionName":"South East England","regionEmoji":"🏖️","image":"https://images.unsplash.com/photo-1627411437849-4bc5a9b9341d?ixid=M3w5NTU4NjF8MHwxfHNlYXJjaHwxfHxDYW1icmlkZ2UlMjBLaW5nJTI3cyUyMENvbGxlZ2UlMjBDaGFwZWx8ZW58MXwwfHx8MTc4MzI4NTY4N3ww&ixlib=rb-4.1.0&crop=entropy&cs=tinysrgb&fit=max&fm=jpg&q=80&w=1080"},{"placeId":"canterbury","name":"Canterbury","nameIt":"Canterbury","type":"CITY","lat":51.2798,"lng":1.083,"regionId":"england_south_east","regionName":"South East England","regionEmoji":"🏖️","image":"https://images.unsplash.com/photo-1706957808741-eaf0454abd09?ixid=M3w5NTU4NjF8MHwxfHNlYXJjaHwxfHxDYW50ZXJidXJ5JTIwQ2F0aGVkcmFsJTIwR290aGljfGVufDF8MHx8fDE3ODMyODU2ODl8MA&ixlib=rb-4.1.0&crop=entropy&cs=tinysrgb&fit=max&fm=jpg&q=80&w=1080"},{"placeId":"windsor","name":"Windsor","nameIt":"Windsor","type":"TOWN","lat":51.4839,"lng":-0.6075,"regionId":"england_south_east","regionName":"South East England","regionEmoji":"🏖️","image":"https://images.unsplash.com/photo-1667743989159-5f0a38d46c2e?ixid=M3w5NTU4NjF8MHwxfHNlYXJjaHwxfHxXaW5kc29yJTIwQ2FzdGxlJTIwVGhhbWVzfGVufDF8MHx8fDE3ODMzMjIwNjV8MA&ixlib=rb-4.1.0&crop=entropy&cs=tinysrgb&fit=max&fm=jpg&q=80&w=1080"},{"placeId":"hastings","name":"Hastings","nameIt":"Hastings","type":"COASTAL","lat":50.855,"lng":0.574,"regionId":"england_south_east","regionName":"South East England","regionEmoji":"🏖️"},{"placeId":"rye","name":"Rye","nameIt":"Rye","type":"TOWN","lat":50.9268,"lng":0.777,"regionId":"england_south_east","regionName":"South East England","regionEmoji":"🏖️","image":"https://images.unsplash.com/photo-1746880757861-659a12315a36?ixid=M3w5NTU4NjF8MHwxfHNlYXJjaHwxfHxSeWUlMjBjb2JibGVkJTIwc3RyZWV0cyUyMGhpbGx0b3B8ZW58MXwwfHx8MTc4MzMyMjA2OXww&ixlib=rb-4.1.0&crop=entropy&cs=tinysrgb&fit=max&fm=jpg&q=80&w=1080"},{"placeId":"bath","name":"Bath","nameIt":"Bath","type":"CITY","lat":51.3825,"lng":-2.3599,"regionId":"england_south_east","regionName":"South East England","regionEmoji":"🏖️","image":"https://images.unsplash.com/photo-1594755652327-b8514471741b?ixid=M3w5NTU4NjF8MHwxfHNlYXJjaHwxfHxCYXRoJTIwUm95YWwlMjBDcmVzY2VudCUyMEdlb3JnaWFufGVufDF8MHx8fDE3ODMzMjIwNzF8MA&ixlib=rb-4.1.0&crop=entropy&cs=tinysrgb&fit=max&fm=jpg&q=80&w=1080"},{"placeId":"southend","name":"Southend-on-Sea","nameIt":"Southend-on-Sea","type":"COASTAL","lat":51.5348,"lng":0.7284,"regionId":"england_south_east","regionName":"South East England","regionEmoji":"🏖️","image":"https://images.unsplash.com/photo-1557189946-0722b2de1818?ixid=M3w5NTU4NjF8MHwxfHNlYXJjaHwxfHxTb3V0aGVuZCUyMFBpZXIlMjBsb25nZXN0fGVufDF8MHx8fDE3ODMzMjIwNzN8MA&ixlib=rb-4.1.0&crop=entropy&cs=tinysrgb&fit=max&fm=jpg&q=80&w=1080"},{"placeId":"sandwich","name":"Sandwich","nameIt":"Sandwich","type":"TOWN","lat":51.212,"lng":1.336,"regionId":"england_south_east","regionName":"South East England","regionEmoji":"🏖️","image":"https://images.unsplash.com/photo-1743073880241-9f8d3ce9f3ae?ixid=M3w5NTU4NjF8MHwxfHNlYXJjaHwxfHxTYW5kd2ljaCUyMG1lZGlldmFsJTIwdG93biUyMHdhbGxzfGVufDF8MHx8fDE3ODMzMjIwNzV8MA&ixlib=rb-4.1.0&crop=entropy&cs=tinysrgb&fit=max&fm=jpg&q=80&w=1080"},{"placeId":"henley","name":"Henley-on-Thames","nameIt":"Henley-on-Thames","type":"TOWN","lat":51.5338,"lng":-0.8931,"regionId":"england_south_east","regionName":"South East England","regionEmoji":"🏖️"},{"placeId":"dover","name":"Dover","nameIt":"Dover","type":"COASTAL","lat":51.1239,"lng":1.3125,"regionId":"england_south_east","regionName":"South East England","regionEmoji":"🏖️","image":"https://images.unsplash.com/photo-1684710160359-6fa6a38f71f9?ixid=M3w5NTU4NjF8MHwxfHNlYXJjaHwxfHxEb3ZlciUyMHdoaXRlJTIwY2xpZmZzfGVufDF8MHx8fDE3ODMzMjIwNzh8MA&ixlib=rb-4.1.0&crop=entropy&cs=tinysrgb&fit=max&fm=jpg&q=80&w=1080"},{"placeId":"tunbridge_wells","name":"Tunbridge Wells","nameIt":"Tunbridge Wells","type":"TOWN","lat":51.1328,"lng":0.2663,"regionId":"england_south_east","regionName":"South East England","regionEmoji":"🏖️"},{"placeId":"margate","name":"Margate","nameIt":"Margate","type":"COASTAL","lat":51.3867,"lng":1.3806,"regionId":"england_south_east","regionName":"South East England","regionEmoji":"🏖️"},{"placeId":"kew_gardens","name":"Kew Gardens","nameIt":"Kew Gardens","type":"NATURE","lat":51.4769,"lng":-0.2833,"regionId":"england_south_east","regionName":"South East England","regionEmoji":"🏖️","image":"https://images.unsplash.com/photo-1591522347988-3b9ec2bcfc2b?ixid=M3w5NTU4NjF8MHwxfHNlYXJjaHwxfHxLZXclMjBHYXJkZW5zJTIwUGFsbSUyMEhvdXNlfGVufDF8MHx8fDE3ODMzMjIwODN8MA&ixlib=rb-4.1.0&crop=entropy&cs=tinysrgb&fit=max&fm=jpg&q=80&w=1080"},{"placeId":"exeter","name":"Exeter","nameIt":"Exeter","type":"CITY","lat":50.7184,"lng":-3.5339,"regionId":"england_south_west","regionName":"South West England","regionEmoji":"🏔️","image":"https://images.unsplash.com/photo-1762890025652-46c26e3ae5a3?ixid=M3w5NTU4NjF8MHwxfHNlYXJjaHwxfHxFeGV0ZXIlMjBDYXRoZWRyYWwlMjBHb3RoaWMlMjBhcmNoaXRlY3R1cmV8ZW58MXwwfHx8MTc4MzMyMjA5OHww&ixlib=rb-4.1.0&crop=entropy&cs=tinysrgb&fit=max&fm=jpg&q=80&w=1080"},{"placeId":"cornwall_coast","name":"Cornish Coast","nameIt":"Cornish Coast","type":"COASTAL","lat":50.4768,"lng":-4.759,"regionId":"england_south_west","regionName":"South West England","regionEmoji":"🏔️","image":"https://images.unsplash.com/photo-1534517535933-e38e7658663f?ixid=M3w5NTU4NjF8MHwxfHNlYXJjaHwxfHxDb3Jud2FsbCUyMGNvYXN0JTIwdHVycXVvaXNlJTIwY292ZXMlMjBiZWFjaGVzfGVufDF8MHx8fDE3ODMzMjIxMDB8MA&ixlib=rb-4.1.0&crop=entropy&cs=tinysrgb&fit=max&fm=jpg&q=80&w=1080"},{"placeId":"st_ives","name":"St Ives","nameIt":"St Ives","type":"COASTAL","lat":50.2105,"lng":-5.4818,"regionId":"england_south_west","regionName":"South West England","regionEmoji":"🏔️","image":"https://images.unsplash.com/photo-1634084437161-fcc7a79e0bb2?ixid=M3w5NTU4NjF8MHwxfHNlYXJjaHwxfHxTdCUyMEl2ZXMlMjBDb3Jud2FsbCUyMGJlYWNoJTIwdG93bnxlbnwxfDB8fHwxNzgzMzIyMTAyfDA&ixlib=rb-4.1.0&crop=entropy&cs=tinysrgb&fit=max&fm=jpg&q=80&w=1080"},{"placeId":"stonehenge","name":"Stonehenge","nameIt":"Stonehenge","type":"LANDMARK","lat":51.1789,"lng":-1.8262,"regionId":"england_south_west","regionName":"South West England","regionEmoji":"🏔️","image":"https://images.unsplash.com/photo-1599833975787-5c143f373c30?ixid=M3w5NTU4NjF8MHwxfHNlYXJjaHwxfHxTdG9uZWhlbmdlJTIwc3RhbmRpbmclMjBzdG9uZXMlMjBtb251bWVudHxlbnwxfDB8fHwxNzgzMzIyMTA0fDA&ixlib=rb-4.1.0&crop=entropy&cs=tinysrgb&fit=max&fm=jpg&q=80&w=1080"},{"placeId":"glastonbury","name":"Glastonbury","nameIt":"Glastonbury","type":"TOWN","lat":51.1438,"lng":-2.7146,"regionId":"england_south_west","regionName":"South West England","regionEmoji":"🏔️","image":"https://images.unsplash.com/photo-1740814873381-25987c2a85db?ixid=M3w5NTU4NjF8MHwxfHNlYXJjaHwxfHxHbGFzdG9uYnVyeSUyMFRvciUyMHN1bnNldCUyMFNvbWVyc2V0fGVufDF8MHx8fDE3ODMzMjIxMDZ8MA&ixlib=rb-4.1.0&crop=entropy&cs=tinysrgb&fit=max&fm=jpg&q=80&w=1080"},{"placeId":"salisbury","name":"Salisbury","nameIt":"Salisbury","type":"CITY","lat":51.0644,"lng":-1.7955,"regionId":"england_south_west","regionName":"South West England","regionEmoji":"🏔️"},{"placeId":"cotswolds","name":"Cotswolds","nameIt":"Cotswolds","type":"NATURE","lat":51.833,"lng":-1.8433,"regionId":"england_south_west","regionName":"South West England","regionEmoji":"🏔️","image":"https://images.unsplash.com/photo-1670620800615-4225fe6ecb75?ixid=M3w5NTU4NjF8MHwxfHNlYXJjaHwxfHxDb3Rzd29sZHMlMjBob25leSUyMHN0b25lJTIwdmlsbGFnZXN8ZW58MXwwfHx8MTc4MzMyMjEwOXww&ixlib=rb-4.1.0&crop=entropy&cs=tinysrgb&fit=max&fm=jpg&q=80&w=1080"},{"placeId":"devon_moors","name":"Dartmoor","nameIt":"Dartmoor","type":"NATURE","lat":50.5864,"lng":-3.9821,"regionId":"england_south_west","regionName":"South West England","regionEmoji":"🏔️","image":"https://images.unsplash.com/photo-1718892046515-25fef20c2ae9?ixid=M3w5NTU4NjF8MHwxfHNlYXJjaHwxfHxEYXJ0bW9vciUyMGdyYW5pdGUlMjB0b3JzJTIwbW9vcmxhbmR8ZW58MXwwfHx8MTc4MzMyMjExMXww&ixlib=rb-4.1.0&crop=entropy&cs=tinysrgb&fit=max&fm=jpg&q=80&w=1080"},{"placeId":"tintagel","name":"Tintagel","nameIt":"Tintagel","type":"COASTAL","lat":50.6651,"lng":-4.7396,"regionId":"england_south_west","regionName":"South West England","regionEmoji":"🏔️","image":"https://images.unsplash.com/photo-1711706892589-fdfcbd40a363?ixid=M3w5NTU4NjF8MHwxfHNlYXJjaHwxfHxUaW50YWdlbCUyMENhc3RsZSUyMHJ1aW5zJTIwY2xpZmZ0b3AlMjBDb3Jud2FsbHxlbnwxfDB8fHwxNzgzMzIyMTEzfDA&ixlib=rb-4.1.0&crop=entropy&cs=tinysrgb&fit=max&fm=jpg&q=80&w=1080"},{"placeId":"exeter_quay","name":"Exmouth","nameIt":"Exmouth","type":"COASTAL","lat":50.6189,"lng":-3.4169,"regionId":"england_south_west","regionName":"South West England","regionEmoji":"🏔️"},{"placeId":"wells","name":"Wells","nameIt":"Wells","type":"TOWN","lat":51.2093,"lng":-2.645,"regionId":"england_south_west","regionName":"South West England","regionEmoji":"🏔️","image":"https://images.unsplash.com/photo-1712399614029-a377a370924c?ixid=M3w5NTU4NjF8MHwxfHNlYXJjaHwxfHxXZWxscyUyMENhdGhlZHJhbCUyMEdvdGhpYyUyMGZhY2FkZSUyMFNvbWVyc2V0fGVufDF8MHx8fDE3ODMzMjIxMTZ8MA&ixlib=rb-4.1.0&crop=entropy&cs=tinysrgb&fit=max&fm=jpg&q=80&w=1080"},{"placeId":"plymouth","name":"Plymouth","nameIt":"Plymouth","type":"CITY","lat":50.3755,"lng":-4.1427,"regionId":"england_south_west","regionName":"South West England","regionEmoji":"🏔️","image":"https://images.unsplash.com/photo-1714236099093-177adc50b507?ixid=M3w5NTU4NjF8MHwxfHNlYXJjaHwxfHxQbHltb3V0aCUyMEhvZSUyMHNlYWZyb250JTIwaGlzdG9yaWN8ZW58MXwwfHx8MTc4MzMyMjExOHww&ixlib=rb-4.1.0&crop=entropy&cs=tinysrgb&fit=max&fm=jpg&q=80&w=1080"},{"placeId":"birmingham","name":"Birmingham","nameIt":"Birmingham","type":"CITY","lat":52.5086,"lng":-1.8853,"regionId":"england_west_midlands","regionName":"West Midlands","regionEmoji":"🏛️","image":"https://images.unsplash.com/photo-1499958060387-dbdb8d0994fb?ixid=M3w5NTU4NjF8MHwxfHNlYXJjaHwxfHxCaXJtaW5naGFtJTIwY2l0eSUyMGNlbnRyZSUyMHNreWxpbmV8ZW58MXwwfHx8MTc4MzMyMjEyOHww&ixlib=rb-4.1.0&crop=entropy&cs=tinysrgb&fit=max&fm=jpg&q=80&w=1080"},{"placeId":"coventry","name":"Coventry","nameIt":"Coventry","type":"CITY","lat":52.4082,"lng":-1.5104,"regionId":"england_west_midlands","regionName":"West Midlands","regionEmoji":"🏛️"},{"placeId":"wolverhampton","name":"Wolverhampton","nameIt":"Wolverhampton","type":"CITY","lat":52.5898,"lng":-2.1298,"regionId":"england_west_midlands","regionName":"West Midlands","regionEmoji":"🏛️"},{"placeId":"dudley","name":"Dudley","nameIt":"Dudley","type":"TOWN","lat":52.5125,"lng":-2.0836,"regionId":"england_west_midlands","regionName":"West Midlands","regionEmoji":"🏛️"},{"placeId":"worcester","name":"Worcester","nameIt":"Worcester","type":"CITY","lat":52.1896,"lng":-2.2163,"regionId":"england_west_midlands","regionName":"West Midlands","regionEmoji":"🏛️","image":"https://images.unsplash.com/photo-1709830807506-c95b5f8fc49c?ixid=M3w5NTU4NjF8MHwxfHNlYXJjaHwxfHxXb3JjZXN0ZXIlMjBDYXRoZWRyYWwlMjBSaXZlciUyMFNldmVybnxlbnwxfDB8fHwxNzgzMzIyMTMzfDA&ixlib=rb-4.1.0&crop=entropy&cs=tinysrgb&fit=max&fm=jpg&q=80&w=1080"},{"placeId":"stratford_upon_avon","name":"Stratford-upon-Avon","nameIt":"Stratford-upon-Avon","type":"TOWN","lat":52.1928,"lng":-1.7123,"regionId":"england_west_midlands","regionName":"West Midlands","regionEmoji":"🏛️"},{"placeId":"kidderminster","name":"Kidderminster","nameIt":"Kidderminster","type":"TOWN","lat":52.3868,"lng":-2.2614,"regionId":"england_west_midlands","regionName":"West Midlands","regionEmoji":"🏛️","image":"https://images.unsplash.com/photo-1605738087719-b4525c830c0f?ixid=M3w5NTU4NjF8MHwxfHNlYXJjaHwxfHxLaWRkZXJtaW5zdGVyJTIwU2V2ZXJuJTIwVmFsbGV5JTIwUmFpbHdheXxlbnwxfDB8fHwxNzgzMzIyMTM2fDA&ixlib=rb-4.1.0&crop=entropy&cs=tinysrgb&fit=max&fm=jpg&q=80&w=1080"},{"placeId":"redditch","name":"Redditch","nameIt":"Redditch","type":"TOWN","lat":52.3005,"lng":-1.8938,"regionId":"england_west_midlands","regionName":"West Midlands","regionEmoji":"🏛️"},{"placeId":"bromsgrove","name":"Bromsgrove","nameIt":"Bromsgrove","type":"TOWN","lat":52.3408,"lng":-2.0539,"regionId":"england_west_midlands","regionName":"West Midlands","regionEmoji":"🏛️","image":"https://images.unsplash.com/photo-1618949680411-07fda028e550?ixid=M3w5NTU4NjF8MHwxfHNlYXJjaHwxfHxCcm9tc2dyb3ZlJTIwSGlnaCUyMFN0cmVldCUyMEdlb3JnaWFufGVufDF8MHx8fDE3ODMzMjIxMzl8MA&ixlib=rb-4.1.0&crop=entropy&cs=tinysrgb&fit=max&fm=jpg&q=80&w=1080"},{"placeId":"cannock_chase","name":"Cannock Chase","nameIt":"Cannock Chase","type":"NATURE","lat":52.6058,"lng":-2.0272,"regionId":"england_west_midlands","regionName":"West Midlands","regionEmoji":"🏛️","image":"https://images.unsplash.com/photo-1525892043143-384347a039f3?ixid=M3w5NTU4NjF8MHwxfHNlYXJjaHwxfHxDYW5ub2NrJTIwQ2hhc2UlMjBoZWF0aGxhbmQlMjBsYW5kc2NhcGV8ZW58MXwwfHx8MTc4MzMyMjE0MXww&ixlib=rb-4.1.0&crop=entropy&cs=tinysrgb&fit=max&fm=jpg&q=80&w=1080"},{"placeId":"ironbridge","name":"Ironbridge","nameIt":"Ironbridge","type":"LANDMARK","lat":52.6301,"lng":-2.4892,"regionId":"england_west_midlands","regionName":"West Midlands","regionEmoji":"🏛️"},{"placeId":"black_country","name":"Black Country","nameIt":"Black Country","type":"LANDMARK","lat":52.53,"lng":-2.05,"regionId":"england_west_midlands","regionName":"West Midlands","regionEmoji":"🏛️","image":"https://images.unsplash.com/photo-1659386513017-d5ee262977d7?ixid=M3w5NTU4NjF8MHwxfHNlYXJjaHwxfHxCbGFjayUyMENvdW50cnklMjBMaXZpbmclMjBNdXNldW18ZW58MXwwfHx8MTc4MzMyMjE0NHww&ixlib=rb-4.1.0&crop=entropy&cs=tinysrgb&fit=max&fm=jpg&q=80&w=1080"},{"placeId":"malvern_hills","name":"Malvern Hills","nameIt":"Malvern Hills","type":"NATURE","lat":52.0974,"lng":-2.3151,"regionId":"england_west_midlands","regionName":"West Midlands","regionEmoji":"🏛️","image":"https://images.unsplash.com/photo-1713815715073-e7c67d35cdfd?ixid=M3w5NTU4NjF8MHwxfHNlYXJjaHwxfHxNYWx2ZXJuJTIwSGlsbHMlMjByaWRnZSUyMHdhbGtpbmclMjB2aWV3fGVufDF8MHx8fDE3ODMzMjIxNDZ8MA&ixlib=rb-4.1.0&crop=entropy&cs=tinysrgb&fit=max&fm=jpg&q=80&w=1080"},{"placeId":"manchester","name":"Manchester","nameIt":"Manchester","type":"CITY","lat":53.4808,"lng":-2.2426,"regionId":"england_north_west","regionName":"North West England","regionEmoji":"🏙️","image":"https://images.unsplash.com/photo-1724135869739-6055627ba5df?ixid=M3w5NTU4NjF8MHwxfHNlYXJjaHwxfHxNYW5jaGVzdGVyJTIwY2l0eSUyMHNreWxpbmV8ZW58MXwwfHx8MTc4MzMyMjE2MHww&ixlib=rb-4.1.0&crop=entropy&cs=tinysrgb&fit=max&fm=jpg&q=80&w=1080"},{"placeId":"liverpool","name":"Liverpool","nameIt":"Liverpool","type":"CITY","lat":53.4084,"lng":-2.9916,"regionId":"england_north_west","regionName":"North West England","regionEmoji":"🏙️","image":"https://images.unsplash.com/photo-1505833779582-e28ba8f922f8?ixid=M3w5NTU4NjF8MHwxfHNlYXJjaHwxfHxMaXZlcnBvb2wlMjBBbGJlcnQlMjBEb2NrfGVufDF8MHx8fDE3ODMzMjIxNjJ8MA&ixlib=rb-4.1.0&crop=entropy&cs=tinysrgb&fit=max&fm=jpg&q=80&w=1080"},{"placeId":"lake_district","name":"Lake District","nameIt":"Lake District","type":"NATURE","lat":54.4609,"lng":-3.2026,"regionId":"england_north_west","regionName":"North West England","regionEmoji":"🏙️","image":"https://images.unsplash.com/photo-1619093849222-016b6cb98a20?ixid=M3w5NTU4NjF8MHwxfHNlYXJjaHwxfHxMYWtlJTIwRGlzdHJpY3QlMjBtb3VudGFpbnN8ZW58MXwwfHx8MTc4MzMyMjE2NHww&ixlib=rb-4.1.0&crop=entropy&cs=tinysrgb&fit=max&fm=jpg&q=80&w=1080"},{"placeId":"chester","name":"Chester","nameIt":"Chester","type":"TOWN","lat":53.1923,"lng":-2.8922,"regionId":"england_north_west","regionName":"North West England","regionEmoji":"🏙️","image":"https://images.unsplash.com/photo-1475665724515-6d075e9759f7?ixid=M3w5NTU4NjF8MHwxfHNlYXJjaHwxfHxDaGVzdGVyJTIwY2l0eSUyMHdhbGxzJTIwbWVkaWV2YWx8ZW58MXwwfHx8MTc4MzMyMjE2Nnww&ixlib=rb-4.1.0&crop=entropy&cs=tinysrgb&fit=max&fm=jpg&q=80&w=1080"},{"placeId":"ambleside","name":"Ambleside","nameIt":"Ambleside","type":"TOWN","lat":54.4293,"lng":-3.0349,"regionId":"england_north_west","regionName":"North West England","regionEmoji":"🏙️","image":"https://images.unsplash.com/photo-1591645826550-5c68c1bef79d?ixid=M3w5NTU4NjF8MHwxfHNlYXJjaHwxfHxBbWJsZXNpZGUlMjBMYWtlJTIwRGlzdHJpY3QlMjB0b3dufGVufDF8MHx8fDE3ODMzMjIxNjh8MA&ixlib=rb-4.1.0&crop=entropy&cs=tinysrgb&fit=max&fm=jpg&q=80&w=1080"},{"placeId":"blackpool","name":"Blackpool","nameIt":"Blackpool","type":"COASTAL","lat":53.8143,"lng":-3.0585,"regionId":"england_north_west","regionName":"North West England","regionEmoji":"🏙️","image":"https://images.unsplash.com/photo-1615196201197-4a063bbaf844?ixid=M3w5NTU4NjF8MHwxfHNlYXJjaHwxfHxCbGFja3Bvb2wlMjBUb3dlcnxlbnwxfDB8fHwxNzgzMzIyMTY5fDA&ixlib=rb-4.1.0&crop=entropy&cs=tinysrgb&fit=max&fm=jpg&q=80&w=1080"},{"placeId":"penrith","name":"Penrith","nameIt":"Penrith","type":"TOWN","lat":54.6644,"lng":-2.7519,"regionId":"england_north_west","regionName":"North West England","regionEmoji":"🏙️","image":"https://images.unsplash.com/photo-1617810630538-93ca2a07a88b?ixid=M3w5NTU4NjF8MHwxfHNlYXJjaHwxfHxQZW5yaXRoJTIwQ2FzdGxlJTIwcnVpbnN8ZW58MXwwfHx8MTc4MzMyMjE3MXww&ixlib=rb-4.1.0&crop=entropy&cs=tinysrgb&fit=max&fm=jpg&q=80&w=1080"},{"placeId":"conway","name":"Conwy","nameIt":"Conwy","type":"TOWN","lat":53.2829,"lng":-3.8268,"regionId":"england_north_west","regionName":"North West England","regionEmoji":"🏙️","image":"https://images.unsplash.com/photo-1566733144086-fdd649fdaf22?ixid=M3w5NTU4NjF8MHwxfHNlYXJjaHwxfHxDb253eSUyMENhc3RsZSUyMFdhbGVzfGVufDF8MHx8fDE3ODMzMjIxNzN8MA&ixlib=rb-4.1.0&crop=entropy&cs=tinysrgb&fit=max&fm=jpg&q=80&w=1080"},{"placeId":"kendal","name":"Kendal","nameIt":"Kendal","type":"TOWN","lat":54.3268,"lng":-2.743,"regionId":"england_north_west","regionName":"North West England","regionEmoji":"🏙️","image":"https://images.unsplash.com/photo-1616251675875-a015c3249b18?ixid=M3w5NTU4NjF8MHwxfHNlYXJjaHwxfHxLZW5kYWwlMjBMYWtlJTIwRGlzdHJpY3QlMjB0b3dufGVufDF8MHx8fDE3ODMzMjIxNzV8MA&ixlib=rb-4.1.0&crop=entropy&cs=tinysrgb&fit=max&fm=jpg&q=80&w=1080"},{"placeId":"isle_of_man","name":"Isle of Man","nameIt":"Ellan Vannin","type":"ISLAND","lat":54.2361,"lng":-4.5481,"regionId":"england_north_west","regionName":"North West England","regionEmoji":"🏙️","image":"https://images.unsplash.com/photo-1648931856549-b6794ed7f9a2?ixid=M3w5NTU4NjF8MHwxfHNlYXJjaHwxfHxJc2xlJTIwb2YlMjBNYW4lMjBjbGlmZnMlMjBjb2FzdHxlbnwxfDB8fHwxNzgzMzIyMTc3fDA&ixlib=rb-4.1.0&crop=entropy&cs=tinysrgb&fit=max&fm=jpg&q=80&w=1080"},{"placeId":"bolton","name":"Bolton","nameIt":"Bolton","type":"TOWN","lat":53.5755,"lng":-2.4259,"regionId":"england_north_west","regionName":"North West England","regionEmoji":"🏙️"},{"placeId":"rydal_water","name":"Rydal Water","nameIt":"Rydal Water","type":"NATURE","lat":54.3841,"lng":-3.1002,"regionId":"england_north_west","regionName":"North West England","regionEmoji":"🏙️","image":"https://images.unsplash.com/photo-1611349438294-dc4728567fb2?ixid=M3w5NTU4NjF8MHwxfHNlYXJjaHwxfHxSeWRhbCUyMFdhdGVyJTIwbGFrZXxlbnwxfDB8fHwxNzgzMzIyMTgwfDA&ixlib=rb-4.1.0&crop=entropy&cs=tinysrgb&fit=max&fm=jpg&q=80&w=1080"},{"placeId":"anglesey","name":"Anglesey","nameIt":"Ynys Môn","type":"ISLAND","lat":53.2656,"lng":-4.1875,"regionId":"england_north_west","regionName":"North West England","regionEmoji":"🏙️","image":"https://images.unsplash.com/photo-1678038069861-83ae8064e493?ixid=M3w5NTU4NjF8MHwxfHNlYXJjaHwxfHxBbmdsZXNleSUyMFdhbGVzJTIwY29hc3R8ZW58MXwwfHx8MTc4MzMyMjE4Mnww&ixlib=rb-4.1.0&crop=entropy&cs=tinysrgb&fit=max&fm=jpg&q=80&w=1080"},{"placeId":"lake_district_national_park","name":"Lake District National Park","type":"PARK","lat":54.4609,"lng":-3.2506,"regionId":"england_north_west","regionName":"North West England","regionEmoji":"🏙️","image":"https://images.unsplash.com/photo-1609264799042-4530f0321797?ixid=M3w5NTU4NjF8MHwxfHNlYXJjaHwxfHxMYWtlJTIwRGlzdHJpY3QlMjBOYXRpb25hbCUyMFBhcmslMjBVbml0ZWQlMjBLaW5nZG9tfGVufDF8MHx8fDE3ODQwMjIwOTJ8MA&ixlib=rb-4.1.0&crop=entropy&cs=tinysrgb&fit=max&fm=jpg&q=80&w=1080"},{"placeId":"newcastle_upon_tyne","name":"Newcastle upon Tyne","nameIt":"Newcastle upon Tyne","type":"CITY","lat":54.9783,"lng":-1.6178,"regionId":"england_north_east","regionName":"North East England","regionEmoji":"⛓️","image":"https://images.unsplash.com/photo-1606840418226-6f7602e2aa07?ixid=M3w5NTU4NjF8MHwxfHNlYXJjaHwxfHxUeW5lJTIwQnJpZGdlJTIwTmV3Y2FzdGxlfGVufDF8MHx8fDE3ODMzMjUyNzd8MA&ixlib=rb-4.1.0&crop=entropy&cs=tinysrgb&fit=max&fm=jpg&q=80&w=1080"},{"placeId":"durham","name":"Durham","nameIt":"Durham","type":"CITY","lat":54.7753,"lng":-1.5743,"regionId":"england_north_east","regionName":"North East England","regionEmoji":"⛓️","image":"https://images.unsplash.com/photo-1699465923872-7694ba72ce58?ixid=M3w5NTU4NjF8MHwxfHNlYXJjaHwxfHxEdXJoYW0lMjBDYXRoZWRyYWx8ZW58MXwwfHx8MTc4MzMyNTI4MHww&ixlib=rb-4.1.0&crop=entropy&cs=tinysrgb&fit=max&fm=jpg&q=80&w=1080"},{"placeId":"hadrians_wall","name":"Hadrian's Wall","nameIt":"Hadrian's Wall","type":"LANDMARK","lat":54.99,"lng":-2.35,"regionId":"england_north_east","regionName":"North East England","regionEmoji":"⛓️","image":"https://images.unsplash.com/photo-1689343804583-a0715d6c875c?ixid=M3w5NTU4NjF8MHwxfHNlYXJjaHwxfHxIYWRyaWFucyUyMFdhbGx8ZW58MXwwfHx8MTc4MzMyNTI4Mnww&ixlib=rb-4.1.0&crop=entropy&cs=tinysrgb&fit=max&fm=jpg&q=80&w=1080"},{"placeId":"northumberland_coast","name":"Northumberland Coast","nameIt":"Northumberland Coast","type":"COASTAL","lat":55.5,"lng":-1.7,"regionId":"england_north_east","regionName":"North East England","regionEmoji":"⛓️","image":"https://images.unsplash.com/photo-1614599530811-232c8961f9dc?ixid=M3w5NTU4NjF8MHwxfHNlYXJjaHwxfHxCYW1idXJnaCUyMENhc3RsZSUyME5vcnRodW1iZXJsYW5kfGVufDF8MHx8fDE3ODMzMjUyODR8MA&ixlib=rb-4.1.0&crop=entropy&cs=tinysrgb&fit=max&fm=jpg&q=80&w=1080"},{"placeId":"lindisfarne_island","name":"Lindisfarne Island","nameIt":"Lindisfarne Island","type":"ISLAND","lat":55.6436,"lng":-1.8047,"regionId":"england_north_east","regionName":"North East England","regionEmoji":"⛓️","image":"https://images.unsplash.com/photo-1618866136133-9178b3775243?ixid=M3w5NTU4NjF8MHwxfHNlYXJjaHwxfHxMaW5kaXNmYXJuZSUyMElzbGFuZCUyMENhc3RsZXxlbnwxfDB8fHwxNzgzMzI1Mjg2fDA&ixlib=rb-4.1.0&crop=entropy&cs=tinysrgb&fit=max&fm=jpg&q=80&w=1080"},{"placeId":"beamish_museum","name":"Beamish Museum","nameIt":"Beamish Museum","type":"LANDMARK","lat":54.9642,"lng":-1.5303,"regionId":"england_north_east","regionName":"North East England","regionEmoji":"⛓️","image":"https://images.unsplash.com/photo-1717352490738-530ae8f5a5d4?ixid=M3w5NTU4NjF8MHwxfHNlYXJjaHwxfHxCZWFtaXNoJTIwTXVzZXVtfGVufDF8MHx8fDE3ODMzMjUyODh8MA&ixlib=rb-4.1.0&crop=entropy&cs=tinysrgb&fit=max&fm=jpg&q=80&w=1080"},{"placeId":"whitley_bay","name":"Whitley Bay","nameIt":"Whitley Bay","type":"COASTAL","lat":55.0403,"lng":-1.4089,"regionId":"england_north_east","regionName":"North East England","regionEmoji":"⛓️"},{"placeId":"bamburgh_castle","name":"Bamburgh Castle","nameIt":"Bamburgh Castle","type":"LANDMARK","lat":55.6078,"lng":-1.7094,"regionId":"england_north_east","regionName":"North East England","regionEmoji":"⛓️","image":"https://images.unsplash.com/photo-1596403891307-bf67b58233ff?ixid=M3w5NTU4NjF8MHwxfHNlYXJjaHwxfHxCYW1idXJnaCUyMENhc3RsZXxlbnwxfDB8fHwxNzgzMzI1MjkwfDA&ixlib=rb-4.1.0&crop=entropy&cs=tinysrgb&fit=max&fm=jpg&q=80&w=1080"},{"placeId":"farne_islands","name":"The Farne Islands","nameIt":"The Farne Islands","type":"ISLAND","lat":55.6333,"lng":-1.6333,"regionId":"england_north_east","regionName":"North East England","regionEmoji":"⛓️","image":"https://images.unsplash.com/photo-1723220397744-c81a5e1fbba5?ixid=M3w5NTU4NjF8MHwxfHNlYXJjaHwxfHxGYXJuZSUyMElzbGFuZHMlMjBwdWZmaW5zfGVufDF8MHx8fDE3ODMzMjUyOTJ8MA&ixlib=rb-4.1.0&crop=entropy&cs=tinysrgb&fit=max&fm=jpg&q=80&w=1080"},{"placeId":"tynemouth_priory","name":"Tynemouth Priory and Castle","nameIt":"Tynemouth Priory and Castle","type":"LANDMARK","lat":55.0186,"lng":-1.4214,"regionId":"england_north_east","regionName":"North East England","regionEmoji":"⛓️","image":"https://images.unsplash.com/photo-1669816901979-59009cc2022d?ixid=M3w5NTU4NjF8MHwxfHNlYXJjaHwxfHxUeW5lbW91dGglMjBQcmlvcnl8ZW58MXwwfHx8MTc4MzMyNTI5NHww&ixlib=rb-4.1.0&crop=entropy&cs=tinysrgb&fit=max&fm=jpg&q=80&w=1080"},{"placeId":"hexham","name":"Hexham","nameIt":"Hexham","type":"TOWN","lat":54.9631,"lng":-2.1019,"regionId":"england_north_east","regionName":"North East England","regionEmoji":"⛓️"},{"placeId":"kielder_water","name":"Kielder Water and Forest","nameIt":"Kielder Water and Forest","type":"NATURE","lat":54.85,"lng":-2.5,"regionId":"england_north_east","regionName":"North East England","regionEmoji":"⛓️","image":"https://images.unsplash.com/photo-1596568959200-bca410aadf27?ixid=M3w5NTU4NjF8MHwxfHNlYXJjaHwxfHxLaWVsZGVyJTIwV2F0ZXJ8ZW58MXwwfHx8MTc4MzMyNTI5N3ww&ixlib=rb-4.1.0&crop=entropy&cs=tinysrgb&fit=max&fm=jpg&q=80&w=1080"},{"placeId":"sunderland","name":"Sunderland","nameIt":"Sunderland","type":"CITY","lat":54.9053,"lng":-1.3853,"regionId":"england_north_east","regionName":"North East England","regionEmoji":"⛓️","image":"https://images.unsplash.com/photo-1658926942507-e7bfbd47fd4c?ixid=M3w5NTU4NjF8MHwxfHNlYXJjaHwxfHxTdW5kZXJsYW5kJTIwTmF0aW9uYWwlMjBHbGFzcyUyMENlbnRyZXxlbnwxfDB8fHwxNzgzMzI1Mjk4fDA&ixlib=rb-4.1.0&crop=entropy&cs=tinysrgb&fit=max&fm=jpg&q=80&w=1080"},{"placeId":"york","name":"York","nameIt":"York","type":"CITY","lat":53.9581,"lng":-1.0873,"regionId":"england_yorkshire","regionName":"Yorkshire","regionEmoji":"🐑","image":"https://images.unsplash.com/photo-1678889166899-bbbc06682b5e?ixid=M3w5NTU4NjF8MHwxfHNlYXJjaHwxfHxZb3JrJTIwTWluc3RlciUyMGNhdGhlZHJhbHxlbnwxfDB8fHwxNzgzMzI1MzExfDA&ixlib=rb-4.1.0&crop=entropy&cs=tinysrgb&fit=max&fm=jpg&q=80&w=1080"},{"placeId":"leeds","name":"Leeds","nameIt":"Leeds","type":"CITY","lat":53.8008,"lng":-1.5491,"regionId":"england_yorkshire","regionName":"Yorkshire","regionEmoji":"🐑"},{"placeId":"harrogate","name":"Harrogate","nameIt":"Harrogate","type":"TOWN","lat":55.8873,"lng":-1.5341,"regionId":"england_yorkshire","regionName":"Yorkshire","regionEmoji":"🐑","image":"https://images.unsplash.com/photo-1637714098811-b8d97645105c?ixid=M3w5NTU4NjF8MHwxfHNlYXJjaHwxfHxIYXJyb2dhdGUlMjBWYWxsZXklMjBHYXJkZW5zfGVufDF8MHx8fDE3ODMzMjUzMTR8MA&ixlib=rb-4.1.0&crop=entropy&cs=tinysrgb&fit=max&fm=jpg&q=80&w=1080"},{"placeId":"bolton_abbey","name":"Bolton Abbey","nameIt":"Bolton Abbey","type":"LANDMARK","lat":53.9939,"lng":-1.9378,"regionId":"england_yorkshire","regionName":"Yorkshire","regionEmoji":"🐑"},{"placeId":"whitby","name":"Whitby","nameIt":"Whitby","type":"COASTAL","lat":54.491,"lng":-0.6278,"regionId":"england_yorkshire","regionName":"Yorkshire","regionEmoji":"🐑","image":"https://images.unsplash.com/photo-1697535862270-24735d8d9b96?ixid=M3w5NTU4NjF8MHwxfHNlYXJjaHwxfHxXaGl0YnklMjBBYmJleSUyMGNsaWZmc3xlbnwxfDB8fHwxNzgzMzI1MzE2fDA&ixlib=rb-4.1.0&crop=entropy&cs=tinysrgb&fit=max&fm=jpg&q=80&w=1080"},{"placeId":"scarborough","name":"Scarborough","nameIt":"Scarborough","type":"COASTAL","lat":54.2797,"lng":-0.3916,"regionId":"england_yorkshire","regionName":"Yorkshire","regionEmoji":"🐑","image":"https://images.unsplash.com/photo-1774041430539-4352b676b9fd?ixid=M3w5NTU4NjF8MHwxfHNlYXJjaHwxfHxTY2FyYm9yb3VnaCUyMGJlYWNoJTIwc2Vhc2lkZSUyMHJlc29ydHxlbnwxfDB8fHwxNzgzMzI1MzE4fDA&ixlib=rb-4.1.0&crop=entropy&cs=tinysrgb&fit=max&fm=jpg&q=80&w=1080"},{"placeId":"haworth","name":"Haworth","nameIt":"Haworth","type":"VILLAGE","lat":53.8242,"lng":-2.034,"regionId":"england_yorkshire","regionName":"Yorkshire","regionEmoji":"🐑"},{"placeId":"fountains_abbey","name":"Fountains Abbey","nameIt":"Fountains Abbey","type":"LANDMARK","lat":54.1283,"lng":-1.6636,"regionId":"england_yorkshire","regionName":"Yorkshire","regionEmoji":"🐑","image":"https://images.unsplash.com/photo-1557217278-a378ba33eae6?ixid=M3w5NTU4NjF8MHwxfHNlYXJjaHwxfHxGb3VudGFpbnMlMjBBYmJleSUyMHJ1aW5zfGVufDF8MHx8fDE3ODMzMjUzMjF8MA&ixlib=rb-4.1.0&crop=entropy&cs=tinysrgb&fit=max&fm=jpg&q=80&w=1080"},{"placeId":"malham","name":"Malham","nameIt":"Malham","type":"VILLAGE","lat":54.0817,"lng":-2.1622,"regionId":"england_yorkshire","regionName":"Yorkshire","regionEmoji":"🐑","image":"https://images.unsplash.com/photo-1659893398508-a0ec46d9ea55?ixid=M3w5NTU4NjF8MHwxfHNlYXJjaHwxfHxNYWxoYW0lMjBDb3ZlJTIwbGltZXN0b25lfGVufDF8MHx8fDE3ODMzMjUzMjN8MA&ixlib=rb-4.1.0&crop=entropy&cs=tinysrgb&fit=max&fm=jpg&q=80&w=1080"},{"placeId":"hebden_bridge","name":"Hebden Bridge","nameIt":"Hebden Bridge","type":"TOWN","lat":53.7442,"lng":-2.0226,"regionId":"england_yorkshire","regionName":"Yorkshire","regionEmoji":"🐑"},{"placeId":"skipton","name":"Skipton","nameIt":"Skipton","type":"TOWN","lat":54.0068,"lng":-2.0235,"regionId":"england_yorkshire","regionName":"Yorkshire","regionEmoji":"🐑","image":"https://images.unsplash.com/photo-1581404868392-9af57f748244?ixid=M3w5NTU4NjF8MHwxfHNlYXJjaHwxfHxTa2lwdG9uJTIwQ2FzdGxlJTIwbWVkaWV2YWx8ZW58MXwwfHx8MTc4MzMyNTMyNnww&ixlib=rb-4.1.0&crop=entropy&cs=tinysrgb&fit=max&fm=jpg&q=80&w=1080"},{"placeId":"knaresborough","name":"Knaresborough","nameIt":"Knaresborough","type":"TOWN","lat":54.0062,"lng":-1.4656,"regionId":"england_yorkshire","regionName":"Yorkshire","regionEmoji":"🐑","image":"https://images.unsplash.com/photo-1776012645810-c91885b4845a?ixid=M3w5NTU4NjF8MHwxfHNlYXJjaHwxfHxLbmFyZXNib3JvdWdoJTIwQ2FzdGxlJTIwUml2ZXIlMjBOaWRkfGVufDF8MHx8fDE3ODMzMjUzMjd8MA&ixlib=rb-4.1.0&crop=entropy&cs=tinysrgb&fit=max&fm=jpg&q=80&w=1080"},{"placeId":"ilkley","name":"Ilkley","nameIt":"Ilkley","type":"TOWN","lat":53.9205,"lng":-1.8302,"regionId":"england_yorkshire","regionName":"Yorkshire","regionEmoji":"🐑","image":"https://images.unsplash.com/photo-1505400988777-f8ba373dbab6?ixid=M3w5NTU4NjF8MHwxfHNlYXJjaHwxfHxJbGtsZXklMjBNb29yJTIwbGFuZHNjYXBlfGVufDF8MHx8fDE3ODMzMjUzMjl8MA&ixlib=rb-4.1.0&crop=entropy&cs=tinysrgb&fit=max&fm=jpg&q=80&w=1080"},{"placeId":"helmsley","name":"Helmsley","nameIt":"Helmsley","type":"TOWN","lat":54.2306,"lng":-0.6367,"regionId":"england_yorkshire","regionName":"Yorkshire","regionEmoji":"🐑"},{"placeId":"grassington","name":"Grassington","nameIt":"Grassington","type":"VILLAGE","lat":54.0355,"lng":-1.9945,"regionId":"england_yorkshire","regionName":"Yorkshire","regionEmoji":"🐑"},{"placeId":"edinburgh","name":"Edinburgh","nameIt":"Edinburgh","type":"CITY","lat":55.9533,"lng":-3.1883,"regionId":"scotland_lowlands","regionName":"Scottish Lowlands","regionEmoji":"🏰","image":"https://images.unsplash.com/photo-1506377585622-bedcbb027afc?ixid=M3w5NTU4NjF8MHwxfHNlYXJjaHwxfHxFZGluYnVyZ2glMjBDYXN0bGUlMjBjaXR5c2NhcGUlMjBzdW5zZXR8ZW58MXwwfHx8MTc4MzMyNTM0Nnww&ixlib=rb-4.1.0&crop=entropy&cs=tinysrgb&fit=max&fm=jpg&q=80&w=1080"},{"placeId":"glasgow","name":"Glasgow","nameIt":"Glasgow","type":"CITY","lat":55.8642,"lng":-4.2518,"regionId":"scotland_lowlands","regionName":"Scottish Lowlands","regionEmoji":"🏰","image":"https://images.unsplash.com/photo-1637416160967-a23291ce550d?ixid=M3w5NTU4NjF8MHwxfHNlYXJjaHwxfHxHbGFzZ293JTIwQ2l0eSUyMENoYW1iZXJzJTIwYXJjaGl0ZWN0dXJlfGVufDF8MHx8fDE3ODMzMjUzNDh8MA&ixlib=rb-4.1.0&crop=entropy&cs=tinysrgb&fit=max&fm=jpg&q=80&w=1080"},{"placeId":"melrose","name":"Melrose","nameIt":"Melrose","type":"TOWN","lat":55.5933,"lng":-2.7267,"regionId":"scotland_lowlands","regionName":"Scottish Lowlands","regionEmoji":"🏰","image":"https://images.unsplash.com/photo-1640621203068-acb9c8687839?ixid=M3w5NTU4NjF8MHwxfHNlYXJjaHwxfHxNZWxyb3NlJTIwQWJiZXklMjBydWlucyUyMFNjb3R0aXNoJTIwQm9yZGVyc3xlbnwxfDB8fHwxNzgzMzI1MzUxfDA&ixlib=rb-4.1.0&crop=entropy&cs=tinysrgb&fit=max&fm=jpg&q=80&w=1080"},{"placeId":"dumfries","name":"Dumfries","nameIt":"Dumfries","type":"TOWN","lat":55.0764,"lng":-3.614,"regionId":"scotland_lowlands","regionName":"Scottish Lowlands","regionEmoji":"🏰"},{"placeId":"peebles","name":"Peebles","nameIt":"Peebles","type":"TOWN","lat":55.6408,"lng":-3.1817,"regionId":"scotland_lowlands","regionName":"Scottish Lowlands","regionEmoji":"🏰","image":"https://images.unsplash.com/photo-1781998548263-c5212d7c6cba?ixid=M3w5NTU4NjF8MHwxfHNlYXJjaHwxfHxQZWVibGVzJTIwU2NvdHRpc2glMjBCb3JkZXJzJTIwcml2ZXJzaWRlfGVufDF8MHx8fDE3ODMzMjUzNTR8MA&ixlib=rb-4.1.0&crop=entropy&cs=tinysrgb&fit=max&fm=jpg&q=80&w=1080"},{"placeId":"linlithgow","name":"Linlithgow","nameIt":"Linlithgow","type":"TOWN","lat":55.9774,"lng":-3.5049,"regionId":"scotland_lowlands","regionName":"Scottish Lowlands","regionEmoji":"🏰"},{"placeId":"jedburgh","name":"Jedburgh","nameIt":"Jedburgh","type":"TOWN","lat":55.4831,"lng":-2.5573,"regionId":"scotland_lowlands","regionName":"Scottish Lowlands","regionEmoji":"🏰"},{"placeId":"kelso","name":"Kelso","nameIt":"Kelso","type":"TOWN","lat":55.4602,"lng":-2.4176,"regionId":"scotland_lowlands","regionName":"Scottish Lowlands","regionEmoji":"🏰"},{"placeId":"galashiels","name":"Galashiels","nameIt":"Galashiels","type":"TOWN","lat":55.6149,"lng":-2.7933,"regionId":"scotland_lowlands","regionName":"Scottish Lowlands","regionEmoji":"🏰","image":"https://images.unsplash.com/photo-1605558162119-2de4d9ff8130?ixid=M3w5NTU4NjF8MHwxfHNlYXJjaHwxfHxHYWxhc2hpZWxzJTIwQm9yZGVycyUyMFNjb3RsYW5kJTIwdG93bnxlbnwxfDB8fHwxNzgzMzI1MzU5fDA&ixlib=rb-4.1.0&crop=entropy&cs=tinysrgb&fit=max&fm=jpg&q=80&w=1080"},{"placeId":"north_berwick","name":"North Berwick","nameIt":"North Berwick","type":"COASTAL","lat":56.061,"lng":-2.725,"regionId":"scotland_lowlands","regionName":"Scottish Lowlands","regionEmoji":"🏰","image":"https://images.unsplash.com/photo-1601025076209-77c103341ebe?ixid=M3w5NTU4NjF8MHwxfHNlYXJjaHwxfHxOb3J0aCUyMEJlcndpY2slMjBCYXNzJTIwUm9jayUyMGxpZ2h0aG91c2V8ZW58MXwwfHx8MTc4MzMyNTM2M3ww&ixlib=rb-4.1.0&crop=entropy&cs=tinysrgb&fit=max&fm=jpg&q=80&w=1080"},{"placeId":"coldstream","name":"Coldstream","nameIt":"Coldstream","type":"TOWN","lat":55.3933,"lng":-2.245,"regionId":"scotland_lowlands","regionName":"Scottish Lowlands","regionEmoji":"🏰","image":"https://images.unsplash.com/photo-1698068725761-30bd9168af1c?ixid=M3w5NTU4NjF8MHwxfHNlYXJjaHwxfHxDb2xkc3RyZWFtJTIwYnJpZGdlJTIwUml2ZXIlMjBUd2VlZHxlbnwxfDB8fHwxNzgzMzI1MzY1fDA&ixlib=rb-4.1.0&crop=entropy&cs=tinysrgb&fit=max&fm=jpg&q=80&w=1080"},{"placeId":"stirling","name":"Stirling","nameIt":"Stirling","type":"TOWN","lat":56.1243,"lng":-3.9369,"regionId":"scotland_central","regionName":"Scottish Central Belt","regionEmoji":"🎨","image":"https://images.unsplash.com/photo-1694086561592-a3ce983275ca?ixid=M3w5NTU4NjF8MHwxfHNlYXJjaHwxfHxTdGlybGluZyUyMENhc3RsZSUyMFNjb3RsYW5kfGVufDF8MHx8fDE3ODMzMjUzODR8MA&ixlib=rb-4.1.0&crop=entropy&cs=tinysrgb&fit=max&fm=jpg&q=80&w=1080"},{"placeId":"perth","name":"Perth","nameIt":"Perth","type":"TOWN","lat":56.3975,"lng":-3.401,"regionId":"scotland_central","regionName":"Scottish Central Belt","regionEmoji":"🎨","image":"https://images.unsplash.com/photo-1581095664605-ef68bfde1867?ixid=M3w5NTU4NjF8MHwxfHNlYXJjaHwxfHxQZXJ0aCUyMFNjb3RsYW5kJTIwUml2ZXIlMjBUYXl8ZW58MXwwfHx8MTc4MzMyNTM4Nnww&ixlib=rb-4.1.0&crop=entropy&cs=tinysrgb&fit=max&fm=jpg&q=80&w=1080"},{"placeId":"dunfermline","name":"Dunfermline","nameIt":"Dunfermline","type":"TOWN","lat":56.0652,"lng":-3.4505,"regionId":"scotland_central","regionName":"Scottish Central Belt","regionEmoji":"🎨"},{"placeId":"falkirk","name":"Falkirk","nameIt":"Falkirk","type":"TOWN","lat":56.0015,"lng":-3.7842,"regionId":"scotland_central","regionName":"Scottish Central Belt","regionEmoji":"🎨","image":"https://images.unsplash.com/photo-1675337301432-77c62d4399da?ixid=M3w5NTU4NjF8MHwxfHNlYXJjaHwxfHxGYWxraXJrJTIwV2hlZWwlMjBib2F0JTIwbGlmdHxlbnwxfDB8fHwxNzgzMzI1Mzg4fDA&ixlib=rb-4.1.0&crop=entropy&cs=tinysrgb&fit=max&fm=jpg&q=80&w=1080"},{"placeId":"aberdeen","name":"Aberdeen","nameIt":"Aberdeen","type":"CITY","lat":57.1497,"lng":-2.0979,"regionId":"scotland_central","regionName":"Scottish Central Belt","regionEmoji":"🎨","image":"https://images.unsplash.com/photo-1684682997854-4444ce4a0b9c?ixid=M3w5NTU4NjF8MHwxfHNlYXJjaHwxfHxBYmVyZGVlbiUyMGdyYW5pdGUlMjBhcmNoaXRlY3R1cmV8ZW58MXwwfHx8MTc4MzMyNTM5Mnww&ixlib=rb-4.1.0&crop=entropy&cs=tinysrgb&fit=max&fm=jpg&q=80&w=1080"},{"placeId":"blackness","name":"Blackness","nameIt":"Blackness","type":"VILLAGE","lat":56.0069,"lng":-3.5014,"regionId":"scotland_central","regionName":"Scottish Central Belt","regionEmoji":"🎨","image":"https://images.unsplash.com/photo-1628946578676-e1ee0a952c35?ixid=M3w5NTU4NjF8MHwxfHNlYXJjaHwxfHxCbGFja25lc3MlMjBDYXN0bGUlMjBTY290bGFuZHxlbnwxfDB8fHwxNzgzMzMwMDU5fDA&ixlib=rb-4.1.0&crop=entropy&cs=tinysrgb&fit=max&fm=jpg&q=80&w=1080"},{"placeId":"culross","name":"Culross","nameIt":"Culross","type":"VILLAGE","lat":56.0629,"lng":-3.5923,"regionId":"scotland_central","regionName":"Scottish Central Belt","regionEmoji":"🎨"},{"placeId":"balquhidder","name":"Balquhidder","nameIt":"Balquhidder","type":"VILLAGE","lat":56.3833,"lng":-4.5333,"regionId":"scotland_central","regionName":"Scottish Central Belt","regionEmoji":"🎨","image":"https://images.unsplash.com/photo-1563908865396-d51d56bfc94c?ixid=M3w5NTU4NjF8MHwxfHNlYXJjaHwxfHxCYWxxdWhpZGRlciUyMExvY2glMjBWb2lsJTIwU2NvdGxhbmR8ZW58MXwwfHx8MTc4MzMzMDA2Mnww&ixlib=rb-4.1.0&crop=entropy&cs=tinysrgb&fit=max&fm=jpg&q=80&w=1080"},{"placeId":"stirling_bridge","name":"Bridge of Allan","nameIt":"Bridge of Allan","type":"TOWN","lat":56.1667,"lng":-3.9833,"regionId":"scotland_central","regionName":"Scottish Central Belt","regionEmoji":"🎨"},{"placeId":"clackmannan","name":"Clackmannan","nameIt":"Clackmannan","type":"TOWN","lat":56.05,"lng":-3.7333,"regionId":"scotland_central","regionName":"Scottish Central Belt","regionEmoji":"🎨"},{"placeId":"loch_ness","name":"Loch Ness","nameIt":"Loch Nis","type":"NATURE","lat":57.3268,"lng":-4.4757,"regionId":"scotland_highlands","regionName":"Scottish Highlands","regionEmoji":"⛰️","image":"https://images.unsplash.com/photo-1607602274619-4503f0c2444c?ixid=M3w5NTU4NjF8MHwxfHNlYXJjaHwxfHxMb2NoJTIwTmVzcyUyMFNjb3RsYW5kfGVufDF8MHx8fDE3ODMzMzAxMjV8MA&ixlib=rb-4.1.0&crop=entropy&cs=tinysrgb&fit=max&fm=jpg&q=80&w=1080"},{"placeId":"inverness","name":"Inverness","nameIt":"Inbhir Nis","type":"CITY","lat":57.4778,"lng":-4.2247,"regionId":"scotland_highlands","regionName":"Scottish Highlands","regionEmoji":"⛰️","image":"https://images.unsplash.com/photo-1589489873423-d1745278a8f4?ixid=M3w5NTU4NjF8MHwxfHNlYXJjaHwxfHxJbnZlcm5lc3MlMjBDYXN0bGUlMjBTY290bGFuZHxlbnwxfDB8fHwxNzgzMzMwMTI3fDA&ixlib=rb-4.1.0&crop=entropy&cs=tinysrgb&fit=max&fm=jpg&q=80&w=1080"},{"placeId":"ben_nevis","name":"Ben Nevis","nameIt":"Beinn Nibheis","type":"LANDMARK","lat":56.7967,"lng":-5.0036,"regionId":"scotland_highlands","regionName":"Scottish Highlands","regionEmoji":"⛰️","image":"https://images.unsplash.com/photo-1597202496047-8af47ddf05da?ixid=M3w5NTU4NjF8MHwxfHNlYXJjaHwxfHxCZW4lMjBOZXZpcyUyMG1vdW50YWluJTIwU2NvdGxhbmR8ZW58MXwwfHx8MTc4MzMzMDEyOXww&ixlib=rb-4.1.0&crop=entropy&cs=tinysrgb&fit=max&fm=jpg&q=80&w=1080"},{"placeId":"glencoe","name":"Glencoe","nameIt":"Gleann Comhann","type":"NATURE","lat":56.6743,"lng":-5.1114,"regionId":"scotland_highlands","regionName":"Scottish Highlands","regionEmoji":"⛰️","image":"https://images.unsplash.com/photo-1574428512652-01ca1eb6f1ed?ixid=M3w5NTU4NjF8MHwxfHNlYXJjaHwxfHxHbGVuY29lJTIwU2NvdGxhbmQlMjB2YWxsZXl8ZW58MXwwfHx8MTc4MzMzMDEzMXww&ixlib=rb-4.1.0&crop=entropy&cs=tinysrgb&fit=max&fm=jpg&q=80&w=1080"},{"placeId":"fort_william","name":"Fort William","nameIt":"An Gearasdan","type":"TOWN","lat":56.8269,"lng":-5.1075,"regionId":"scotland_highlands","regionName":"Scottish Highlands","regionEmoji":"⛰️","image":"https://images.unsplash.com/photo-1542496243-859b80fa3a02?ixid=M3w5NTU4NjF8MHwxfHNlYXJjaHwxfHxGb3J0JTIwV2lsbGlhbSUyMFNjb3RsYW5kfGVufDF8MHx8fDE3ODMzMzAxMzN8MA&ixlib=rb-4.1.0&crop=entropy&cs=tinysrgb&fit=max&fm=jpg&q=80&w=1080"},{"placeId":"isle_of_skye","name":"Isle of Skye","nameIt":"An t-Eilean Sgitheanach","type":"ISLAND","lat":57.517,"lng":-6.205,"regionId":"scotland_highlands","regionName":"Scottish Highlands","regionEmoji":"⛰️","image":"https://images.unsplash.com/photo-1546706872-9c90b8d0c94f?ixid=M3w5NTU4NjF8MHwxfHNlYXJjaHwxfHxJc2xlJTIwb2YlMjBTa3llJTIwU2NvdGxhbmR8ZW58MXwwfHx8MTc4MzMzMDEzNXww&ixlib=rb-4.1.0&crop=entropy&cs=tinysrgb&fit=max&fm=jpg&q=80&w=1080"},{"placeId":"culloden","name":"Culloden Battlefield","nameIt":"Blàr Chùil Lodair","type":"LANDMARK","lat":57.4805,"lng":-4.096,"regionId":"scotland_highlands","regionName":"Scottish Highlands","regionEmoji":"⛰️","image":"https://images.unsplash.com/photo-1672873292677-d9cd75700e7c?ixid=M3w5NTU4NjF8MHwxfHNlYXJjaHwxfHxDdWxsb2RlbiUyMEJhdHRsZWZpZWxkJTIwU2NvdGxhbmR8ZW58MXwwfHx8MTc4MzMzMDEzOXww&ixlib=rb-4.1.0&crop=entropy&cs=tinysrgb&fit=max&fm=jpg&q=80&w=1080"},{"placeId":"loch_lomond","name":"Loch Lomond","nameIt":"Loch Laomainn","type":"NATURE","lat":56.0977,"lng":-4.5781,"regionId":"scotland_highlands","regionName":"Scottish Highlands","regionEmoji":"⛰️","image":"https://images.unsplash.com/photo-1607602274619-4503f0c2444c?ixid=M3w5NTU4NjF8MHwxfHNlYXJjaHwxfHxMb2NoJTIwTG9tb25kJTIwU2NvdGxhbmR8ZW58MXwwfHx8MTc4MzMzMDE0MXww&ixlib=rb-4.1.0&crop=entropy&cs=tinysrgb&fit=max&fm=jpg&q=80&w=1080"},{"placeId":"glencoe_village","name":"Glencoe Village","nameIt":"Baile Ghlinne Comhann","type":"VILLAGE","lat":56.6614,"lng":-5.1028,"regionId":"scotland_highlands","regionName":"Scottish Highlands","regionEmoji":"⛰️","image":"https://images.unsplash.com/photo-1574428512652-01ca1eb6f1ed?ixid=M3w5NTU4NjF8MHwxfHNlYXJjaHwxfHxHbGVuY29lJTIwdmlsbGFnZSUyMFNjb3RsYW5kfGVufDF8MHx8fDE3ODMzMzAxNDN8MA&ixlib=rb-4.1.0&crop=entropy&cs=tinysrgb&fit=max&fm=jpg&q=80&w=1080"},{"placeId":"pitlochry","name":"Pitlochry","nameIt":"Baile Bhraghad","type":"TOWN","lat":56.9491,"lng":-3.7229,"regionId":"scotland_highlands","regionName":"Scottish Highlands","regionEmoji":"⛰️"},{"placeId":"neist_point","name":"Neist Point","nameIt":"Rubha an Nist","type":"COASTAL","lat":57.4488,"lng":-6.7872,"regionId":"scotland_highlands","regionName":"Scottish Highlands","regionEmoji":"⛰️","image":"https://images.unsplash.com/photo-1569172447374-beb23e476628?ixid=M3w5NTU4NjF8MHwxfHNlYXJjaHwxfHxOZWlzdCUyMFBvaW50JTIwU2t5ZSUyMGxpZ2h0aG91c2V8ZW58MXwwfHx8MTc4MzMzMDE0Nnww&ixlib=rb-4.1.0&crop=entropy&cs=tinysrgb&fit=max&fm=jpg&q=80&w=1080"},{"placeId":"urquhart_castle","name":"Urquhart Castle","nameIt":"Caisteal Eachdraidh","type":"LANDMARK","lat":57.339,"lng":-4.4332,"regionId":"scotland_highlands","regionName":"Scottish Highlands","regionEmoji":"⛰️","image":"https://images.unsplash.com/photo-1694086130237-288936c29495?ixid=M3w5NTU4NjF8MHwxfHNlYXJjaHwxfHxVcnF1aGFydCUyMENhc3RsZSUyMExvY2glMjBOZXNzfGVufDF8MHx8fDE3ODMzMzAxNTB8MA&ixlib=rb-4.1.0&crop=entropy&cs=tinysrgb&fit=max&fm=jpg&q=80&w=1080"},{"placeId":"portree","name":"Portree","nameIt":"Port Rìgh","type":"TOWN","lat":57.513,"lng":-6.187,"regionId":"scotland_islands","regionName":"Scottish Islands","regionEmoji":"🏝️","image":"https://images.unsplash.com/photo-1611139227716-82a55a94666d?ixid=M3w5NTU4NjF8MHwxfHNlYXJjaHwxfHxQb3J0cmVlJTIwaGFyYm91ciUyMGNvbG91cmVkJTIwaG91c2VzfGVufDF8MHx8fDE3ODMzMzAxNjV8MA&ixlib=rb-4.1.0&crop=entropy&cs=tinysrgb&fit=max&fm=jpg&q=80&w=1080"},{"placeId":"old_man_of_storr","name":"Old Man of Storr","nameIt":"Bodach an Storr","type":"LANDMARK","lat":57.507,"lng":-6.167,"regionId":"scotland_islands","regionName":"Scottish Islands","regionEmoji":"🏝️","image":"https://images.unsplash.com/photo-1769021045410-05293bd55adc?ixid=M3w5NTU4NjF8MHwxfHNlYXJjaHwxfHxPbGQlMjBNYW4lMjBvZiUyMFN0b3JyJTIwcm9jayUyMGZvcm1hdGlvbnxlbnwxfDB8fHwxNzgzMzMwMTY3fDA&ixlib=rb-4.1.0&crop=entropy&cs=tinysrgb&fit=max&fm=jpg&q=80&w=1080"},{"placeId":"quiraing","name":"The Quiraing","nameIt":"An Curacag","type":"NATURE","lat":57.554,"lng":-6.264,"regionId":"scotland_islands","regionName":"Scottish Islands","regionEmoji":"🏝️","image":"https://images.unsplash.com/photo-1557652696-0fd8a35b0d62?ixid=M3w5NTU4NjF8MHwxfHNlYXJjaHwxfHxUaGUlMjBRdWlyYWluZyUyMFNreWUlMjBoaWtpbmd8ZW58MXwwfHx8MTc4MzMzMDE3MHww&ixlib=rb-4.1.0&crop=entropy&cs=tinysrgb&fit=max&fm=jpg&q=80&w=1080"},{"placeId":"dunvegan_castle","name":"Dunvegan Castle","nameIt":"Caisteal Dhùn Bheagain","type":"LANDMARK","lat":57.628,"lng":-6.566,"regionId":"scotland_islands","regionName":"Scottish Islands","regionEmoji":"🏝️","image":"https://images.unsplash.com/photo-1706729959519-fa965c48c0d1?ixid=M3w5NTU4NjF8MHwxfHNlYXJjaHwxfHxEdW52ZWdhbiUyMENhc3RsZSUyMFNreWV8ZW58MXwwfHx8MTc4MzMzMDE3MXww&ixlib=rb-4.1.0&crop=entropy&cs=tinysrgb&fit=max&fm=jpg&q=80&w=1080"},{"placeId":"fairy_pools","name":"Fairy Pools","nameIt":"Linne nan Sìthichean","type":"NATURE","lat":57.451,"lng":-6.397,"regionId":"scotland_islands","regionName":"Scottish Islands","regionEmoji":"🏝️","image":"https://images.unsplash.com/photo-1658351780236-669c83593431?ixid=M3w5NTU4NjF8MHwxfHNlYXJjaHwxfHxGYWlyeSUyMFBvb2xzJTIwR2xlbiUyMEJyaXR0bGV8ZW58MXwwfHx8MTc4MzMzMDE3NHww&ixlib=rb-4.1.0&crop=entropy&cs=tinysrgb&fit=max&fm=jpg&q=80&w=1080"},{"placeId":"isle_of_mull","name":"Isle of Mull","nameIt":"An t-Eilean Eile","type":"ISLAND","lat":56.5,"lng":-6,"regionId":"scotland_islands","regionName":"Scottish Islands","regionEmoji":"🏝️","image":"https://images.unsplash.com/photo-1575234357675-8ca749a35dd3?ixid=M3w5NTU4NjF8MHwxfHNlYXJjaHwxfHxJc2xlJTIwb2YlMjBNdWxsJTIwbGFuZHNjYXBlfGVufDF8MHx8fDE3ODMzMzAxNzZ8MA&ixlib=rb-4.1.0&crop=entropy&cs=tinysrgb&fit=max&fm=jpg&q=80&w=1080"},{"placeId":"tobermory","name":"Tobermory","nameIt":"Tobar Mhoire","type":"TOWN","lat":56.622,"lng":-6.073,"regionId":"scotland_islands","regionName":"Scottish Islands","regionEmoji":"🏝️","image":"https://images.unsplash.com/photo-1611139227716-82a55a94666d?ixid=M3w5NTU4NjF8MHwxfHNlYXJjaHwxfHxUb2Jlcm1vcnklMjBjb2xvdXJlZCUyMGhvdXNlc3xlbnwxfDB8fHwxNzgzMzMwMTc4fDA&ixlib=rb-4.1.0&crop=entropy&cs=tinysrgb&fit=max&fm=jpg&q=80&w=1080"},{"placeId":"iona","name":"Isle of Iona","nameIt":"I Chaluim Chille","type":"ISLAND","lat":56.333,"lng":-6.421,"regionId":"scotland_islands","regionName":"Scottish Islands","regionEmoji":"🏝️","image":"https://images.unsplash.com/photo-1643212377366-b5100b07bb4d?ixid=M3w5NTU4NjF8MHwxfHNlYXJjaHwxfHxJb25hJTIwQWJiZXklMjBTY290bGFuZHxlbnwxfDB8fHwxNzgzMzMwMTgwfDA&ixlib=rb-4.1.0&crop=entropy&cs=tinysrgb&fit=max&fm=jpg&q=80&w=1080"},{"placeId":"orkney_islands","name":"Orkney Islands","nameIt":"Arcaibh","type":"ISLAND","lat":59,"lng":-3,"regionId":"scotland_islands","regionName":"Scottish Islands","regionEmoji":"🏝️","image":"https://images.unsplash.com/photo-1600890733633-3adeda8b69d4?ixid=M3w5NTU4NjF8MHwxfHNlYXJjaHwxfHxPcmtuZXklMjBJc2xhbmRzJTIwbGFuZHNjYXBlfGVufDF8MHx8fDE3ODMzMzAxODF8MA&ixlib=rb-4.1.0&crop=entropy&cs=tinysrgb&fit=max&fm=jpg&q=80&w=1080"},{"placeId":"kirkwall","name":"Kirkwall","nameIt":"Kirkwall","type":"TOWN","lat":59.108,"lng":-2.958,"regionId":"scotland_islands","regionName":"Scottish Islands","regionEmoji":"🏝️"},{"placeId":"ring_of_brodgar","name":"Ring of Brodgar","nameIt":"Ring of Brodgar","type":"LANDMARK","lat":59.066,"lng":-3.159,"regionId":"scotland_islands","regionName":"Scottish Islands","regionEmoji":"🏝️","image":"https://images.unsplash.com/photo-1710346267536-e26f6bd95aaf?ixid=M3w5NTU4NjF8MHwxfHNlYXJjaHwxfHxSaW5nJTIwb2YlMjBCcm9kZ2FyJTIwc3RvbmVzfGVufDF8MHx8fDE3ODMzMzAxODV8MA&ixlib=rb-4.1.0&crop=entropy&cs=tinysrgb&fit=max&fm=jpg&q=80&w=1080"},{"placeId":"skara_brae","name":"Skara Brae","nameIt":"Skara Brae","type":"LANDMARK","lat":59.041,"lng":-3.259,"regionId":"scotland_islands","regionName":"Scottish Islands","regionEmoji":"🏝️","image":"https://images.unsplash.com/photo-1626707472173-9316cbfd360a?ixid=M3w5NTU4NjF8MHwxfHNlYXJjaHwxfHxTa2FyYSUyMEJyYWUlMjBPcmtuZXklMjBhbmNpZW50fGVufDF8MHx8fDE3ODMzMzAxODd8MA&ixlib=rb-4.1.0&crop=entropy&cs=tinysrgb&fit=max&fm=jpg&q=80&w=1080"},{"placeId":"outer_hebrides","name":"Outer Hebrides","nameIt":"Na h-Eileanan Siar","type":"ISLAND","lat":57.9,"lng":-7,"regionId":"scotland_islands","regionName":"Scottish Islands","regionEmoji":"🏝️","image":"https://images.unsplash.com/photo-1570545897000-bf55117f41fa?ixid=M3w5NTU4NjF8MHwxfHNlYXJjaHwxfHxPdXRlciUyMEhlYnJpZGVzJTIwYmVhY2h8ZW58MXwwfHx8MTc4MzMzMDE4OXww&ixlib=rb-4.1.0&crop=entropy&cs=tinysrgb&fit=max&fm=jpg&q=80&w=1080"},{"placeId":"stornoway","name":"Stornoway","nameIt":"Steòrnabhagh","type":"TOWN","lat":58.208,"lng":-6.391,"regionId":"scotland_islands","regionName":"Scottish Islands","regionEmoji":"🏝️","image":"https://images.unsplash.com/photo-1573931440451-79127e83416e?ixid=M3w5NTU4NjF8MHwxfHNlYXJjaHwxfHxTdG9ybm93YXklMjBoYXJib3VyJTIwTGV3aXN8ZW58MXwwfHx8MTc4MzMzMDE5MXww&ixlib=rb-4.1.0&crop=entropy&cs=tinysrgb&fit=max&fm=jpg&q=80&w=1080"},{"placeId":"caernarfon_castle","name":"Caernarfon Castle","nameIt":"Castell Caernarfon","type":"LANDMARK","lat":53.1424,"lng":-4.2747,"regionId":"wales_north","regionName":"North Wales","regionEmoji":"🏔️","image":"https://images.unsplash.com/photo-1566733144086-fdd649fdaf22?ixid=M3w5NTU4NjF8MHwxfHNlYXJjaHwxfHxDYWVybmFyZm9uJTIwQ2FzdGxlJTIwV2FsZXN8ZW58MXwwfHx8MTc4MzMzMDIwNHww&ixlib=rb-4.1.0&crop=entropy&cs=tinysrgb&fit=max&fm=jpg&q=80&w=1080"},{"placeId":"snowdonia_national_park","name":"Snowdonia National Park","nameIt":"Parc Cenedlaethol Eryri","type":"NATURE","lat":53.0687,"lng":-3.9281,"regionId":"wales_north","regionName":"North Wales","regionEmoji":"🏔️","image":"https://images.unsplash.com/photo-1486576123198-d6afd2782a0a?ixid=M3w5NTU4NjF8MHwxfHNlYXJjaHwxfHxTbm93ZG9uaWElMjBtb3VudGFpbnMlMjBXYWxlc3xlbnwxfDB8fHwxNzgzMzMwMjA2fDA&ixlib=rb-4.1.0&crop=entropy&cs=tinysrgb&fit=max&fm=jpg&q=80&w=1080"},{"placeId":"bangor","name":"Bangor","nameIt":"Bangor","type":"CITY","lat":53.2281,"lng":-4.1274,"regionId":"wales_north","regionName":"North Wales","regionEmoji":"🏔️"},{"placeId":"conwy_castle","name":"Conwy Castle","nameIt":"Castell Conwy","type":"LANDMARK","lat":53.2074,"lng":-3.8272,"regionId":"wales_north","regionName":"North Wales","regionEmoji":"🏔️","image":"https://images.unsplash.com/photo-1566733144086-fdd649fdaf22?ixid=M3w5NTU4NjF8MHwxfHNlYXJjaHwxfHxDb253eSUyMENhc3RsZSUyMFdhbGVzfGVufDF8MHx8fDE3ODMzMjIxNzN8MA&ixlib=rb-4.1.0&crop=entropy&cs=tinysrgb&fit=max&fm=jpg&q=80&w=1080"},{"placeId":"llandudno","name":"Llandudno","nameIt":"Llandudno","type":"COASTAL","lat":53.3256,"lng":-3.8262,"regionId":"wales_north","regionName":"North Wales","regionEmoji":"🏔️","image":"https://images.unsplash.com/photo-1695289260937-9ad60b5c8730?ixid=M3w5NTU4NjF8MHwxfHNlYXJjaHwxfHxMbGFuZHVkbm8lMjBwaWVyJTIwV2FsZXN8ZW58MXwwfHx8MTc4MzMzMDIxMXww&ixlib=rb-4.1.0&crop=entropy&cs=tinysrgb&fit=max&fm=jpg&q=80&w=1080"},{"placeId":"betws_y_coed","name":"Betws-y-Coed","nameIt":"Betws-y-Coed","type":"VILLAGE","lat":53.0987,"lng":-3.7987,"regionId":"wales_north","regionName":"North Wales","regionEmoji":"🏔️","image":"https://images.unsplash.com/photo-1494645009625-cc17363a5f20?ixid=M3w5NTU4NjF8MHwxfHNlYXJjaHwxfHxCZXR3cy15LUNvZWQlMjB3YXRlcmZhbGx8ZW58MXwwfHx8MTc4MzMzMDIxNHww&ixlib=rb-4.1.0&crop=entropy&cs=tinysrgb&fit=max&fm=jpg&q=80&w=1080"},{"placeId":"beaumaris_castle","name":"Beaumaris Castle","nameIt":"Castell Biwmares","type":"LANDMARK","lat":53.3022,"lng":-4.0959,"regionId":"wales_north","regionName":"North Wales","regionEmoji":"🏔️","image":"https://images.unsplash.com/photo-1618224897352-d2ed949c860f?ixid=M3w5NTU4NjF8MHwxfHNlYXJjaHwxfHxCZWF1bWFyaXMlMjBDYXN0bGUlMjBXYWxlc3xlbnwxfDB8fHwxNzgzMzMwMjE4fDA&ixlib=rb-4.1.0&crop=entropy&cs=tinysrgb&fit=max&fm=jpg&q=80&w=1080"},{"placeId":"caerphilly_mountain","name":"Penmaenmawr Mountain","nameIt":"Mynydd Penmaenmawr","type":"NATURE","lat":53.2426,"lng":-3.9187,"regionId":"wales_north","regionName":"North Wales","regionEmoji":"🏔️","image":"https://images.unsplash.com/photo-1486576123198-d6afd2782a0a?ixid=M3w5NTU4NjF8MHwxfHNlYXJjaHwxfHxQZW5tYWVubWF3ciUyMG1vdW50YWluJTIwV2FsZXN8ZW58MXwwfHx8MTc4MzMzMDIyMHww&ixlib=rb-4.1.0&crop=entropy&cs=tinysrgb&fit=max&fm=jpg&q=80&w=1080"},{"placeId":"caernarfon_town","name":"Caernarfon","nameIt":"Caernarfon","type":"TOWN","lat":53.1424,"lng":-4.2747,"regionId":"wales_north","regionName":"North Wales","regionEmoji":"🏔️","image":"https://images.unsplash.com/photo-1649953287319-7dbb5c6a90ce?ixid=M3w5NTU4NjF8MHwxfHNlYXJjaHwxfHxDYWVybmFyZm9uJTIwdG93biUyMFdhbGVzfGVufDF8MHx8fDE3ODMzMzAyMjJ8MA&ixlib=rb-4.1.0&crop=entropy&cs=tinysrgb&fit=max&fm=jpg&q=80&w=1080"},{"placeId":"great_orme","name":"Great Orme","nameIt":"Pen y Gogarth","type":"LANDMARK","lat":53.3334,"lng":-3.85,"regionId":"wales_north","regionName":"North Wales","regionEmoji":"🏔️","image":"https://images.unsplash.com/photo-1737682837339-22d297a3f64a?ixid=M3w5NTU4NjF8MHwxfHNlYXJjaHwxfHxHcmVhdCUyME9ybWUlMjBMbGFuZHVkbm98ZW58MXwwfHx8MTc4MzMzMDIyNHww&ixlib=rb-4.1.0&crop=entropy&cs=tinysrgb&fit=max&fm=jpg&q=80&w=1080"},{"placeId":"mount_snowdon","name":"Mount Snowdon","nameIt":"Yr Wyddfa","type":"LANDMARK","lat":53.0687,"lng":-3.9281,"regionId":"wales_north","regionName":"North Wales","regionEmoji":"🏔️"},{"placeId":"aberystwyth","name":"Aberystwyth","nameIt":"Aberystwyth","type":"COASTAL","lat":52.4115,"lng":-4.0826,"regionId":"wales_central","regionName":"Central Wales","regionEmoji":"🌲"},{"placeId":"llandrillo_village","name":"Llandrillo","nameIt":"Llandrillo","type":"VILLAGE","lat":52.8833,"lng":-3.7167,"regionId":"wales_central","regionName":"Central Wales","regionEmoji":"🌲","image":"https://images.unsplash.com/photo-1660509359016-bdbfae6f1d1f?ixid=M3w5NTU4NjF8MHwxfHNlYXJjaHwxfHxMbGFuZHJpbGxvJTIwdmlsbGFnZSUyMFdhbGVzfGVufDF8MHx8fDE3ODMzMzAyNDh8MA&ixlib=rb-4.1.0&crop=entropy&cs=tinysrgb&fit=max&fm=jpg&q=80&w=1080"},{"placeId":"cadair_idris","name":"Cadair Idris","nameIt":"Cadair Idris","type":"LANDMARK","lat":52.6833,"lng":-3.9167,"regionId":"wales_central","regionName":"Central Wales","regionEmoji":"🌲","image":"https://images.unsplash.com/photo-1598959853379-cf6efb7959df?ixid=M3w5NTU4NjF8MHwxfHNlYXJjaHwxfHxDYWRhaXIlMjBJZHJpcyUyMG1vdW50YWlufGVufDF8MHx8fDE3ODMzMzAyNTB8MA&ixlib=rb-4.1.0&crop=entropy&cs=tinysrgb&fit=max&fm=jpg&q=80&w=1080"},{"placeId":"dolgellau","name":"Dolgellau","nameIt":"Dolgellau","type":"TOWN","lat":52.7167,"lng":-3.8833,"regionId":"wales_central","regionName":"Central Wales","regionEmoji":"🌲"},{"placeId":"bala_lake","name":"Bala Lake","nameIt":"Llyn Tegid","type":"NATURE","lat":52.9167,"lng":-3.5667,"regionId":"wales_central","regionName":"Central Wales","regionEmoji":"🌲","image":"https://images.unsplash.com/photo-1714083226971-36372dd59245?ixid=M3w5NTU4NjF8MHwxfHNlYXJjaHwxfHxCYWxhJTIwTGFrZSUyMFdhbGVzfGVufDF8MHx8fDE3ODMzMzM4NTh8MA&ixlib=rb-4.1.0&crop=entropy&cs=tinysrgb&fit=max&fm=jpg&q=80&w=1080"},{"placeId":"barmouth","name":"Barmouth","nameIt":"Abermaw","type":"COASTAL","lat":52.7167,"lng":-4.0667,"regionId":"wales_central","regionName":"Central Wales","regionEmoji":"🌲","image":"https://images.unsplash.com/photo-1700067985806-e4cc11321031?ixid=M3w5NTU4NjF8MHwxfHNlYXJjaHwxfHxCYXJtb3V0aCUyMGJlYWNoJTIwV2FsZXN8ZW58MXwwfHx8MTc4MzMzMzg2MHww&ixlib=rb-4.1.0&crop=entropy&cs=tinysrgb&fit=max&fm=jpg&q=80&w=1080"},{"placeId":"porthmadog","name":"Porthmadog","nameIt":"Porthmadog","type":"COASTAL","lat":52.8833,"lng":-4.1167,"regionId":"wales_central","regionName":"Central Wales","regionEmoji":"🌲"},{"placeId":"cardigan_town","name":"Cardigan","nameIt":"Aberteifi","type":"TOWN","lat":52.0833,"lng":-4.6667,"regionId":"wales_central","regionName":"Central Wales","regionEmoji":"🌲"},{"placeId":"devil_s_bridge","name":"Devil's Bridge","nameIt":"Pont y Diafol","type":"LANDMARK","lat":52.3667,"lng":-3.8,"regionId":"wales_central","regionName":"Central Wales","regionEmoji":"🌲"},{"placeId":"teifi_valley","name":"Teifi Valley","nameIt":"Dyffryn Teifi","type":"NATURE","lat":52.2167,"lng":-4.1667,"regionId":"wales_central","regionName":"Central Wales","regionEmoji":"🌲","image":"https://images.unsplash.com/photo-1610107318580-5a0973dba70d?ixid=M3w5NTU4NjF8MHwxfHNlYXJjaHwxfHxUZWlmaSUyMFZhbGxleSUyMFdhbGVzJTIwY291bnRyeXNpZGV8ZW58MXwwfHx8MTc4MzMzMzg3MXww&ixlib=rb-4.1.0&crop=entropy&cs=tinysrgb&fit=max&fm=jpg&q=80&w=1080"},{"placeId":"cardiff","name":"Cardiff","nameIt":"Caerdydd","type":"CITY","lat":51.4816,"lng":-3.1791,"regionId":"wales_south","regionName":"South Wales","regionEmoji":"🏭","image":"https://images.unsplash.com/photo-1581617069577-4fa83042b2b1?ixid=M3w5NTU4NjF8MHwxfHNlYXJjaHwxfHxDYXJkaWZmJTIwQ2FzdGxlfGVufDF8MHx8fDE3ODMzMzM5MzN8MA&ixlib=rb-4.1.0&crop=entropy&cs=tinysrgb&fit=max&fm=jpg&q=80&w=1080"},{"placeId":"swansea","name":"Swansea","nameIt":"Abertawe","type":"CITY","lat":51.6214,"lng":-3.9436,"regionId":"wales_south","regionName":"South Wales","regionEmoji":"🏭","image":"https://images.unsplash.com/photo-1668715222649-916b3abcd567?ixid=M3w5NTU4NjF8MHwxfHNlYXJjaHwxfHxTd2Fuc2VhJTIwQmF5JTIwYmVhY2h8ZW58MXwwfHx8MTc4MzMzMzkzNXww&ixlib=rb-4.1.0&crop=entropy&cs=tinysrgb&fit=max&fm=jpg&q=80&w=1080"},{"placeId":"caerphilly_castle","name":"Caerphilly Castle","nameIt":"Castell Caerffili","type":"LANDMARK","lat":51.4509,"lng":-3.2119,"regionId":"wales_south","regionName":"South Wales","regionEmoji":"🏭","image":"https://images.unsplash.com/photo-1650069533179-16b70b810a1a?ixid=M3w5NTU4NjF8MHwxfHNlYXJjaHwxfHxDYWVycGhpbGx5JTIwQ2FzdGxlJTIwbW9hdHxlbnwxfDB8fHwxNzgzMzMzOTM3fDA&ixlib=rb-4.1.0&crop=entropy&cs=tinysrgb&fit=max&fm=jpg&q=80&w=1080"},{"placeId":"tenby","name":"Tenby","nameIt":"Dinbych-y-Pysgod","type":"COASTAL","lat":51.664,"lng":-5.0632,"regionId":"wales_south","regionName":"South Wales","regionEmoji":"🏭","image":"https://images.unsplash.com/photo-1622649971455-e5997ee5c7c2?ixid=M3w5NTU4NjF8MHwxfHNlYXJjaHwxfHxUZW5ieSUyMGhhcmJvdXIlMjBjb2xvdXJmdWwlMjBob3VzZXN8ZW58MXwwfHx8MTc4MzMzMzkzOXww&ixlib=rb-4.1.0&crop=entropy&cs=tinysrgb&fit=max&fm=jpg&q=80&w=1080"},{"placeId":"pembroke_castle","name":"Pembroke Castle","nameIt":"Castell Penfro","type":"LANDMARK","lat":51.6776,"lng":-5.1142,"regionId":"wales_south","regionName":"South Wales","regionEmoji":"🏭","image":"https://images.unsplash.com/photo-1696883375873-fcaf91e64d9d?ixid=M3w5NTU4NjF8MHwxfHNlYXJjaHwxfHxQZW1icm9rZSUyMENhc3RsZSUyMHJvdW5kJTIwdG93ZXJ8ZW58MXwwfHx8MTc4MzMzMzk0Mnww&ixlib=rb-4.1.0&crop=entropy&cs=tinysrgb&fit=max&fm=jpg&q=80&w=1080"},{"placeId":"brecon_beacons","name":"Brecon Beacons","nameIt":"Bannau Brycheiniog","type":"NATURE","lat":51.8906,"lng":-3.4394,"regionId":"wales_south","regionName":"South Wales","regionEmoji":"🏭","image":"https://images.unsplash.com/photo-1526639161668-9059dc1eb868?ixid=M3w5NTU4NjF8MHwxfHNlYXJjaHwxfHxCcmVjb24lMjBCZWFjb25zJTIwbW91bnRhaW5zfGVufDF8MHx8fDE3ODMzMzM5NDR8MA&ixlib=rb-4.1.0&crop=entropy&cs=tinysrgb&fit=max&fm=jpg&q=80&w=1080"},{"placeId":"st_davids","name":"St Davids","nameIt":"Tyddewi","type":"VILLAGE","lat":51.8813,"lng":-5.2687,"regionId":"wales_south","regionName":"South Wales","regionEmoji":"🏭","image":"https://images.unsplash.com/photo-1644148012100-2558759f1173?ixid=M3w5NTU4NjF8MHwxfHNlYXJjaHwxfHxTdCUyMERhdmlkcyUyMENhdGhlZHJhbHxlbnwxfDB8fHwxNzgzMzMzOTQ2fDA&ixlib=rb-4.1.0&crop=entropy&cs=tinysrgb&fit=max&fm=jpg&q=80&w=1080"},{"placeId":"gower_peninsula","name":"Gower Peninsula","nameIt":"Penrhyn Gŵyr","type":"COASTAL","lat":51.5635,"lng":-3.9865,"regionId":"wales_south","regionName":"South Wales","regionEmoji":"🏭","image":"https://images.unsplash.com/photo-1771273816640-9b0987884730?ixid=M3w5NTU4NjF8MHwxfHNlYXJjaHwxfHxSaG9zc2lsaSUyMEJlYWNoJTIwR293ZXJ8ZW58MXwwfHx8MTc4MzMzMzk0OHww&ixlib=rb-4.1.0&crop=entropy&cs=tinysrgb&fit=max&fm=jpg&q=80&w=1080"},{"placeId":"hay_on_wye","name":"Hay-on-Wye","nameIt":"Y Gelli Gandryll","type":"TOWN","lat":52.0725,"lng":-3.1201,"regionId":"wales_south","regionName":"South Wales","regionEmoji":"🏭","image":"https://images.unsplash.com/photo-1643250048998-7ffa83ae2c63?ixid=M3w5NTU4NjF8MHwxfHNlYXJjaHwxfHxIYXktb24tV3llJTIwYm9va3Nob3B8ZW58MXwwfHx8MTc4MzMzMzk1MHww&ixlib=rb-4.1.0&crop=entropy&cs=tinysrgb&fit=max&fm=jpg&q=80&w=1080"},{"placeId":"tintern_abbey","name":"Tintern Abbey","nameIt":"Abaty Tyndyrn","type":"LANDMARK","lat":51.708,"lng":-2.6745,"regionId":"wales_south","regionName":"South Wales","regionEmoji":"🏭","image":"https://images.unsplash.com/photo-1754055533161-fba87e59c356?ixid=M3w5NTU4NjF8MHwxfHNlYXJjaHwxfHxUaW50ZXJuJTIwQWJiZXklMjBydWluc3xlbnwxfDB8fHwxNzgzMzMzOTUyfDA&ixlib=rb-4.1.0&crop=entropy&cs=tinysrgb&fit=max&fm=jpg&q=80&w=1080"},{"placeId":"caerleon","name":"Caerleon","nameIt":"Caerlion","type":"TOWN","lat":51.6121,"lng":-2.9668,"regionId":"wales_south","regionName":"South Wales","regionEmoji":"🏭"},{"placeId":"barry","name":"Barry","nameIt":"Y Barri","type":"COASTAL","lat":51.3992,"lng":-3.276,"regionId":"wales_south","regionName":"South Wales","regionEmoji":"🏭","image":"https://images.unsplash.com/photo-1756735772564-34177618dd5f?ixid=M3w5NTU4NjF8MHwxfHNlYXJjaHwxfHxCYXJyeSUyMElzbGFuZCUyMGJlYWNofGVufDF8MHx8fDE3ODMzMzM5NTV8MA&ixlib=rb-4.1.0&crop=entropy&cs=tinysrgb&fit=max&fm=jpg&q=80&w=1080"},{"placeId":"brecon","name":"Brecon","nameIt":"Aberhonddu","type":"TOWN","lat":51.9468,"lng":-3.3847,"regionId":"wales_south","regionName":"South Wales","regionEmoji":"🏭"},{"placeId":"saundersfoot","name":"Saundersfoot","nameIt":"Traeth Saunders","type":"COASTAL","lat":51.6908,"lng":-5.0237,"regionId":"wales_south","regionName":"South Wales","regionEmoji":"🏭"},{"placeId":"monmouth","name":"Monmouth","nameIt":"Trefynwy","type":"TOWN","lat":51.8117,"lng":-2.7139,"regionId":"wales_south","regionName":"South Wales","regionEmoji":"🏭"},{"placeId":"belfast","name":"Belfast","nameIt":"Béal Feirste","type":"CITY","lat":54.5973,"lng":-5.9301,"regionId":"northern_ireland","regionName":"Northern Ireland","regionEmoji":"🥃","image":"https://images.unsplash.com/photo-1636358753240-e314f853e667?ixid=M3w5NTU4NjF8MHwxfHNlYXJjaHwxfHxCZWxmYXN0JTIwY2l0eSUyMHNreWxpbmUlMjBUaXRhbmljfGVufDF8MHx8fDE3ODMzMzM5NzF8MA&ixlib=rb-4.1.0&crop=entropy&cs=tinysrgb&fit=max&fm=jpg&q=80&w=1080"},{"placeId":"giants_causeway","name":"Giant's Causeway","nameIt":"Clochán an Aifir","type":"COASTAL","lat":55.2408,"lng":-6.5117,"regionId":"northern_ireland","regionName":"Northern Ireland","regionEmoji":"🥃","image":"https://images.unsplash.com/photo-1595538853083-dc3160ca6881?ixid=M3w5NTU4NjF8MHwxfHNlYXJjaHwxfHxHaWFudCUyN3MlMjBDYXVzZXdheSUyMGhleGFnb25hbCUyMGJhc2FsdHxlbnwxfDB8fHwxNzgzMzMzOTc0fDA&ixlib=rb-4.1.0&crop=entropy&cs=tinysrgb&fit=max&fm=jpg&q=80&w=1080"},{"placeId":"derry_londonderry","name":"Derry/Londonderry","nameIt":"Doire","type":"CITY","lat":55.0078,"lng":-7.3089,"regionId":"northern_ireland","regionName":"Northern Ireland","regionEmoji":"🥃","image":"https://images.unsplash.com/photo-1622895655192-cc770a0a8d03?ixid=M3w5NTU4NjF8MHwxfHNlYXJjaHwxfHxEZXJyeSUyMExvbmRvbmRlcnJ5JTIwY2l0eSUyMHdhbGxzfGVufDF8MHx8fDE3ODMzMzM5NzZ8MA&ixlib=rb-4.1.0&crop=entropy&cs=tinysrgb&fit=max&fm=jpg&q=80&w=1080"},{"placeId":"dunluce_castle","name":"Dunluce Castle","nameIt":"Caisleán Dhún Lúiche","type":"LANDMARK","lat":55.2093,"lng":-6.6366,"regionId":"northern_ireland","regionName":"Northern Ireland","regionEmoji":"🥃","image":"https://images.unsplash.com/photo-1629274746312-342061c23f7a?ixid=M3w5NTU4NjF8MHwxfHNlYXJjaHwxfHxEdW5sdWNlJTIwQ2FzdGxlJTIwY2xpZmYlMjBydWluc3xlbnwxfDB8fHwxNzgzMzMzOTc4fDA&ixlib=rb-4.1.0&crop=entropy&cs=tinysrgb&fit=max&fm=jpg&q=80&w=1080"},{"placeId":"causeway_coast","name":"Causeway Coast","nameIt":"Cósta an Chlocháin","type":"COASTAL","lat":55.195,"lng":-6.55,"regionId":"northern_ireland","regionName":"Northern Ireland","regionEmoji":"🥃","image":"https://images.unsplash.com/photo-1595538853083-dc3160ca6881?ixid=M3w5NTU4NjF8MHwxfHNlYXJjaHwxfHxDYXVzZXdheSUyMENvYXN0JTIwY2xpZmZzJTIwTm9ydGhlcm4lMjBJcmVsYW5kfGVufDF8MHx8fDE3ODMzMzM5ODF8MA&ixlib=rb-4.1.0&crop=entropy&cs=tinysrgb&fit=max&fm=jpg&q=80&w=1080"},{"placeId":"carrick_a_rede","name":"Carrick-a-Rede Rope Bridge","nameIt":"Droichead Rópa Charraig a' Ráda","type":"LANDMARK","lat":55.2212,"lng":-6.42,"regionId":"northern_ireland","regionName":"Northern Ireland","regionEmoji":"🥃","image":"https://images.unsplash.com/photo-1664237106132-fd2b4c97b25c?ixid=M3w5NTU4NjF8MHwxfHNlYXJjaHwxfHxDYXJyaWNrLWEtUmVkZSUyMHJvcGUlMjBicmlkZ2V8ZW58MXwwfHx8MTc4MzMzMzk4M3ww&ixlib=rb-4.1.0&crop=entropy&cs=tinysrgb&fit=max&fm=jpg&q=80&w=1080"},{"placeId":"slieve_patrick","name":"Slemish","nameIt":"Slemish","type":"NATURE","lat":54.8664,"lng":-6.3486,"regionId":"northern_ireland","regionName":"Northern Ireland","regionEmoji":"🥃"},{"placeId":"mourne_mountains","name":"Mourne Mountains","nameIt":"Sléibhte an Mhourne","type":"NATURE","lat":54.25,"lng":-6.35,"regionId":"northern_ireland","regionName":"Northern Ireland","regionEmoji":"🥃","image":"https://images.unsplash.com/photo-1751798109737-f29fb5b638b5?ixid=M3w5NTU4NjF8MHwxfHNlYXJjaHwxfHxNb3VybmUlMjBNb3VudGFpbnMlMjBoaWtpbmd8ZW58MXwwfHx8MTc4MzMzMzk4Nnww&ixlib=rb-4.1.0&crop=entropy&cs=tinysrgb&fit=max&fm=jpg&q=80&w=1080"},{"placeId":"newcastle","name":"Newcastle","nameIt":"An Caisleán Nua","type":"TOWN","lat":54.2333,"lng":-6.3667,"regionId":"northern_ireland","regionName":"Northern Ireland","regionEmoji":"🥃","image":"https://images.unsplash.com/photo-1620397243652-9da5e95a5a84?ixid=M3w5NTU4NjF8MHwxfHNlYXJjaHwxfHxOZXdjYXN0bGUlMjBDb3VudHklMjBEb3duJTIwYmVhY2h8ZW58MXwwfHx8MTc4MzMzMzk4OHww&ixlib=rb-4.1.0&crop=entropy&cs=tinysrgb&fit=max&fm=jpg&q=80&w=1080"},{"placeId":"silent_valley","name":"Silent Valley","nameIt":"Gleann Ciúin","type":"NATURE","lat":54.1833,"lng":-6.2667,"regionId":"northern_ireland","regionName":"Northern Ireland","regionEmoji":"🥃","image":"https://images.unsplash.com/photo-1600707656536-c5ace2c14c29?ixid=M3w5NTU4NjF8MHwxfHNlYXJjaHwxfHxTaWxlbnQlMjBWYWxsZXklMjByZXNlcnZvaXIlMjBNb3VybmV8ZW58MXwwfHx8MTc4MzMzMzk5MXww&ixlib=rb-4.1.0&crop=entropy&cs=tinysrgb&fit=max&fm=jpg&q=80&w=1080"},{"placeId":"downpatrick","name":"Downpatrick","nameIt":"Dún Pádraig","type":"TOWN","lat":54.3333,"lng":-5.7167,"regionId":"northern_ireland","regionName":"Northern Ireland","regionEmoji":"🥃"},{"placeId":"armagh","name":"Armagh","nameIt":"Ard Mhacha","type":"CITY","lat":54.3507,"lng":-6.6546,"regionId":"northern_ireland","regionName":"Northern Ireland","regionEmoji":"🥃"},{"placeId":"bushmills","name":"Bushmills","nameIt":"Poitín na Bos","type":"TOWN","lat":55.1869,"lng":-6.5142,"regionId":"northern_ireland","regionName":"Northern Ireland","regionEmoji":"🥃","image":"https://images.unsplash.com/photo-1714320598769-8baadcb2f8a5?ixid=M3w5NTU4NjF8MHwxfHNlYXJjaHwxfHxCdXNobWlsbHMlMjBkaXN0aWxsZXJ5JTIwd2hpc2tleSUyMHRvdXJ8ZW58MXwwfHx8MTc4MzMzMzk5NXww&ixlib=rb-4.1.0&crop=entropy&cs=tinysrgb&fit=max&fm=jpg&q=80&w=1080"},{"placeId":"portstewart","name":"Portstewart","nameIt":"Port Stíobhaird","type":"COASTAL","lat":55.1869,"lng":-6.7209,"regionId":"northern_ireland","regionName":"Northern Ireland","regionEmoji":"🥃"},{"placeId":"strangford_lough","name":"Strangford Lough","nameIt":"Loch Strangabhort","type":"NATURE","lat":54.35,"lng":-5.55,"regionId":"northern_ireland","regionName":"Northern Ireland","regionEmoji":"🥃","image":"https://images.unsplash.com/photo-1560159445-4f41026e264d?ixid=M3w5NTU4NjF8MHwxfHNlYXJjaHwxfHxTdHJhbmdmb3JkJTIwTG91Z2glMjB3aWxkbGlmZSUyMHNlYWxzfGVufDF8MHx8fDE3ODMzMzM5OTh8MA&ixlib=rb-4.1.0&crop=entropy&cs=tinysrgb&fit=max&fm=jpg&q=80&w=1080"}]