[{"placeId":"oslo","name":"Oslo","nameIt":"Oslo","type":"CITY","lat":59.9139,"lng":10.7522,"regionId":"eastern_norway","regionName":"Eastern Norway","regionEmoji":"🏛️","image":"https://images.unsplash.com/photo-1751635234283-7e3e64cb32fe?ixid=M3w5NTU4NjF8MHwxfHNlYXJjaHwxfHxPc2xvJTIwT3BlcmElMjBIb3VzZXxlbnwxfDB8fHwxNzgzNDMzOTQyfDA&ixlib=rb-4.1.0&crop=entropy&cs=tinysrgb&fit=max&fm=jpg&q=80&w=1080"},{"placeId":"gj_vik","name":"Gjøvik","nameIt":"Gjøvik","type":"CITY","lat":60.7937,"lng":10.6884,"regionId":"eastern_norway","regionName":"Eastern Norway","regionEmoji":"🏛️"},{"placeId":"hamar","name":"Hamar","nameIt":"Hamar","type":"CITY","lat":60.5047,"lng":10.7561,"regionId":"eastern_norway","regionName":"Eastern Norway","regionEmoji":"🏛️"},{"placeId":"rondane","name":"Rondane National Park","nameIt":"Rondane Nasjonalpark","type":"NATURE","lat":61.5,"lng":11,"regionId":"eastern_norway","regionName":"Eastern Norway","regionEmoji":"🏛️","image":"https://images.unsplash.com/photo-1693085834885-82c5f947a1f4?ixid=M3w5NTU4NjF8MHwxfHNlYXJjaHwxfHxSb25kYW5lJTIwbW91bnRhaW5zJTIwaGlraW5nfGVufDF8MHx8fDE3ODM0MzM5NDh8MA&ixlib=rb-4.1.0&crop=entropy&cs=tinysrgb&fit=max&fm=jpg&q=80&w=1080"},{"placeId":"gudbrandsdalslagen","name":"Gudbrandsdalen Valley","nameIt":"Gudbrandsdalen","type":"NATURE","lat":61,"lng":10.5,"regionId":"eastern_norway","regionName":"Eastern Norway","regionEmoji":"🏛️","image":"https://images.unsplash.com/photo-1701885028058-ba62574456f4?ixid=M3w5NTU4NjF8MHwxfHNlYXJjaHwxfHxHdWRicmFuZHNkYWxlbiUyMHZhbGxleXxlbnwxfDB8fHwxNzgzNDMzOTUwfDA&ixlib=rb-4.1.0&crop=entropy&cs=tinysrgb&fit=max&fm=jpg&q=80&w=1080"},{"placeId":"lillehammer_olympic_park","name":"Lillehammer Olympic Park","nameIt":"Lillehammer Olympiapark","type":"LANDMARK","lat":61.1273,"lng":10.4751,"regionId":"eastern_norway","regionName":"Eastern Norway","regionEmoji":"🏛️"},{"placeId":"mj_sa_lake","name":"Mjøsa Lake","nameIt":"Mjøsa","type":"NATURE","lat":60.7,"lng":10.8,"regionId":"eastern_norway","regionName":"Eastern Norway","regionEmoji":"🏛️"},{"placeId":"drammen","name":"Drammen","nameIt":"Drammen","type":"CITY","lat":59.7441,"lng":10.2048,"regionId":"eastern_norway","regionName":"Eastern Norway","regionEmoji":"🏛️","image":"https://images.unsplash.com/photo-1782072712400-d4185beb8cba?ixid=M3w5NTU4NjF8MHwxfHNlYXJjaHwxfHxEcmFtbWVuJTIwd2F0ZXJmcm9udHxlbnwxfDB8fHwxNzgzNDMzOTU1fDA&ixlib=rb-4.1.0&crop=entropy&cs=tinysrgb&fit=max&fm=jpg&q=80&w=1080"},{"placeId":"fredrikstad","name":"Fredrikstad","nameIt":"Fredrikstad","type":"CITY","lat":59.2156,"lng":10.9251,"regionId":"eastern_norway","regionName":"Eastern Norway","regionEmoji":"🏛️"},{"placeId":"sarpsborg","name":"Sarpsborg","nameIt":"Sarpsborg","type":"CITY","lat":59.2903,"lng":10.8121,"regionId":"eastern_norway","regionName":"Eastern Norway","regionEmoji":"🏛️"},{"placeId":"oppdal","name":"Oppdal","nameIt":"Oppdal","type":"TOWN","lat":62.5873,"lng":11.3084,"regionId":"eastern_norway","regionName":"Eastern Norway","regionEmoji":"🏛️"},{"placeId":"hamar_viking_ship","name":"Domkirkeodden","nameIt":"Domkirkeodden","type":"LANDMARK","lat":60.5064,"lng":10.7625,"regionId":"eastern_norway","regionName":"Eastern Norway","regionEmoji":"🏛️"},{"placeId":"stavanger","name":"Stavanger","nameIt":"Stavanger","type":"CITY","lat":58.97,"lng":5.7331,"regionId":"southeastern_norway","regionName":"Southeastern Norway","regionEmoji":"🏖️","image":"https://images.unsplash.com/photo-1775384257746-8f2959898ab1?ixid=M3w5NTU4NjF8MHwxfHNlYXJjaHwxfHxTdGF2YW5nZXIlMjBvbGQlMjB0b3dufGVufDF8MHx8fDE3ODM0MzM5Nzl8MA&ixlib=rb-4.1.0&crop=entropy&cs=tinysrgb&fit=max&fm=jpg&q=80&w=1080"},{"placeId":"arendal","name":"Arendal","nameIt":"Arendal","type":"CITY","lat":58.4627,"lng":8.7697,"regionId":"southeastern_norway","regionName":"Southeastern Norway","regionEmoji":"🏖️"},{"placeId":"grimstad","name":"Grimstad","nameIt":"Grimstad","type":"TOWN","lat":58.3368,"lng":8.5921,"regionId":"southeastern_norway","regionName":"Southeastern Norway","regionEmoji":"🏖️"},{"placeId":"lysefjord","name":"Lysefjord","nameIt":"Lysefjord","type":"NATURE","lat":59,"lng":6.5,"regionId":"southeastern_norway","regionName":"Southeastern Norway","regionEmoji":"🏖️","image":"https://images.unsplash.com/photo-1718056415758-8dd0fb97c5a6?ixid=M3w5NTU4NjF8MHwxfHNlYXJjaHwxfHxMeXNlZmpvcmQlMjBOb3J3YXl8ZW58MXwwfHx8MTc4MzQzMzk4Nnww&ixlib=rb-4.1.0&crop=entropy&cs=tinysrgb&fit=max&fm=jpg&q=80&w=1080"},{"placeId":"skagen","name":"Skagen","nameIt":"Skagen","type":"VILLAGE","lat":58.0174,"lng":6.8674,"regionId":"southeastern_norway","regionName":"Southeastern Norway","regionEmoji":"🏖️","image":"https://images.unsplash.com/photo-1663428520845-056989f8a664?ixid=M3w5NTU4NjF8MHwxfHNlYXJjaHwxfHxTa2FnZW4lMjBzb3V0aGVybm1vc3QlMjBOb3J3YXl8ZW58MXwwfHx8MTc4MzQzMzk4OXww&ixlib=rb-4.1.0&crop=entropy&cs=tinysrgb&fit=max&fm=jpg&q=80&w=1080"},{"placeId":"tvedestrand","name":"Tvedestrand","nameIt":"Tvedestrand","type":"COASTAL","lat":58.6048,"lng":8.6583,"regionId":"southeastern_norway","regionName":"Southeastern Norway","regionEmoji":"🏖️"},{"placeId":"hank","name":"Hankø","nameIt":"Hankø","type":"ISLAND","lat":58.8461,"lng":9.0711,"regionId":"southeastern_norway","regionName":"Southeastern Norway","regionEmoji":"🏖️"},{"placeId":"kristiansand","name":"Kristiansand","nameIt":"Kristiansand","type":"CITY","lat":58.1456,"lng":8.272,"regionId":"southern_norway","regionName":"Southern Norway","regionEmoji":"🌊"},{"placeId":"preikestolen","name":"Preikestolen (Pulpit Rock)","nameIt":"Preikestolen","type":"LANDMARK","lat":58.9855,"lng":6.1876,"regionId":"southern_norway","regionName":"Southern Norway","regionEmoji":"🌊","image":"https://images.unsplash.com/photo-1646339790896-97d084c42d03?ixid=M3w5NTU4NjF8MHwxfHNlYXJjaHwxfHxQcmVpa2VzdG9sZW4lMjBQdWxwaXQlMjBSb2NrfGVufDF8MHx8fDE3ODM0MzY4MTd8MA&ixlib=rb-4.1.0&crop=entropy&cs=tinysrgb&fit=max&fm=jpg&q=80&w=1080"},{"placeId":"kjeragbolten","name":"Kjeragbolten","nameIt":"Kjeragbolten","type":"LANDMARK","lat":58.995,"lng":6.3419,"regionId":"southern_norway","regionName":"Southern Norway","regionEmoji":"🌊","image":"https://images.unsplash.com/photo-1723548236705-11f496f454f1?ixid=M3w5NTU4NjF8MHwxfHNlYXJjaHwxfHxLamVyYWdib2x0ZW4lMjBib3VsZGVyfGVufDF8MHx8fDE3ODM0MzY4MjF8MA&ixlib=rb-4.1.0&crop=entropy&cs=tinysrgb&fit=max&fm=jpg&q=80&w=1080"},{"placeId":"lillesand","name":"Lillesand","nameIt":"Lillesand","type":"COASTAL","lat":58.2542,"lng":8.3914,"regionId":"southern_norway","regionName":"Southern Norway","regionEmoji":"🌊"},{"placeId":"mandal","name":"Mandal","nameIt":"Mandal","type":"TOWN","lat":58.0233,"lng":7.6741,"regionId":"southern_norway","regionName":"Southern Norway","regionEmoji":"🌊"},{"placeId":"flekkefjord","name":"Flekkefjord","nameIt":"Flekkefjord","type":"TOWN","lat":58.2872,"lng":6.6547,"regionId":"southern_norway","regionName":"Southern Norway","regionEmoji":"🌊","image":"https://images.unsplash.com/photo-1606917696099-d0aee5935306?ixid=M3w5NTU4NjF8MHwxfHNlYXJjaHwxfHxGbGVra2Vmam9yZCUyME5vcndheXxlbnwxfDB8fHwxNzgzNDM2ODI2fDA&ixlib=rb-4.1.0&crop=entropy&cs=tinysrgb&fit=max&fm=jpg&q=80&w=1080"},{"placeId":"farsund","name":"Farsund","nameIt":"Farsund","type":"TOWN","lat":58.0979,"lng":6.7864,"regionId":"southern_norway","regionName":"Southern Norway","regionEmoji":"🌊"},{"placeId":"lindesnes","name":"Lindesnes","nameIt":"Lindesnes","type":"LANDMARK","lat":57.9894,"lng":7.0537,"regionId":"southern_norway","regionName":"Southern Norway","regionEmoji":"🌊","image":"https://images.unsplash.com/photo-1746199637198-f975ea4ae9d6?ixid=M3w5NTU4NjF8MHwxfHNlYXJjaHwxfHxMaW5kZXNuZXMlMjBsaWdodGhvdXNlfGVufDF8MHx8fDE3ODM0MzY4Mjl8MA&ixlib=rb-4.1.0&crop=entropy&cs=tinysrgb&fit=max&fm=jpg&q=80&w=1080"},{"placeId":"lista","name":"Lista","nameIt":"Lista","type":"COASTAL","lat":58.0161,"lng":6.5739,"regionId":"southern_norway","regionName":"Southern Norway","regionEmoji":"🌊","image":"https://images.unsplash.com/photo-1502993148234-fd2324df8cb2?ixid=M3w5NTU4NjF8MHwxfHNlYXJjaHwxfHxMaXN0YSUyMGJlYWNoJTIwTm9yd2F5fGVufDF8MHx8fDE3ODM0MzY4MzF8MA&ixlib=rb-4.1.0&crop=entropy&cs=tinysrgb&fit=max&fm=jpg&q=80&w=1080"},{"placeId":"haukeland","name":"Haukeland","nameIt":"Haukeland","type":"NATURE","lat":58.1167,"lng":8.15,"regionId":"southern_norway","regionName":"Southern Norway","regionEmoji":"🌊"},{"placeId":"preikestolen","name":"Preikestolen","nameIt":"Preikestolen","type":"LANDMARK","lat":58.9847,"lng":6.1871,"regionId":"western_norway","regionName":"Western Norway","regionEmoji":"⛰️","image":"https://images.unsplash.com/photo-1646339790896-97d084c42d03?ixid=M3w5NTU4NjF8MHwxfHNlYXJjaHwxfHxQcmVpa2VzdG9sZW4lMjBQdWxwaXQlMjBSb2NrfGVufDF8MHx8fDE3ODM0MzY4MTd8MA&ixlib=rb-4.1.0&crop=entropy&cs=tinysrgb&fit=max&fm=jpg&q=80&w=1080"},{"placeId":"lofoten","name":"Lofoten Islands","nameIt":"Lofoten","type":"ISLAND","lat":68.25,"lng":14.5,"regionId":"western_norway","regionName":"Western Norway","regionEmoji":"⛰️","image":"https://images.unsplash.com/photo-1663428520845-056989f8a664?ixid=M3w5NTU4NjF8MHwxfHNlYXJjaHwxfHxMb2ZvdGVuJTIwSXNsYW5kcyUyMHBlYWtzfGVufDF8MHx8fDE3ODM0MzY4NTl8MA&ixlib=rb-4.1.0&crop=entropy&cs=tinysrgb&fit=max&fm=jpg&q=80&w=1080"},{"placeId":"nordfjordeid","name":"Nordfjord Region","nameIt":"Nordfjord","type":"COASTAL","lat":61.8944,"lng":5.8556,"regionId":"western_norway","regionName":"Western Norway","regionEmoji":"⛰️","image":"https://images.unsplash.com/photo-1510071652223-530cba0e0948?ixid=M3w5NTU4NjF8MHwxfHNlYXJjaHwxfHxOb3JkZmpvcmQlMjBOb3J3YXl8ZW58MXwwfHx8MTc4MzQzNjg2Mnww&ixlib=rb-4.1.0&crop=entropy&cs=tinysrgb&fit=max&fm=jpg&q=80&w=1080"},{"placeId":"odda","name":"Odda","nameIt":"Odda","type":"TOWN","lat":60.075,"lng":6.2275,"regionId":"western_norway","regionName":"Western Norway","regionEmoji":"⛰️","image":"https://images.unsplash.com/photo-1505312917212-9db5bde78aff?ixid=M3w5NTU4NjF8MHwxfHNlYXJjaHwxfHxUcm9sbHR1bmdhJTIwaGlrZSUyME5vcndheXxlbnwxfDB8fHwxNzgzNDM2ODY1fDA&ixlib=rb-4.1.0&crop=entropy&cs=tinysrgb&fit=max&fm=jpg&q=80&w=1080"},{"placeId":"balestrand","name":"Balestrand","nameIt":"Balestrand","type":"TOWN","lat":61.1778,"lng":6.5083,"regionId":"western_norway","regionName":"Western Norway","regionEmoji":"⛰️"},{"placeId":"geirangerfjord","name":"Geirangerfjord","nameIt":"Geirangerfjorden","type":"NATURE","lat":62.1017,"lng":7.2615,"regionId":"fjord_norway","regionName":"Fjord Norway","regionEmoji":"🛥️","image":"https://images.unsplash.com/photo-1664825381616-5cb8397fd9b1?ixid=M3w5NTU4NjF8MHwxfHNlYXJjaHwxfHxHZWlyYW5nZXJmam9yZCUyME5vcndheSUyMHdhdGVyZmFsbHN8ZW58MXwwfHx8MTc4MzQzNjkzNnww&ixlib=rb-4.1.0&crop=entropy&cs=tinysrgb&fit=max&fm=jpg&q=80&w=1080"},{"placeId":"flam","name":"Flåm","nameIt":"Flåm","type":"TOWN","lat":60.8655,"lng":7.1186,"regionId":"fjord_norway","regionName":"Fjord Norway","regionEmoji":"🛥️","image":"https://images.unsplash.com/photo-1737709994733-2fae15841bc9?ixid=M3w5NTU4NjF8MHwxfHNlYXJjaHwxfHxGbCVDMyVBNW0lMjBSYWlsd2F5JTIwTm9yd2F5JTIwc2NlbmljfGVufDF8MHx8fDE3ODM0MzY5Mzh8MA&ixlib=rb-4.1.0&crop=entropy&cs=tinysrgb&fit=max&fm=jpg&q=80&w=1080"},{"placeId":"bergen","name":"Bergen","nameIt":"Bergen","type":"CITY","lat":60.3913,"lng":5.3221,"regionId":"fjord_norway","regionName":"Fjord Norway","regionEmoji":"🛥️","image":"https://images.unsplash.com/photo-1580946443359-1126222f9224?ixid=M3w5NTU4NjF8MHwxfHNlYXJjaHwxfHxCZXJnZW4lMjBCcnlnZ2VuJTIwY29sb3JmdWwlMjBob3VzZXN8ZW58MXwwfHx8MTc4MzQzNjk0MXww&ixlib=rb-4.1.0&crop=entropy&cs=tinysrgb&fit=max&fm=jpg&q=80&w=1080"},{"placeId":"sognefjord","name":"Sognefjord","nameIt":"Sognefjorden","type":"NATURE","lat":61,"lng":6.5,"regionId":"fjord_norway","regionName":"Fjord Norway","regionEmoji":"🛥️","image":"https://images.unsplash.com/photo-1740847553501-376f25d8c7fd?ixid=M3w5NTU4NjF8MHwxfHNlYXJjaHwxfHxTb2duZWZqb3JkJTIwTm9yd2F5JTIwbG9uZ2VzdCUyMGZqb3JkfGVufDF8MHx8fDE3ODM0MzY5NDN8MA&ixlib=rb-4.1.0&crop=entropy&cs=tinysrgb&fit=max&fm=jpg&q=80&w=1080"},{"placeId":"hardangerfjord","name":"Hardangerfjord","nameIt":"Hardangerfjorden","type":"NATURE","lat":60.3333,"lng":6.5667,"regionId":"fjord_norway","regionName":"Fjord Norway","regionEmoji":"🛥️"},{"placeId":"voss","name":"Voss","nameIt":"Voss","type":"TOWN","lat":60.5667,"lng":6.4167,"regionId":"fjord_norway","regionName":"Fjord Norway","regionEmoji":"🛥️","image":"https://images.unsplash.com/photo-1663428520845-056989f8a664?ixid=M3w5NTU4NjF8MHwxfHNlYXJjaHwxfHxWb3NzJTIwTm9yd2F5JTIwYWR2ZW50dXJlJTIwc3BvcnRzfGVufDF8MHx8fDE3ODM0MzY5NDd8MA&ixlib=rb-4.1.0&crop=entropy&cs=tinysrgb&fit=max&fm=jpg&q=80&w=1080"},{"placeId":"jostedalsbreeen","name":"Jostedalsbreen Glacier","nameIt":"Jostedalsbreen","type":"NATURE","lat":61.4167,"lng":7.3333,"regionId":"fjord_norway","regionName":"Fjord Norway","regionEmoji":"🛥️","image":"https://images.unsplash.com/photo-1544009520-e2ea9189f15e?ixid=M3w5NTU4NjF8MHwxfHNlYXJjaHwxfHxKb3N0ZWRhbHNicmVlbiUyMGdsYWNpZXIlMjBOb3J3YXl8ZW58MXwwfHx8MTc4MzQzNjk1MHww&ixlib=rb-4.1.0&crop=entropy&cs=tinysrgb&fit=max&fm=jpg&q=80&w=1080"},{"placeId":"olden","name":"Olden","nameIt":"Olden","type":"VILLAGE","lat":61.9033,"lng":6.9242,"regionId":"fjord_norway","regionName":"Fjord Norway","regionEmoji":"🛥️","image":"https://images.unsplash.com/photo-1517438546260-ba9763fc7d51?ixid=M3w5NTU4NjF8MHwxfHNlYXJjaHwxfHxPbGRlbiUyMEJyaWtzZGFsc2JyZWVuJTIwZ2xhY2llcnxlbnwxfDB8fHwxNzgzNDM2OTUzfDA&ixlib=rb-4.1.0&crop=entropy&cs=tinysrgb&fit=max&fm=jpg&q=80&w=1080"},{"placeId":"naeroyfjord","name":"Nærøyfjord","nameIt":"Nærøyfjorden","type":"NATURE","lat":60.8417,"lng":7.2583,"regionId":"fjord_norway","regionName":"Fjord Norway","regionEmoji":"🛥️","image":"https://images.unsplash.com/photo-1536576829143-91ce6971e619?ixid=M3w5NTU4NjF8MHwxfHNlYXJjaHwxfHxOJUMzJUE2ciVDMyVCOHlmam9yZCUyMFVORVNDTyUyMG5hcnJvd3xlbnwxfDB8fHwxNzgzNDM2OTU2fDA&ixlib=rb-4.1.0&crop=entropy&cs=tinysrgb&fit=max&fm=jpg&q=80&w=1080"},{"placeId":"moelkestrandvatnet","name":"Moelkestrandvatnet","nameIt":"Moelkestrandvatnet","type":"LANDMARK","lat":61.9717,"lng":6.445,"regionId":"fjord_norway","regionName":"Fjord Norway","regionEmoji":"🛥️","image":"https://images.unsplash.com/photo-1656490246727-a58085b306d2?ixid=M3w5NTU4NjF8MHwxfHNlYXJjaHwxfHxNb2Vsa2VzdHJhbmR2YXRuZXQlMjBsYWtlJTIwTm9yd2F5fGVufDF8MHx8fDE3ODM0MzY5NjJ8MA&ixlib=rb-4.1.0&crop=entropy&cs=tinysrgb&fit=max&fm=jpg&q=80&w=1080"},{"placeId":"lillehammer","name":"Lillehammer","nameIt":"Lillehammer","type":"CITY","lat":61.1167,"lng":10.4667,"regionId":"fjord_norway","regionName":"Fjord Norway","regionEmoji":"🛥️","image":"https://images.unsplash.com/photo-1725393213481-ca9dc8bef2be?ixid=M3w5NTU4NjF8MHwxfHNlYXJjaHwxfHxMaWxsZWhhbW1lciUyME9seW1waWMlMjBjaXR5JTIwTm9yd2F5fGVufDF8MHx8fDE3ODM0MzY5NjR8MA&ixlib=rb-4.1.0&crop=entropy&cs=tinysrgb&fit=max&fm=jpg&q=80&w=1080"},{"placeId":"nidaros_cathedral","name":"Nidaros Cathedral","nameIt":"Nidarosdomen","type":"LANDMARK","lat":63.4281,"lng":10.3975,"regionId":"central_norway","regionName":"Central Norway","regionEmoji":"🏔️","image":"https://images.unsplash.com/photo-1654122678037-91373da1dbb2?ixid=M3w5NTU4NjF8MHwxfHNlYXJjaHwxfHxOaWRhcm9zJTIwQ2F0aGVkcmFsJTIwVHJvbmRoZWltfGVufDF8MHx8fDE3ODM0MzY5Nzd8MA&ixlib=rb-4.1.0&crop=entropy&cs=tinysrgb&fit=max&fm=jpg&q=80&w=1080"},{"placeId":"trondheim","name":"Trondheim","nameIt":"Trondheim","type":"CITY","lat":63.4305,"lng":10.3951,"regionId":"central_norway","regionName":"Central Norway","regionEmoji":"🏔️","image":"https://images.unsplash.com/photo-1517904518766-16c4f3ab0293?ixid=M3w5NTU4NjF8MHwxfHNlYXJjaHwxfHxUcm9uZGhlaW0lMjBjb2xvcmZ1bCUyMHdoYXJ2ZXMlMjBOaWRlbHZhfGVufDF8MHx8fDE3ODM0MzY5Nzl8MA&ixlib=rb-4.1.0&crop=entropy&cs=tinysrgb&fit=max&fm=jpg&q=80&w=1080"},{"placeId":"munkholmen","name":"Munkholmen","nameIt":"Munkholmen","type":"ISLAND","lat":63.4436,"lng":10.4228,"regionId":"central_norway","regionName":"Central Norway","regionEmoji":"🏔️"},{"placeId":"ringve_museum","name":"Ringve Music Museum","nameIt":"Ringve Musikkhist. samlinger","type":"LANDMARK","lat":63.4658,"lng":10.4425,"regionId":"central_norway","regionName":"Central Norway","regionEmoji":"🏔️","image":"https://images.unsplash.com/photo-1654122678465-709a9981b1dc?ixid=M3w5NTU4NjF8MHwxfHNlYXJjaHwxfHxSaW5ndmUlMjBNdXNldW0lMjBUcm9uZGhlaW18ZW58MXwwfHx8MTc4MzQzNjk4M3ww&ixlib=rb-4.1.0&crop=entropy&cs=tinysrgb&fit=max&fm=jpg&q=80&w=1080"},{"placeId":"kristiansten_fortress","name":"Kristiansten Fortress","nameIt":"Kristiansten Festning","type":"LANDMARK","lat":63.4155,"lng":10.3832,"regionId":"central_norway","regionName":"Central Norway","regionEmoji":"🏔️","image":"https://images.unsplash.com/photo-1596904988478-48e5bbe70337?ixid=M3w5NTU4NjF8MHwxfHNlYXJjaHwxfHxLcmlzdGlhbnN0ZW4lMjBGb3J0cmVzcyUyMFRyb25kaGVpbXxlbnwxfDB8fHwxNzgzNDM2OTg1fDA&ixlib=rb-4.1.0&crop=entropy&cs=tinysrgb&fit=max&fm=jpg&q=80&w=1080"},{"placeId":"dronninghallen","name":"Archbishop's Palace","nameIt":"Erkebispegården","type":"LANDMARK","lat":63.4292,"lng":10.3985,"regionId":"central_norway","regionName":"Central Norway","regionEmoji":"🏔️","image":"https://images.unsplash.com/photo-1698430553923-2e862782527d?ixid=M3w5NTU4NjF8MHwxfHNlYXJjaHwxfHxBcmNoYmlzaG9wJTI3cyUyMFBhbGFjZSUyMFRyb25kaGVpbSUyMG1lZGlldmFsfGVufDF8MHx8fDE3ODM0MzY5ODd8MA&ixlib=rb-4.1.0&crop=entropy&cs=tinysrgb&fit=max&fm=jpg&q=80&w=1080"},{"placeId":"steinkjer","name":"Steinkjer","nameIt":"Steinkjer","type":"TOWN","lat":64.0141,"lng":11.4933,"regionId":"central_norway","regionName":"Central Norway","regionEmoji":"🏔️"},{"placeId":"orland_peninsula","name":"Ørland Peninsula","nameIt":"Ørland","type":"COASTAL","lat":63.8983,"lng":10.785,"regionId":"central_norway","regionName":"Central Norway","regionEmoji":"🏔️"},{"placeId":"roros","name":"Røros","nameIt":"Røros","type":"TOWN","lat":65.0269,"lng":11.3805,"regionId":"central_norway","regionName":"Central Norway","regionEmoji":"🏔️","image":"https://images.unsplash.com/photo-1714552526651-f52d8bffbf92?ixid=M3w5NTU4NjF8MHwxfHNlYXJjaHwxfHxSJUMzJUI4cm9zJTIwVU5FU0NPJTIwdG93biUyMHdvb2RlbiUyMGhvdXNlc3xlbnwxfDB8fHwxNzgzNDM2OTkyfDA&ixlib=rb-4.1.0&crop=entropy&cs=tinysrgb&fit=max&fm=jpg&q=80&w=1080"},{"placeId":"trondheim_fjord","name":"Trondheim Fjord","nameIt":"Trondheimsfjorden","type":"NATURE","lat":63.5,"lng":10.5,"regionId":"central_norway","regionName":"Central Norway","regionEmoji":"🏔️","image":"https://images.unsplash.com/photo-1731779457369-f3ab1cd25845?ixid=M3w5NTU4NjF8MHwxfHNlYXJjaHwxfHxUcm9uZGhlaW0lMjBGam9yZCUyMHNjZW5pY3xlbnwxfDB8fHwxNzgzNDM2OTk0fDA&ixlib=rb-4.1.0&crop=entropy&cs=tinysrgb&fit=max&fm=jpg&q=80&w=1080"},{"placeId":"levanger","name":"Levanger","nameIt":"Levanger","type":"TOWN","lat":64.2403,"lng":11.2727,"regionId":"central_norway","regionName":"Central Norway","regionEmoji":"🏔️","image":"https://images.unsplash.com/photo-1588001578593-7516c8a4111a?ixid=M3w5NTU4NjF8MHwxfHNlYXJjaHwxfHxMZXZhbmdlciUyME5vcndheSUyMHRvd24lMjByaXZlcnxlbnwxfDB8fHwxNzgzNDM2OTk2fDA&ixlib=rb-4.1.0&crop=entropy&cs=tinysrgb&fit=max&fm=jpg&q=80&w=1080"},{"placeId":"storofsen","name":"Storofsen","nameIt":"Storofsen","type":"NATURE","lat":65.1833,"lng":11.65,"regionId":"central_norway","regionName":"Central Norway","regionEmoji":"🏔️"},{"placeId":"malvik","name":"Malvik","nameIt":"Malvik","type":"COASTAL","lat":63.3833,"lng":10.4667,"regionId":"central_norway","regionName":"Central Norway","regionEmoji":"🏔️","image":"https://images.unsplash.com/photo-1596904988478-48e5bbe70337?ixid=M3w5NTU4NjF8MHwxfHNlYXJjaHwxfHxNYWx2aWslMjBiZWFjaCUyMFRyb25kaGVpbXxlbnwxfDB8fHwxNzgzNDM3MDAwfDA&ixlib=rb-4.1.0&crop=entropy&cs=tinysrgb&fit=max&fm=jpg&q=80&w=1080"},{"placeId":"verdalsora","name":"Verdalsøra","nameIt":"Verdalsøra","type":"VILLAGE","lat":64.3833,"lng":11.5333,"regionId":"central_norway","regionName":"Central Norway","regionEmoji":"🏔️","image":"https://images.unsplash.com/photo-1639687809372-fe6e87e05fe4?ixid=M3w5NTU4NjF8MHwxfHNlYXJjaHwxfHxWZXJkYWxzJUMzJUI4cmElMjB2aWxsYWdlJTIwVHIlQzMlQjhuZGVsYWd8ZW58MXwwfHx8MTc4MzQzNzAwMnww&ixlib=rb-4.1.0&crop=entropy&cs=tinysrgb&fit=max&fm=jpg&q=80&w=1080"},{"placeId":"tromso","name":"Tromsø","nameIt":"Tromsø","type":"CITY","lat":69.6492,"lng":18.9553,"regionId":"northern_norway","regionName":"Northern Norway","regionEmoji":"🌌","image":"https://images.unsplash.com/photo-1539635404198-d31262a9c586?ixid=M3w5NTU4NjF8MHwxfHNlYXJjaHwxfHxUcm9tcyVDMyVCOCUyMEFyY3RpYyUyMENhdGhlZHJhbHxlbnwxfDB8fHwxNzgzNDM3MDE0fDA&ixlib=rb-4.1.0&crop=entropy&cs=tinysrgb&fit=max&fm=jpg&q=80&w=1080"},{"placeId":"nordkapp","name":"North Cape","nameIt":"Nordkapp","type":"LANDMARK","lat":70.8121,"lng":25.6476,"regionId":"northern_norway","regionName":"Northern Norway","regionEmoji":"🌌","image":"https://images.unsplash.com/photo-1681036816746-f0bb3d7731e4?ixid=M3w5NTU4NjF8MHwxfHNlYXJjaHwxfHxOb3J0aCUyMENhcGUlMjBOb3Jka2FwcCUyMGNsaWZmfGVufDF8MHx8fDE3ODM0MzcwMTd8MA&ixlib=rb-4.1.0&crop=entropy&cs=tinysrgb&fit=max&fm=jpg&q=80&w=1080"},{"placeId":"svolvear","name":"Svolvær","nameIt":"Svolvær","type":"TOWN","lat":68.2232,"lng":14.5708,"regionId":"northern_norway","regionName":"Northern Norway","regionEmoji":"🌌","image":"https://images.unsplash.com/photo-1523480790568-0cc8ff425633?ixid=M3w5NTU4NjF8MHwxfHNlYXJjaHwxfHxTdm9sdiVDMyVBNnIlMjBMb2ZvdGVufGVufDF8MHx8fDE3ODM0MzcwMjF8MA&ixlib=rb-4.1.0&crop=entropy&cs=tinysrgb&fit=max&fm=jpg&q=80&w=1080"},{"placeId":"arctic_cathedral","name":"Arctic Cathedral","nameIt":"Ishavskatedralen","type":"LANDMARK","lat":69.6482,"lng":18.9742,"regionId":"northern_norway","regionName":"Northern Norway","regionEmoji":"🌌","image":"https://images.unsplash.com/photo-1539635404198-d31262a9c586?ixid=M3w5NTU4NjF8MHwxfHNlYXJjaHwxfHxBcmN0aWMlMjBDYXRoZWRyYWwlMjBUcm9tcyVDMyVCOHxlbnwxfDB8fHwxNzgzNDQxMDcyfDA&ixlib=rb-4.1.0&crop=entropy&cs=tinysrgb&fit=max&fm=jpg&q=80&w=1080"},{"placeId":"senja","name":"Senja Island","nameIt":"Senja","type":"ISLAND","lat":69.25,"lng":17.5,"regionId":"northern_norway","regionName":"Northern Norway","regionEmoji":"🌌","image":"https://images.unsplash.com/photo-1778694785099-eaf5c758f00e?ixid=M3w5NTU4NjF8MHwxfHNlYXJjaHwxfHxTZW5qYSUyMElzbGFuZCUyMHBlYWtzfGVufDF8MHx8fDE3ODM0NDEwNzR8MA&ixlib=rb-4.1.0&crop=entropy&cs=tinysrgb&fit=max&fm=jpg&q=80&w=1080"},{"placeId":"tana_bru","name":"Tana Bru","nameIt":"Tana Bru","type":"VILLAGE","lat":70.2833,"lng":27.65,"regionId":"northern_norway","regionName":"Northern Norway","regionEmoji":"🌌"},{"placeId":"honningsvag","name":"Honningsvåg","nameIt":"Honningsvåg","type":"TOWN","lat":70.9819,"lng":25.9831,"regionId":"northern_norway","regionName":"Northern Norway","regionEmoji":"🌌","image":"https://images.unsplash.com/photo-1629113980746-3586d60ccfea?ixid=M3w5NTU4NjF8MHwxfHNlYXJjaHwxfHxIb25uaW5nc3YlQzMlQTVnJTIwaGFyYm91cnxlbnwxfDB8fHwxNzgzNDQxMDc3fDA&ixlib=rb-4.1.0&crop=entropy&cs=tinysrgb&fit=max&fm=jpg&q=80&w=1080"},{"placeId":"nordreisa","name":"Nordreisa","nameIt":"Nordreisa","type":"TOWN","lat":69.2667,"lng":20.9333,"regionId":"northern_norway","regionName":"Northern Norway","regionEmoji":"🌌"},{"placeId":"northern_lights","name":"Northern Lights Viewing Zone","nameIt":"Nordlyset","type":"NATURE","lat":69.5,"lng":20,"regionId":"northern_norway","regionName":"Northern Norway","regionEmoji":"🌌","image":"https://images.unsplash.com/photo-1531366936337-7c912a4589a7?ixid=M3w5NTU4NjF8MHwxfHNlYXJjaHwxfHxOb3J0aGVybiUyMExpZ2h0cyUyMEF1cm9yYSUyMEJvcmVhbGlzfGVufDF8MHx8fDE3ODM0NDEwODB8MA&ixlib=rb-4.1.0&crop=entropy&cs=tinysrgb&fit=max&fm=jpg&q=80&w=1080"},{"placeId":"kirkenes","name":"Kirkenes","nameIt":"Kirkenes","type":"TOWN","lat":69.7282,"lng":29.047,"regionId":"northern_norway","regionName":"Northern Norway","regionEmoji":"🌌","image":"https://images.unsplash.com/photo-1748366615020-b2c2a4b1590c?ixid=M3w5NTU4NjF8MHwxfHNlYXJjaHwxfHxLaXJrZW5lcyUyMEFyY3RpYyUyMHRvd258ZW58MXwwfHx8MTc4MzQ0MTA4M3ww&ixlib=rb-4.1.0&crop=entropy&cs=tinysrgb&fit=max&fm=jpg&q=80&w=1080"},{"placeId":"kvaloya","name":"Kvaløya Island","nameIt":"Kvaløya","type":"ISLAND","lat":69.5,"lng":19,"regionId":"northern_norway","regionName":"Northern Norway","regionEmoji":"🌌"},{"placeId":"longyearbyen","name":"Longyearbyen","nameIt":"Longyearbyen","type":"TOWN","lat":78.2232,"lng":15.6267,"regionId":"arctic_norway","regionName":"Arctic Norway","regionEmoji":"❄️","image":"https://images.unsplash.com/photo-1705534314497-c5bd76f7ef30?ixid=M3w5NTU4NjF8MHwxfHNlYXJjaHwxfHxMb25neWVhcmJ5ZW4lMjBTdmFsYmFyZCUyMHNldHRsZW1lbnR8ZW58MXwwfHx8MTc4MzQ0MTA5N3ww&ixlib=rb-4.1.0&crop=entropy&cs=tinysrgb&fit=max&fm=jpg&q=80&w=1080"},{"placeId":"hammerfest","name":"Hammerfest","nameIt":"Hammerfest","type":"CITY","lat":70.9789,"lng":23.6794,"regionId":"arctic_norway","regionName":"Arctic Norway","regionEmoji":"❄️","image":"https://images.unsplash.com/photo-1714039095969-279da9f689a9?ixid=M3w5NTU4NjF8MHwxfHNlYXJjaHwxfHxIYW1tZXJmZXN0JTIwaGFyYm9yJTIwQXJjdGljJTIwY2l0eXxlbnwxfDB8fHwxNzgzNDQxMDk5fDA&ixlib=rb-4.1.0&crop=entropy&cs=tinysrgb&fit=max&fm=jpg&q=80&w=1080"},{"placeId":"alta","name":"Alta","nameIt":"Alta","type":"TOWN","lat":69.975,"lng":23.2711,"regionId":"arctic_norway","regionName":"Arctic Norway","regionEmoji":"❄️","image":"https://images.unsplash.com/photo-1531366936337-7c912a4589a7?ixid=M3w5NTU4NjF8MHwxfHNlYXJjaHwxfHxBbHRhJTIwbm9ydGhlcm4lMjBsaWdodHMlMjBhdXJvcmF8ZW58MXwwfHx8MTc4MzQ0MTEwMXww&ixlib=rb-4.1.0&crop=entropy&cs=tinysrgb&fit=max&fm=jpg&q=80&w=1080"},{"placeId":"nordkapp_plateau","name":"North Cape Plateau","nameIt":"Nordkapplatået","type":"NATURE","lat":70.8133,"lng":25.6456,"regionId":"arctic_norway","regionName":"Arctic Norway","regionEmoji":"❄️","image":"https://images.unsplash.com/photo-1665189329398-381e1f3cef96?ixid=M3w5NTU4NjF8MHwxfHNlYXJjaHwxfHxOb3J0aCUyMENhcGUlMjBwbGF0ZWF1JTIwdHVuZHJhJTIwbGFuZHNjYXBlfGVufDF8MHx8fDE3ODM0NDExMDR8MA&ixlib=rb-4.1.0&crop=entropy&cs=tinysrgb&fit=max&fm=jpg&q=80&w=1080"},{"placeId":"svalbard_wildlife","name":"Svalbard Wildlife","nameIt":"Svalbard Dyreliv","type":"NATURE","lat":78.2232,"lng":15.6267,"regionId":"arctic_norway","regionName":"Arctic Norway","regionEmoji":"❄️","image":"https://images.unsplash.com/photo-1563540807951-f1bdb4ac572b?ixid=M3w5NTU4NjF8MHwxfHNlYXJjaHwxfHxTdmFsYmFyZCUyMHBvbGFyJTIwYmVhciUyMHdpbGRsaWZlfGVufDF8MHx8fDE3ODM0NDExMDZ8MA&ixlib=rb-4.1.0&crop=entropy&cs=tinysrgb&fit=max&fm=jpg&q=80&w=1080"},{"placeId":"barentsburg","name":"Barentsburg","nameIt":"Barentsburg","type":"TOWN","lat":74.5047,"lng":19.0369,"regionId":"arctic_norway","regionName":"Arctic Norway","regionEmoji":"❄️"},{"placeId":"skaidi","name":"Skáidi","nameIt":"Skáidi","type":"VILLAGE","lat":70.3667,"lng":23.0333,"regionId":"arctic_norway","regionName":"Arctic Norway","regionEmoji":"❄️"},{"placeId":"nyalesund","name":"Ny-Ålesund","nameIt":"Ny-Ålesund","type":"VILLAGE","lat":78.925,"lng":11.93,"regionId":"arctic_norway","regionName":"Arctic Norway","regionEmoji":"❄️","image":"https://images.unsplash.com/photo-1485903266100-192c2e0af64f?ixid=M3w5NTU4NjF8MHwxfHNlYXJjaHwxfHxOeS0lQzMlODVsZXN1bmQlMjBTcGl0c2JlcmdlbiUyMG5vcnRoZXJubW9zdHxlbnwxfDB8fHwxNzgzNDQxMTEzfDA&ixlib=rb-4.1.0&crop=entropy&cs=tinysrgb&fit=max&fm=jpg&q=80&w=1080"},{"placeId":"vardo","name":"Vardø","nameIt":"Vardø","type":"COASTAL","lat":70.3705,"lng":31.1107,"regionId":"arctic_norway","regionName":"Arctic Norway","regionEmoji":"❄️"}]