[
  {
    "placeId": "oslo",
    "name": "Oslo",
    "nameIt": "Oslo",
    "type": "CITY",
    "lat": 59.9139,
    "lng": 10.7522,
    "regionId": "eastern_norway",
    "regionName": "Eastern Norway",
    "regionEmoji": "🏛️"
  },
  {
    "placeId": "lillehammer",
    "name": "Lillehammer",
    "nameIt": "Lillehammer",
    "type": "CITY",
    "lat": 61.1147,
    "lng": 10.4669,
    "regionId": "eastern_norway",
    "regionName": "Eastern Norway",
    "regionEmoji": "🏛️"
  },
  {
    "placeId": "gj_vik",
    "name": "Gjøvik",
    "nameIt": "Gjøvik",
    "type": "CITY",
    "lat": 60.7937,
    "lng": 10.6884,
    "regionId": "eastern_norway",
    "regionName": "Eastern Norway",
    "regionEmoji": "🏛️"
  },
  {
    "placeId": "hamar",
    "name": "Hamar",
    "nameIt": "Hamar",
    "type": "CITY",
    "lat": 60.5047,
    "lng": 10.7561,
    "regionId": "eastern_norway",
    "regionName": "Eastern Norway",
    "regionEmoji": "🏛️"
  },
  {
    "placeId": "rondane",
    "name": "Rondane National Park",
    "nameIt": "Rondane Nasjonalpark",
    "type": "NATURE",
    "lat": 61.5,
    "lng": 11,
    "regionId": "eastern_norway",
    "regionName": "Eastern Norway",
    "regionEmoji": "🏛️"
  },
  {
    "placeId": "gudbrandsdalslagen",
    "name": "Gudbrandsdalen Valley",
    "nameIt": "Gudbrandsdalen",
    "type": "NATURE",
    "lat": 61,
    "lng": 10.5,
    "regionId": "eastern_norway",
    "regionName": "Eastern Norway",
    "regionEmoji": "🏛️"
  },
  {
    "placeId": "lillehammer_olympic_park",
    "name": "Lillehammer Olympic Park",
    "nameIt": "Lillehammer Olympiapark",
    "type": "LANDMARK",
    "lat": 61.1273,
    "lng": 10.4751,
    "regionId": "eastern_norway",
    "regionName": "Eastern Norway",
    "regionEmoji": "🏛️"
  },
  {
    "placeId": "mj_sa_lake",
    "name": "Mjøsa Lake",
    "nameIt": "Mjøsa",
    "type": "NATURE",
    "lat": 60.7,
    "lng": 10.8,
    "regionId": "eastern_norway",
    "regionName": "Eastern Norway",
    "regionEmoji": "🏛️"
  },
  {
    "placeId": "drammen",
    "name": "Drammen",
    "nameIt": "Drammen",
    "type": "CITY",
    "lat": 59.7441,
    "lng": 10.2048,
    "regionId": "eastern_norway",
    "regionName": "Eastern Norway",
    "regionEmoji": "🏛️"
  },
  {
    "placeId": "fredrikstad",
    "name": "Fredrikstad",
    "nameIt": "Fredrikstad",
    "type": "CITY",
    "lat": 59.2156,
    "lng": 10.9251,
    "regionId": "eastern_norway",
    "regionName": "Eastern Norway",
    "regionEmoji": "🏛️"
  },
  {
    "placeId": "sarpsborg",
    "name": "Sarpsborg",
    "nameIt": "Sarpsborg",
    "type": "CITY",
    "lat": 59.2903,
    "lng": 10.8121,
    "regionId": "eastern_norway",
    "regionName": "Eastern Norway",
    "regionEmoji": "🏛️"
  },
  {
    "placeId": "oppdal",
    "name": "Oppdal",
    "nameIt": "Oppdal",
    "type": "TOWN",
    "lat": 62.5873,
    "lng": 11.3084,
    "regionId": "eastern_norway",
    "regionName": "Eastern Norway",
    "regionEmoji": "🏛️"
  },
  {
    "placeId": "hamar_viking_ship",
    "name": "Domkirkeodden",
    "nameIt": "Domkirkeodden",
    "type": "LANDMARK",
    "lat": 60.5064,
    "lng": 10.7625,
    "regionId": "eastern_norway",
    "regionName": "Eastern Norway",
    "regionEmoji": "🏛️"
  },
  {
    "placeId": "kristiansand",
    "name": "Kristiansand",
    "nameIt": "Kristiansand",
    "type": "CITY",
    "lat": 58.1456,
    "lng": 8.2728,
    "regionId": "southeastern_norway",
    "regionName": "Southeastern Norway",
    "regionEmoji": "🏖️"
  },
  {
    "placeId": "mandal",
    "name": "Mandal",
    "nameIt": "Mandal",
    "type": "TOWN",
    "lat": 58.0221,
    "lng": 7.6616,
    "regionId": "southeastern_norway",
    "regionName": "Southeastern Norway",
    "regionEmoji": "🏖️"
  },
  {
    "placeId": "farsund",
    "name": "Farsund",
    "nameIt": "Farsund",
    "type": "COASTAL",
    "lat": 58.2905,
    "lng": 6.8018,
    "regionId": "southeastern_norway",
    "regionName": "Southeastern Norway",
    "regionEmoji": "🏖️"
  },
  {
    "placeId": "lillesand",
    "name": "Lillesand",
    "nameIt": "Lillesand",
    "type": "COASTAL",
    "lat": 58.2506,
    "lng": 8.3788,
    "regionId": "southeastern_norway",
    "regionName": "Southeastern Norway",
    "regionEmoji": "🏖️"
  },
  {
    "placeId": "stavanger",
    "name": "Stavanger",
    "nameIt": "Stavanger",
    "type": "CITY",
    "lat": 58.97,
    "lng": 5.7331,
    "regionId": "southeastern_norway",
    "regionName": "Southeastern Norway",
    "regionEmoji": "🏖️"
  },
  {
    "placeId": "preikestolen",
    "name": "Preikestolen (Pulpit Rock)",
    "nameIt": "Preikestolen",
    "type": "LANDMARK",
    "lat": 58.9854,
    "lng": 6.1894,
    "regionId": "southeastern_norway",
    "regionName": "Southeastern Norway",
    "regionEmoji": "🏖️"
  },
  {
    "placeId": "arendal",
    "name": "Arendal",
    "nameIt": "Arendal",
    "type": "CITY",
    "lat": 58.4627,
    "lng": 8.7697,
    "regionId": "southeastern_norway",
    "regionName": "Southeastern Norway",
    "regionEmoji": "🏖️"
  },
  {
    "placeId": "grimstad",
    "name": "Grimstad",
    "nameIt": "Grimstad",
    "type": "TOWN",
    "lat": 58.3368,
    "lng": 8.5921,
    "regionId": "southeastern_norway",
    "regionName": "Southeastern Norway",
    "regionEmoji": "🏖️"
  },
  {
    "placeId": "lysefjord",
    "name": "Lysefjord",
    "nameIt": "Lysefjord",
    "type": "NATURE",
    "lat": 59,
    "lng": 6.5,
    "regionId": "southeastern_norway",
    "regionName": "Southeastern Norway",
    "regionEmoji": "🏖️"
  },
  {
    "placeId": "skagen",
    "name": "Skagen",
    "nameIt": "Skagen",
    "type": "VILLAGE",
    "lat": 58.0174,
    "lng": 6.8674,
    "regionId": "southeastern_norway",
    "regionName": "Southeastern Norway",
    "regionEmoji": "🏖️"
  },
  {
    "placeId": "tvedestrand",
    "name": "Tvedestrand",
    "nameIt": "Tvedestrand",
    "type": "COASTAL",
    "lat": 58.6048,
    "lng": 8.6583,
    "regionId": "southeastern_norway",
    "regionName": "Southeastern Norway",
    "regionEmoji": "🏖️"
  },
  {
    "placeId": "hank",
    "name": "Hankø",
    "nameIt": "Hankø",
    "type": "ISLAND",
    "lat": 58.8461,
    "lng": 9.0711,
    "regionId": "southeastern_norway",
    "regionName": "Southeastern Norway",
    "regionEmoji": "🏖️"
  },
  {
    "placeId": "kristiansand",
    "name": "Kristiansand",
    "nameIt": "Kristiansand",
    "type": "CITY",
    "lat": 58.1456,
    "lng": 8.272,
    "regionId": "southern_norway",
    "regionName": "Southern Norway",
    "regionEmoji": "🌊"
  },
  {
    "placeId": "stavanger",
    "name": "Stavanger",
    "nameIt": "Stavanger",
    "type": "CITY",
    "lat": 58.97,
    "lng": 5.7331,
    "regionId": "southern_norway",
    "regionName": "Southern Norway",
    "regionEmoji": "🌊"
  },
  {
    "placeId": "preikestolen",
    "name": "Preikestolen (Pulpit Rock)",
    "nameIt": "Preikestolen",
    "type": "LANDMARK",
    "lat": 58.9855,
    "lng": 6.1876,
    "regionId": "southern_norway",
    "regionName": "Southern Norway",
    "regionEmoji": "🌊"
  },
  {
    "placeId": "kjeragbolten",
    "name": "Kjeragbolten",
    "nameIt": "Kjeragbolten",
    "type": "LANDMARK",
    "lat": 58.995,
    "lng": 6.3419,
    "regionId": "southern_norway",
    "regionName": "Southern Norway",
    "regionEmoji": "🌊"
  },
  {
    "placeId": "lillesand",
    "name": "Lillesand",
    "nameIt": "Lillesand",
    "type": "COASTAL",
    "lat": 58.2542,
    "lng": 8.3914,
    "regionId": "southern_norway",
    "regionName": "Southern Norway",
    "regionEmoji": "🌊"
  },
  {
    "placeId": "mandal",
    "name": "Mandal",
    "nameIt": "Mandal",
    "type": "TOWN",
    "lat": 58.0233,
    "lng": 7.6741,
    "regionId": "southern_norway",
    "regionName": "Southern Norway",
    "regionEmoji": "🌊"
  },
  {
    "placeId": "flekkefjord",
    "name": "Flekkefjord",
    "nameIt": "Flekkefjord",
    "type": "TOWN",
    "lat": 58.2872,
    "lng": 6.6547,
    "regionId": "southern_norway",
    "regionName": "Southern Norway",
    "regionEmoji": "🌊"
  },
  {
    "placeId": "farsund",
    "name": "Farsund",
    "nameIt": "Farsund",
    "type": "TOWN",
    "lat": 58.0979,
    "lng": 6.7864,
    "regionId": "southern_norway",
    "regionName": "Southern Norway",
    "regionEmoji": "🌊"
  },
  {
    "placeId": "lindesnes",
    "name": "Lindesnes",
    "nameIt": "Lindesnes",
    "type": "LANDMARK",
    "lat": 57.9894,
    "lng": 7.0537,
    "regionId": "southern_norway",
    "regionName": "Southern Norway",
    "regionEmoji": "🌊"
  },
  {
    "placeId": "lista",
    "name": "Lista",
    "nameIt": "Lista",
    "type": "COASTAL",
    "lat": 58.0161,
    "lng": 6.5739,
    "regionId": "southern_norway",
    "regionName": "Southern Norway",
    "regionEmoji": "🌊"
  },
  {
    "placeId": "haukeland",
    "name": "Haukeland",
    "nameIt": "Haukeland",
    "type": "NATURE",
    "lat": 58.1167,
    "lng": 8.15,
    "regionId": "southern_norway",
    "regionName": "Southern Norway",
    "regionEmoji": "🌊"
  },
  {
    "placeId": "bergen",
    "name": "Bergen",
    "nameIt": "Bergen",
    "type": "CITY",
    "lat": 60.3913,
    "lng": 5.3221,
    "regionId": "western_norway",
    "regionName": "Western Norway",
    "regionEmoji": "⛰️"
  },
  {
    "placeId": "geirangerfjord",
    "name": "Geirangerfjord",
    "nameIt": "Geirangerfjorden",
    "type": "NATURE",
    "lat": 62.1016,
    "lng": 7.2627,
    "regionId": "western_norway",
    "regionName": "Western Norway",
    "regionEmoji": "⛰️"
  },
  {
    "placeId": "sognefjord",
    "name": "Sognefjord",
    "nameIt": "Sognefjorden",
    "type": "NATURE",
    "lat": 61.1,
    "lng": 6.5,
    "regionId": "western_norway",
    "regionName": "Western Norway",
    "regionEmoji": "⛰️"
  },
  {
    "placeId": "preikestolen",
    "name": "Preikestolen",
    "nameIt": "Preikestolen",
    "type": "LANDMARK",
    "lat": 58.9847,
    "lng": 6.1871,
    "regionId": "western_norway",
    "regionName": "Western Norway",
    "regionEmoji": "⛰️"
  },
  {
    "placeId": "stavanger",
    "name": "Stavanger",
    "nameIt": "Stavanger",
    "type": "CITY",
    "lat": 58.97,
    "lng": 5.7331,
    "regionId": "western_norway",
    "regionName": "Western Norway",
    "regionEmoji": "⛰️"
  },
  {
    "placeId": "flam",
    "name": "Flåm",
    "nameIt": "Flåm",
    "type": "VILLAGE",
    "lat": 60.8636,
    "lng": 7.1921,
    "regionId": "western_norway",
    "regionName": "Western Norway",
    "regionEmoji": "⛰️"
  },
  {
    "placeId": "lofoten",
    "name": "Lofoten Islands",
    "nameIt": "Lofoten",
    "type": "ISLAND",
    "lat": 68.25,
    "lng": 14.5,
    "regionId": "western_norway",
    "regionName": "Western Norway",
    "regionEmoji": "⛰️"
  },
  {
    "placeId": "nordfjordeid",
    "name": "Nordfjord Region",
    "nameIt": "Nordfjord",
    "type": "COASTAL",
    "lat": 61.8944,
    "lng": 5.8556,
    "regionId": "western_norway",
    "regionName": "Western Norway",
    "regionEmoji": "⛰️"
  },
  {
    "placeId": "hardangerfjord",
    "name": "Hardangerfjord",
    "nameIt": "Hardangerfjorden",
    "type": "NATURE",
    "lat": 60.25,
    "lng": 6.5,
    "regionId": "western_norway",
    "regionName": "Western Norway",
    "regionEmoji": "⛰️"
  },
  {
    "placeId": "odda",
    "name": "Odda",
    "nameIt": "Odda",
    "type": "TOWN",
    "lat": 60.075,
    "lng": 6.2275,
    "regionId": "western_norway",
    "regionName": "Western Norway",
    "regionEmoji": "⛰️"
  },
  {
    "placeId": "balestrand",
    "name": "Balestrand",
    "nameIt": "Balestrand",
    "type": "TOWN",
    "lat": 61.1778,
    "lng": 6.5083,
    "regionId": "western_norway",
    "regionName": "Western Norway",
    "regionEmoji": "⛰️"
  },
  {
    "placeId": "naeroyfjord",
    "name": "Nærøyfjord",
    "nameIt": "Nærøyfjorden",
    "type": "NATURE",
    "lat": 60.9447,
    "lng": 7.1333,
    "regionId": "western_norway",
    "regionName": "Western Norway",
    "regionEmoji": "⛰️"
  },
  {
    "placeId": "troms",
    "name": "Tromsø",
    "nameIt": "Tromsø",
    "type": "CITY",
    "lat": 69.6492,
    "lng": 18.9553,
    "regionId": "western_norway",
    "regionName": "Western Norway",
    "regionEmoji": "⛰️"
  },
  {
    "placeId": "geirangerfjord",
    "name": "Geirangerfjord",
    "nameIt": "Geirangerfjorden",
    "type": "NATURE",
    "lat": 62.1017,
    "lng": 7.2615,
    "regionId": "fjord_norway",
    "regionName": "Fjord Norway",
    "regionEmoji": "🛥️"
  },
  {
    "placeId": "flam",
    "name": "Flåm",
    "nameIt": "Flåm",
    "type": "TOWN",
    "lat": 60.8655,
    "lng": 7.1186,
    "regionId": "fjord_norway",
    "regionName": "Fjord Norway",
    "regionEmoji": "🛥️"
  },
  {
    "placeId": "bergen",
    "name": "Bergen",
    "nameIt": "Bergen",
    "type": "CITY",
    "lat": 60.3913,
    "lng": 5.3221,
    "regionId": "fjord_norway",
    "regionName": "Fjord Norway",
    "regionEmoji": "🛥️"
  },
  {
    "placeId": "sognefjord",
    "name": "Sognefjord",
    "nameIt": "Sognefjorden",
    "type": "NATURE",
    "lat": 61,
    "lng": 6.5,
    "regionId": "fjord_norway",
    "regionName": "Fjord Norway",
    "regionEmoji": "🛥️"
  },
  {
    "placeId": "hardangerfjord",
    "name": "Hardangerfjord",
    "nameIt": "Hardangerfjorden",
    "type": "NATURE",
    "lat": 60.3333,
    "lng": 6.5667,
    "regionId": "fjord_norway",
    "regionName": "Fjord Norway",
    "regionEmoji": "🛥️"
  },
  {
    "placeId": "voss",
    "name": "Voss",
    "nameIt": "Voss",
    "type": "TOWN",
    "lat": 60.5667,
    "lng": 6.4167,
    "regionId": "fjord_norway",
    "regionName": "Fjord Norway",
    "regionEmoji": "🛥️"
  },
  {
    "placeId": "jostedalsbreeen",
    "name": "Jostedalsbreen Glacier",
    "nameIt": "Jostedalsbreen",
    "type": "NATURE",
    "lat": 61.4167,
    "lng": 7.3333,
    "regionId": "fjord_norway",
    "regionName": "Fjord Norway",
    "regionEmoji": "🛥️"
  },
  {
    "placeId": "olden",
    "name": "Olden",
    "nameIt": "Olden",
    "type": "VILLAGE",
    "lat": 61.9033,
    "lng": 6.9242,
    "regionId": "fjord_norway",
    "regionName": "Fjord Norway",
    "regionEmoji": "🛥️"
  },
  {
    "placeId": "naeroyfjord",
    "name": "Nærøyfjord",
    "nameIt": "Nærøyfjorden",
    "type": "NATURE",
    "lat": 60.8417,
    "lng": 7.2583,
    "regionId": "fjord_norway",
    "regionName": "Fjord Norway",
    "regionEmoji": "🛥️"
  },
  {
    "placeId": "trondheim",
    "name": "Trondheim",
    "nameIt": "Trondheim",
    "type": "CITY",
    "lat": 63.4305,
    "lng": 10.3951,
    "regionId": "fjord_norway",
    "regionName": "Fjord Norway",
    "regionEmoji": "🛥️"
  },
  {
    "placeId": "moelkestrandvatnet",
    "name": "Moelkestrandvatnet",
    "nameIt": "Moelkestrandvatnet",
    "type": "LANDMARK",
    "lat": 61.9717,
    "lng": 6.445,
    "regionId": "fjord_norway",
    "regionName": "Fjord Norway",
    "regionEmoji": "🛥️"
  },
  {
    "placeId": "lillehammer",
    "name": "Lillehammer",
    "nameIt": "Lillehammer",
    "type": "CITY",
    "lat": 61.1167,
    "lng": 10.4667,
    "regionId": "fjord_norway",
    "regionName": "Fjord Norway",
    "regionEmoji": "🛥️"
  },
  {
    "placeId": "nidaros_cathedral",
    "name": "Nidaros Cathedral",
    "nameIt": "Nidarosdomen",
    "type": "LANDMARK",
    "lat": 63.4281,
    "lng": 10.3975,
    "regionId": "central_norway",
    "regionName": "Central Norway",
    "regionEmoji": "🏔️"
  },
  {
    "placeId": "trondheim",
    "name": "Trondheim",
    "nameIt": "Trondheim",
    "type": "CITY",
    "lat": 63.4305,
    "lng": 10.3951,
    "regionId": "central_norway",
    "regionName": "Central Norway",
    "regionEmoji": "🏔️"
  },
  {
    "placeId": "munkholmen",
    "name": "Munkholmen",
    "nameIt": "Munkholmen",
    "type": "ISLAND",
    "lat": 63.4436,
    "lng": 10.4228,
    "regionId": "central_norway",
    "regionName": "Central Norway",
    "regionEmoji": "🏔️"
  },
  {
    "placeId": "ringve_museum",
    "name": "Ringve Music Museum",
    "nameIt": "Ringve Musikkhist. samlinger",
    "type": "LANDMARK",
    "lat": 63.4658,
    "lng": 10.4425,
    "regionId": "central_norway",
    "regionName": "Central Norway",
    "regionEmoji": "🏔️"
  },
  {
    "placeId": "kristiansten_fortress",
    "name": "Kristiansten Fortress",
    "nameIt": "Kristiansten Festning",
    "type": "LANDMARK",
    "lat": 63.4155,
    "lng": 10.3832,
    "regionId": "central_norway",
    "regionName": "Central Norway",
    "regionEmoji": "🏔️"
  },
  {
    "placeId": "dronninghallen",
    "name": "Archbishop's Palace",
    "nameIt": "Erkebispegården",
    "type": "LANDMARK",
    "lat": 63.4292,
    "lng": 10.3985,
    "regionId": "central_norway",
    "regionName": "Central Norway",
    "regionEmoji": "🏔️"
  },
  {
    "placeId": "steinkjer",
    "name": "Steinkjer",
    "nameIt": "Steinkjer",
    "type": "TOWN",
    "lat": 64.0141,
    "lng": 11.4933,
    "regionId": "central_norway",
    "regionName": "Central Norway",
    "regionEmoji": "🏔️"
  },
  {
    "placeId": "orland_peninsula",
    "name": "Ørland Peninsula",
    "nameIt": "Ørland",
    "type": "COASTAL",
    "lat": 63.8983,
    "lng": 10.785,
    "regionId": "central_norway",
    "regionName": "Central Norway",
    "regionEmoji": "🏔️"
  },
  {
    "placeId": "roros",
    "name": "Røros",
    "nameIt": "Røros",
    "type": "TOWN",
    "lat": 65.0269,
    "lng": 11.3805,
    "regionId": "central_norway",
    "regionName": "Central Norway",
    "regionEmoji": "🏔️"
  },
  {
    "placeId": "trondheim_fjord",
    "name": "Trondheim Fjord",
    "nameIt": "Trondheimsfjorden",
    "type": "NATURE",
    "lat": 63.5,
    "lng": 10.5,
    "regionId": "central_norway",
    "regionName": "Central Norway",
    "regionEmoji": "🏔️"
  },
  {
    "placeId": "levanger",
    "name": "Levanger",
    "nameIt": "Levanger",
    "type": "TOWN",
    "lat": 64.2403,
    "lng": 11.2727,
    "regionId": "central_norway",
    "regionName": "Central Norway",
    "regionEmoji": "🏔️"
  },
  {
    "placeId": "storofsen",
    "name": "Storofsen",
    "nameIt": "Storofsen",
    "type": "NATURE",
    "lat": 65.1833,
    "lng": 11.65,
    "regionId": "central_norway",
    "regionName": "Central Norway",
    "regionEmoji": "🏔️"
  },
  {
    "placeId": "malvik",
    "name": "Malvik",
    "nameIt": "Malvik",
    "type": "COASTAL",
    "lat": 63.3833,
    "lng": 10.4667,
    "regionId": "central_norway",
    "regionName": "Central Norway",
    "regionEmoji": "🏔️"
  },
  {
    "placeId": "verdalsora",
    "name": "Verdalsøra",
    "nameIt": "Verdalsøra",
    "type": "VILLAGE",
    "lat": 64.3833,
    "lng": 11.5333,
    "regionId": "central_norway",
    "regionName": "Central Norway",
    "regionEmoji": "🏔️"
  },
  {
    "placeId": "tromso",
    "name": "Tromsø",
    "nameIt": "Tromsø",
    "type": "CITY",
    "lat": 69.6492,
    "lng": 18.9553,
    "regionId": "northern_norway",
    "regionName": "Northern Norway",
    "regionEmoji": "🌌"
  },
  {
    "placeId": "nordkapp",
    "name": "North Cape",
    "nameIt": "Nordkapp",
    "type": "LANDMARK",
    "lat": 70.8121,
    "lng": 25.6476,
    "regionId": "northern_norway",
    "regionName": "Northern Norway",
    "regionEmoji": "🌌"
  },
  {
    "placeId": "lofoten",
    "name": "Lofoten Islands",
    "nameIt": "Lofoten",
    "type": "ISLAND",
    "lat": 68.3821,
    "lng": 14.3938,
    "regionId": "northern_norway",
    "regionName": "Northern Norway",
    "regionEmoji": "🌌"
  },
  {
    "placeId": "svolvear",
    "name": "Svolvær",
    "nameIt": "Svolvær",
    "type": "TOWN",
    "lat": 68.2232,
    "lng": 14.5708,
    "regionId": "northern_norway",
    "regionName": "Northern Norway",
    "regionEmoji": "🌌"
  },
  {
    "placeId": "hammerfest",
    "name": "Hammerfest",
    "nameIt": "Hammerfest",
    "type": "CITY",
    "lat": 70.9789,
    "lng": 23.6797,
    "regionId": "northern_norway",
    "regionName": "Northern Norway",
    "regionEmoji": "🌌"
  },
  {
    "placeId": "alta",
    "name": "Alta",
    "nameIt": "Alta",
    "type": "CITY",
    "lat": 69.975,
    "lng": 23.0711,
    "regionId": "northern_norway",
    "regionName": "Northern Norway",
    "regionEmoji": "🌌"
  },
  {
    "placeId": "arctic_cathedral",
    "name": "Arctic Cathedral",
    "nameIt": "Ishavskatedralen",
    "type": "LANDMARK",
    "lat": 69.6482,
    "lng": 18.9742,
    "regionId": "northern_norway",
    "regionName": "Northern Norway",
    "regionEmoji": "🌌"
  },
  {
    "placeId": "senja",
    "name": "Senja Island",
    "nameIt": "Senja",
    "type": "ISLAND",
    "lat": 69.25,
    "lng": 17.5,
    "regionId": "northern_norway",
    "regionName": "Northern Norway",
    "regionEmoji": "🌌"
  },
  {
    "placeId": "tana_bru",
    "name": "Tana Bru",
    "nameIt": "Tana Bru",
    "type": "VILLAGE",
    "lat": 70.2833,
    "lng": 27.65,
    "regionId": "northern_norway",
    "regionName": "Northern Norway",
    "regionEmoji": "🌌"
  },
  {
    "placeId": "honningsvag",
    "name": "Honningsvåg",
    "nameIt": "Honningsvåg",
    "type": "TOWN",
    "lat": 70.9819,
    "lng": 25.9831,
    "regionId": "northern_norway",
    "regionName": "Northern Norway",
    "regionEmoji": "🌌"
  },
  {
    "placeId": "nordreisa",
    "name": "Nordreisa",
    "nameIt": "Nordreisa",
    "type": "TOWN",
    "lat": 69.2667,
    "lng": 20.9333,
    "regionId": "northern_norway",
    "regionName": "Northern Norway",
    "regionEmoji": "🌌"
  },
  {
    "placeId": "northern_lights",
    "name": "Northern Lights Viewing Zone",
    "nameIt": "Nordlyset",
    "type": "NATURE",
    "lat": 69.5,
    "lng": 20,
    "regionId": "northern_norway",
    "regionName": "Northern Norway",
    "regionEmoji": "🌌"
  },
  {
    "placeId": "kirkenes",
    "name": "Kirkenes",
    "nameIt": "Kirkenes",
    "type": "TOWN",
    "lat": 69.7282,
    "lng": 29.047,
    "regionId": "northern_norway",
    "regionName": "Northern Norway",
    "regionEmoji": "🌌"
  },
  {
    "placeId": "kvaloya",
    "name": "Kvaløya Island",
    "nameIt": "Kvaløya",
    "type": "ISLAND",
    "lat": 69.5,
    "lng": 19,
    "regionId": "northern_norway",
    "regionName": "Northern Norway",
    "regionEmoji": "🌌"
  },
  {
    "placeId": "troms",
    "name": "Tromsø",
    "nameIt": "Tromsø",
    "type": "CITY",
    "lat": 69.6492,
    "lng": 18.9553,
    "regionId": "arctic_norway",
    "regionName": "Arctic Norway",
    "regionEmoji": "❄️"
  },
  {
    "placeId": "nordkapp",
    "name": "North Cape",
    "nameIt": "Nordkapp",
    "type": "LANDMARK",
    "lat": 70.8116,
    "lng": 25.6475,
    "regionId": "arctic_norway",
    "regionName": "Arctic Norway",
    "regionEmoji": "❄️"
  },
  {
    "placeId": "longyearbyen",
    "name": "Longyearbyen",
    "nameIt": "Longyearbyen",
    "type": "TOWN",
    "lat": 78.2232,
    "lng": 15.6267,
    "regionId": "arctic_norway",
    "regionName": "Arctic Norway",
    "regionEmoji": "❄️"
  },
  {
    "placeId": "hammerfest",
    "name": "Hammerfest",
    "nameIt": "Hammerfest",
    "type": "CITY",
    "lat": 70.9789,
    "lng": 23.6794,
    "regionId": "arctic_norway",
    "regionName": "Arctic Norway",
    "regionEmoji": "❄️"
  },
  {
    "placeId": "alta",
    "name": "Alta",
    "nameIt": "Alta",
    "type": "TOWN",
    "lat": 69.975,
    "lng": 23.2711,
    "regionId": "arctic_norway",
    "regionName": "Arctic Norway",
    "regionEmoji": "❄️"
  },
  {
    "placeId": "nordkapp_plateau",
    "name": "North Cape Plateau",
    "nameIt": "Nordkapplatået",
    "type": "NATURE",
    "lat": 70.8133,
    "lng": 25.6456,
    "regionId": "arctic_norway",
    "regionName": "Arctic Norway",
    "regionEmoji": "❄️"
  },
  {
    "placeId": "svalbard_wildlife",
    "name": "Svalbard Wildlife",
    "nameIt": "Svalbard Dyreliv",
    "type": "NATURE",
    "lat": 78.2232,
    "lng": 15.6267,
    "regionId": "arctic_norway",
    "regionName": "Arctic Norway",
    "regionEmoji": "❄️"
  },
  {
    "placeId": "honningsvag",
    "name": "Honningsvåg",
    "nameIt": "Honningsvåg",
    "type": "COASTAL",
    "lat": 70.9833,
    "lng": 25.9833,
    "regionId": "arctic_norway",
    "regionName": "Arctic Norway",
    "regionEmoji": "❄️"
  },
  {
    "placeId": "barentsburg",
    "name": "Barentsburg",
    "nameIt": "Barentsburg",
    "type": "TOWN",
    "lat": 74.5047,
    "lng": 19.0369,
    "regionId": "arctic_norway",
    "regionName": "Arctic Norway",
    "regionEmoji": "❄️"
  },
  {
    "placeId": "skaidi",
    "name": "Skáidi",
    "nameIt": "Skáidi",
    "type": "VILLAGE",
    "lat": 70.3667,
    "lng": 23.0333,
    "regionId": "arctic_norway",
    "regionName": "Arctic Norway",
    "regionEmoji": "❄️"
  },
  {
    "placeId": "nyalesund",
    "name": "Ny-Ålesund",
    "nameIt": "Ny-Ålesund",
    "type": "VILLAGE",
    "lat": 78.925,
    "lng": 11.93,
    "regionId": "arctic_norway",
    "regionName": "Arctic Norway",
    "regionEmoji": "❄️"
  },
  {
    "placeId": "vardo",
    "name": "Vardø",
    "nameIt": "Vardø",
    "type": "COASTAL",
    "lat": 70.3705,
    "lng": 31.1107,
    "regionId": "arctic_norway",
    "regionName": "Arctic Norway",
    "regionEmoji": "❄️"
  },
  {
    "placeId": "kirkenes",
    "name": "Kirkenes",
    "nameIt": "Kirkenes",
    "type": "TOWN",
    "lat": 69.7282,
    "lng": 29.0471,
    "regionId": "arctic_norway",
    "regionName": "Arctic Norway",
    "regionEmoji": "❄️"
  }
]