[{"placeId":"sheikh_zayed_grand_mosque","name":"Sheikh Zayed Grand Mosque","nameIt":"جامع الشيخ زايد الكبير","type":"LANDMARK","lat":24.4136,"lng":54.3331,"regionId":"abu_dhabi","regionName":"Abu Dhabi","regionEmoji":"🕌","image":"https://images.unsplash.com/photo-1512970648279-ff3398568f77?ixid=M3w5NTU4NjF8MHwxfHNlYXJjaHwxfHxTaGVpa2glMjBaYXllZCUyMEdyYW5kJTIwTW9zcXVlJTIwd2hpdGUlMjBtYXJibGV8ZW58MXwwfHx8MTc4NDQ1MTQ3NHww&ixlib=rb-4.1.0&crop=entropy&cs=tinysrgb&fit=max&fm=jpg&q=80&w=1080"},{"placeId":"abu_dhabi_city","name":"Abu Dhabi","nameIt":"أبو ظبي","type":"CITY","lat":24.4539,"lng":54.3773,"regionId":"abu_dhabi","regionName":"Abu Dhabi","regionEmoji":"🕌","image":"https://images.unsplash.com/photo-1624317937315-0ced8736c9e9?ixid=M3w5NTU4NjF8MHwxfHNlYXJjaHwxfHxBYnUlMjBEaGFiaSUyMHNreWxpbmUlMjBjaXR5c2NhcGV8ZW58MXwwfHx8MTc4NDQ1MTQ3Nnww&ixlib=rb-4.1.0&crop=entropy&cs=tinysrgb&fit=max&fm=jpg&q=80&w=1080"},{"placeId":"louvre_abu_dhabi","name":"Louvre Abu Dhabi","nameIt":"متحف اللوفر أبو ظبي","type":"LANDMARK","lat":24.5325,"lng":54.4089,"regionId":"abu_dhabi","regionName":"Abu Dhabi","regionEmoji":"🕌","image":"https://images.unsplash.com/photo-1587421890935-5fb13a3beccc?ixid=M3w5NTU4NjF8MHwxfHNlYXJjaHwxfHxMb3V2cmUlMjBBYnUlMjBEaGFiaSUyMGRvbWUlMjBhcmNoaXRlY3R1cmV8ZW58MXwwfHx8MTc4NDQ1MTQ3OHww&ixlib=rb-4.1.0&crop=entropy&cs=tinysrgb&fit=max&fm=jpg&q=80&w=1080"},{"placeId":"saadiyat_island","name":"Saadiyat Island","nameIt":"جزيرة السعديات","type":"ISLAND","lat":24.5356,"lng":54.4089,"regionId":"abu_dhabi","regionName":"Abu Dhabi","regionEmoji":"🕌","image":"https://images.unsplash.com/photo-1584132967334-10e028bd69f7?ixid=M3w5NTU4NjF8MHwxfHNlYXJjaHwxfHxTYWFkaXlhdCUyMElzbGFuZCUyMGJlYWNoJTIwcmVzb3J0fGVufDF8MHx8fDE3ODQ0NTE0ODF8MA&ixlib=rb-4.1.0&crop=entropy&cs=tinysrgb&fit=max&fm=jpg&q=80&w=1080"},{"placeId":"corniche_beach","name":"Abu Dhabi Corniche","nameIt":"كورنيش أبو ظبي","type":"COASTAL","lat":24.4862,"lng":54.3641,"regionId":"abu_dhabi","regionName":"Abu Dhabi","regionEmoji":"🕌","image":"https://images.unsplash.com/photo-1718346523720-fae9ea12399a?ixid=M3w5NTU4NjF8MHwxfHNlYXJjaHwxfHxBYnUlMjBEaGFiaSUyMENvcm5pY2hlJTIwYmVhY2glMjBzdW5zZXR8ZW58MXwwfHx8MTc4NDQ1MTQ4M3ww&ixlib=rb-4.1.0&crop=entropy&cs=tinysrgb&fit=max&fm=jpg&q=80&w=1080"},{"placeId":"emirates_palace","name":"Emirates Palace","nameIt":"قصر الإمارات","type":"LANDMARK","lat":24.4906,"lng":54.3326,"regionId":"abu_dhabi","regionName":"Abu Dhabi","regionEmoji":"🕌"},{"placeId":"sheikh_zayed_palace_museum","name":"Sheikh Zayed Palace Museum","nameIt":"متحف قصر الشيخ زايد","type":"LANDMARK","lat":24.3578,"lng":54.3639,"regionId":"abu_dhabi","regionName":"Abu Dhabi","regionEmoji":"🕌","image":"https://images.unsplash.com/photo-1597147873356-ab36fc52dd2d?ixid=M3w5NTU4NjF8MHwxfHNlYXJjaHwxfHxTaGVpa2glMjBaYXllZCUyMFBhbGFjZSUyME11c2V1bSUyMHRyYWRpdGlvbmFsfGVufDF8MHx8fDE3ODQ0NTE0ODZ8MA&ixlib=rb-4.1.0&crop=entropy&cs=tinysrgb&fit=max&fm=jpg&q=80&w=1080"},{"placeId":"qasr_al_watan","name":"Qasr Al Watan (Presidential Palace)","nameIt":"قصر الوطن","type":"LANDMARK","lat":24.4175,"lng":54.3183,"regionId":"abu_dhabi","regionName":"Abu Dhabi","regionEmoji":"🕌","image":"https://images.unsplash.com/photo-1720754096019-d4330e022d97?ixid=M3w5NTU4NjF8MHwxfHNlYXJjaHwxfHxRYXNyJTIwQWwlMjBXYXRhbiUyMFByZXNpZGVudGlhbCUyMFBhbGFjZSUyMEFidSUyMERoYWJpfGVufDF8MHx8fDE3ODQ0NTE0ODh8MA&ixlib=rb-4.1.0&crop=entropy&cs=tinysrgb&fit=max&fm=jpg&q=80&w=1080"},{"placeId":"al_ain","name":"Al Ain","nameIt":"العين","type":"CITY","lat":24.1975,"lng":55.7659,"regionId":"abu_dhabi","regionName":"Abu Dhabi","regionEmoji":"🕌","image":"https://images.unsplash.com/photo-1682879654288-3bc35430b79f?ixid=M3w5NTU4NjF8MHwxfHNlYXJjaHwxfHxBbCUyMEFpbiUyMG9hc2lzJTIwZ2FyZGVuJTIwY2l0eXxlbnwxfDB8fHwxNzg0NDUxNDkxfDA&ixlib=rb-4.1.0&crop=entropy&cs=tinysrgb&fit=max&fm=jpg&q=80&w=1080"},{"placeId":"liwa_oasis","name":"Liwa Oasis","nameIt":"واحة الليوة","type":"NATURE","lat":22.8719,"lng":54.4581,"regionId":"abu_dhabi","regionName":"Abu Dhabi","regionEmoji":"🕌"},{"placeId":"al_maryah_island","name":"Al Maryah Island","nameIt":"جزيرة المريجة","type":"ISLAND","lat":24.5065,"lng":54.3762,"regionId":"abu_dhabi","regionName":"Abu Dhabi","regionEmoji":"🕌"},{"placeId":"mangrove_kayaking","name":"Mangrove Forests","nameIt":"غابات القرم","type":"NATURE","lat":24.3633,"lng":54.5378,"regionId":"abu_dhabi","regionName":"Abu Dhabi","regionEmoji":"🕌","image":"https://images.unsplash.com/photo-1667334258861-e73157fcc810?ixid=M3w5NTU4NjF8MHwxfHNlYXJjaHwxfHxBYnUlMjBEaGFiaSUyMG1hbmdyb3ZlJTIwa2F5YWtpbmd8ZW58MXwwfHx8MTc4NDQ1MTQ5NHww&ixlib=rb-4.1.0&crop=entropy&cs=tinysrgb&fit=max&fm=jpg&q=80&w=1080"},{"placeId":"national_auto_museum","name":"National Auto Museum","nameIt":"المتحف الوطني للسيارات","type":"LANDMARK","lat":24.1628,"lng":55.7519,"regionId":"abu_dhabi","regionName":"Abu Dhabi","regionEmoji":"🕌"},{"placeId":"jebel_hafeet","name":"Jebel Hafeet","nameIt":"جبل حفيت","type":"NATURE","lat":22.8328,"lng":53.8578,"regionId":"abu_dhabi","regionName":"Abu Dhabi","regionEmoji":"🕌","image":"https://images.unsplash.com/photo-1538426923164-6869f58ccae5?ixid=M3w5NTU4NjF8MHwxfHNlYXJjaHwxfHxKZWJlbCUyMEhhZmVldCUyMG1vdW50YWluJTIwZGVzZXJ0JTIwbGFuZHNjYXBlfGVufDF8MHx8fDE3ODQ0NTE0OTh8MA&ixlib=rb-4.1.0&crop=entropy&cs=tinysrgb&fit=max&fm=jpg&q=80&w=1080"},{"placeId":"burj_khalifa","name":"Burj Khalifa","nameIt":"برج خليفة","type":"LANDMARK","lat":25.1972,"lng":55.2744,"regionId":"dubai","regionName":"Dubai","regionEmoji":"🏙️"},{"placeId":"palm_jumeirah","name":"Palm Jumeirah","nameIt":"نخلة جميرة","type":"ISLAND","lat":25.1124,"lng":55.148,"regionId":"dubai","regionName":"Dubai","regionEmoji":"🏙️","image":"https://images.unsplash.com/photo-1682410601904-24ec1d9858e6?ixid=M3w5NTU4NjF8MHwxfHNlYXJjaHwxfHxQYWxtJTIwSnVtZWlyYWglMjBhZXJpYWwlMjB2aWV3fGVufDF8MHx8fDE3ODQyODU3Mjd8MA&ixlib=rb-4.1.0&crop=entropy&cs=tinysrgb&fit=max&fm=jpg&q=80&w=1080"},{"placeId":"dubai_marina","name":"Dubai Marina","nameIt":"مارينا دبي","type":"COASTAL","lat":25.0887,"lng":55.1395,"regionId":"dubai","regionName":"Dubai","regionEmoji":"🏙️","image":"https://images.unsplash.com/photo-1582120042072-d01e2fc8f3ea?ixid=M3w5NTU4NjF8MHwxfHNlYXJjaHwxfHxEdWJhaSUyME1hcmluYSUyMHdhdGVyZnJvbnR8ZW58MXwwfHx8MTc4NDI4NTcyOXww&ixlib=rb-4.1.0&crop=entropy&cs=tinysrgb&fit=max&fm=jpg&q=80&w=1080"},{"placeId":"old_town_dubai","name":"Old Town Dubai","nameIt":"بر دبي","type":"CITY","lat":25.2657,"lng":55.3017,"regionId":"dubai","regionName":"Dubai","regionEmoji":"🏙️"},{"placeId":"gold_souk","name":"Gold Souk","nameIt":"سوق الذهب","type":"LANDMARK","lat":25.2667,"lng":55.3054,"regionId":"dubai","regionName":"Dubai","regionEmoji":"🏙️","image":"https://images.unsplash.com/photo-1697380582263-ba9f5ef8cefa?ixid=M3w5NTU4NjF8MHwxfHNlYXJjaHwxfHxHb2xkJTIwU291ayUyMER1YmFpJTIwc2hvcHN8ZW58MXwwfHx8MTc4NDI4NTczMnww&ixlib=rb-4.1.0&crop=entropy&cs=tinysrgb&fit=max&fm=jpg&q=80&w=1080"},{"placeId":"spice_souk","name":"Spice Souk","nameIt":"سوق البهارات","type":"LANDMARK","lat":25.2658,"lng":55.3087,"regionId":"dubai","regionName":"Dubai","regionEmoji":"🏙️","image":"https://images.unsplash.com/photo-1726796065675-78e42f45e7ea?ixid=M3w5NTU4NjF8MHwxfHNlYXJjaHwxfHxTcGljZSUyMFNvdWslMjBEdWJhaSUyMG1hcmtldHxlbnwxfDB8fHwxNzg0Mjg1NzM0fDA&ixlib=rb-4.1.0&crop=entropy&cs=tinysrgb&fit=max&fm=jpg&q=80&w=1080"},{"placeId":"jumeirah_beach","name":"Jumeirah Beach","nameIt":"شاطئ جميرة","type":"COASTAL","lat":25.1842,"lng":55.1876,"regionId":"dubai","regionName":"Dubai","regionEmoji":"🏙️","image":"https://images.unsplash.com/photo-1523816572-a1a23d1a67b8?ixid=M3w5NTU4NjF8MHwxfHNlYXJjaHwxfHxKdW1laXJhaCUyMEJlYWNoJTIwRHViYWl8ZW58MXwwfHx8MTc4NDI4NTczNnww&ixlib=rb-4.1.0&crop=entropy&cs=tinysrgb&fit=max&fm=jpg&q=80&w=1080"},{"placeId":"burj_al_arab","name":"Burj Al Arab","nameIt":"برج العرب","type":"LANDMARK","lat":25.1414,"lng":55.1849,"regionId":"dubai","regionName":"Dubai","regionEmoji":"🏙️","image":"https://images.unsplash.com/photo-1688671525781-d9447cf1abd2?ixid=M3w5NTU4NjF8MHwxfHNlYXJjaHwxfHxCdXJqJTIwQWwlMjBBcmFiJTIwaG90ZWwlMjBzYWlsJTIwc2hhcGV8ZW58MXwwfHx8MTc4NDI4NTczOHww&ixlib=rb-4.1.0&crop=entropy&cs=tinysrgb&fit=max&fm=jpg&q=80&w=1080"},{"placeId":"dubai_mall","name":"The Dubai Mall","nameIt":"مول دبي","type":"LANDMARK","lat":25.1968,"lng":55.2732,"regionId":"dubai","regionName":"Dubai","regionEmoji":"🏙️","image":"https://images.unsplash.com/photo-1566454869316-b6cfb093a071?ixid=M3w5NTU4NjF8MHwxfHNlYXJjaHwxfHxEdWJhaSUyME1hbGwlMjBpbnRlcmlvcnxlbnwxfDB8fHwxNzg0Mjg1NzQwfDA&ixlib=rb-4.1.0&crop=entropy&cs=tinysrgb&fit=max&fm=jpg&q=80&w=1080"},{"placeId":"desert_safari","name":"Dubai Desert","nameIt":"صحراء دبي","type":"NATURE","lat":25.0734,"lng":55.4182,"regionId":"dubai","regionName":"Dubai","regionEmoji":"🏙️","image":"https://images.unsplash.com/photo-1520440718111-45fe694b330a?ixid=M3w5NTU4NjF8MHwxfHNlYXJjaHwxfHxEdWJhaSUyMGRlc2VydCUyMHNhbmQlMjBkdW5lc3xlbnwxfDB8fHwxNzg0Mjg1NzQxfDA&ixlib=rb-4.1.0&crop=entropy&cs=tinysrgb&fit=max&fm=jpg&q=80&w=1080"},{"placeId":"dubai_fountain","name":"Dubai Fountain","nameIt":"نافورة دبي","type":"LANDMARK","lat":25.1956,"lng":55.2746,"regionId":"dubai","regionName":"Dubai","regionEmoji":"🏙️","image":"https://images.unsplash.com/photo-1550686164-6f282d49c63c?ixid=M3w5NTU4NjF8MHwxfHNlYXJjaHwxfHxEdWJhaSUyMEZvdW50YWluJTIwc2hvdyUyMG5pZ2h0fGVufDF8MHx8fDE3ODQyODU3NDR8MA&ixlib=rb-4.1.0&crop=entropy&cs=tinysrgb&fit=max&fm=jpg&q=80&w=1080"},{"placeId":"creek_dhow_cruise","name":"Dubai Creek","nameIt":"خور دبي","type":"COASTAL","lat":25.2676,"lng":55.3167,"regionId":"dubai","regionName":"Dubai","regionEmoji":"🏙️","image":"https://images.unsplash.com/photo-1700556498243-9b5b66326e68?ixid=M3w5NTU4NjF8MHwxfHNlYXJjaHwxfHxEdWJhaSUyMENyZWVrJTIwZGhvdyUyMGNydWlzZXxlbnwxfDB8fHwxNzg0Mjg1NzQ2fDA&ixlib=rb-4.1.0&crop=entropy&cs=tinysrgb&fit=max&fm=jpg&q=80&w=1080"},{"placeId":"dubai_aquarium","name":"Dubai Aquarium & Underwater Zoo","nameIt":"حوض دبي المائي","type":"LANDMARK","lat":25.1963,"lng":55.273,"regionId":"dubai","regionName":"Dubai","regionEmoji":"🏙️","image":"https://images.unsplash.com/photo-1502998732392-615e9b445fa4?ixid=M3w5NTU4NjF8MHwxfHNlYXJjaHwxfHxEdWJhaSUyMEFxdWFyaXVtJTIwc2hhcmslMjB0YW5rfGVufDF8MHx8fDE3ODQyODU3NDh8MA&ixlib=rb-4.1.0&crop=entropy&cs=tinysrgb&fit=max&fm=jpg&q=80&w=1080"},{"placeId":"sheikh_mohammed_centre","name":"Sheikh Mohammed Centre for Cultural Understanding","nameIt":"مركز الشيخ محمد للتفاهم الحضاري","type":"LANDMARK","lat":25.2667,"lng":55.3138,"regionId":"dubai","regionName":"Dubai","regionEmoji":"🏙️"},{"placeId":"dubai_city","name":"Dubai","type":"CITY","lat":25.2048,"lng":55.2708,"regionId":"dubai","regionName":"Dubai","regionEmoji":"🏙️","image":"https://images.unsplash.com/photo-1512453979798-5ea266f8880c?ixid=M3w5NTU4NjF8MHwxfHNlYXJjaHwxfHxEdWJhaSUyMFVuaXRlZCUyMEFyYWIlMjBFbWlyYXRlc3xlbnwxfDB8fHwxNzg0Mjg1NzUxfDA&ixlib=rb-4.1.0&crop=entropy&cs=tinysrgb&fit=max&fm=jpg&q=80&w=1080"},{"placeId":"sharjah_city_center","name":"Sharjah City Center","nameIt":"مدينة الشارقة","type":"CITY","lat":25.3548,"lng":55.3915,"regionId":"sharjah","regionName":"Sharjah","regionEmoji":"🎨","image":"https://images.unsplash.com/photo-1733066529018-ecf7c7c907f4?ixid=M3w5NTU4NjF8MHwxfHNlYXJjaHwxfHxTaGFyamFoJTIwQmx1ZSUyMFNvdWslMjB0dXJxdW9pc2UlMjBkb21lfGVufDF8MHx8fDE3ODQ0NTE1NTl8MA&ixlib=rb-4.1.0&crop=entropy&cs=tinysrgb&fit=max&fm=jpg&q=80&w=1080"},{"placeId":"al_noor_island","name":"Al Noor Island","nameIt":"جزيرة النور","type":"ISLAND","lat":25.2828,"lng":55.3342,"regionId":"sharjah","regionName":"Sharjah","regionEmoji":"🎨"},{"placeId":"sharjah_museum_islamic_civilization","name":"Museum of Islamic Civilization","nameIt":"متحف الحضارة الإسلامية","type":"LANDMARK","lat":25.3602,"lng":55.3823,"regionId":"sharjah","regionName":"Sharjah","regionEmoji":"🎨","image":"https://images.unsplash.com/photo-1696509528169-1d449507f313?ixid=M3w5NTU4NjF8MHwxfHNlYXJjaHwxfHxNdXNldW0lMjBJc2xhbWljJTIwQ2l2aWxpemF0aW9uJTIwU2hhcmphaHxlbnwxfDB8fHwxNzg0NDUxNTYyfDA&ixlib=rb-4.1.0&crop=entropy&cs=tinysrgb&fit=max&fm=jpg&q=80&w=1080"},{"placeId":"sharjah_arts_museum","name":"Sharjah Art Museum","nameIt":"متحف الشارقة للفنون","type":"LANDMARK","lat":25.3615,"lng":55.3843,"regionId":"sharjah","regionName":"Sharjah","regionEmoji":"🎨","image":"https://images.unsplash.com/photo-1651566222024-6df11f897be2?ixid=M3w5NTU4NjF8MHwxfHNlYXJjaHwxfHxTaGFyamFoJTIwQXJ0JTIwTXVzZXVtJTIwZXhoaWJpdGlvbnN8ZW58MXwwfHx8MTc4NDQ1MTU2NHww&ixlib=rb-4.1.0&crop=entropy&cs=tinysrgb&fit=max&fm=jpg&q=80&w=1080"},{"placeId":"al_qasba","name":"Al Qasba","nameIt":"القصبة","type":"LANDMARK","lat":25.2482,"lng":55.3206,"regionId":"sharjah","regionName":"Sharjah","regionEmoji":"🎨"},{"placeId":"al_majaz_waterfront","name":"Al Majaz Waterfront","nameIt":"ساحل المجاز","type":"COASTAL","lat":25.2786,"lng":55.3189,"regionId":"sharjah","regionName":"Sharjah","regionEmoji":"🎨"},{"placeId":"sharjah_natural_history_museum","name":"Natural History Museum","nameIt":"متحف التاريخ الطبيعي","type":"LANDMARK","lat":25.3531,"lng":55.3941,"regionId":"sharjah","regionName":"Sharjah","regionEmoji":"🎨"},{"placeId":"khalid_lagoon","name":"Khalid Lagoon","nameIt":"بحيرة خالد","type":"NATURE","lat":25.275,"lng":55.315,"regionId":"sharjah","regionName":"Sharjah","regionEmoji":"🎨","image":"https://images.unsplash.com/photo-1678521534518-af8dc8dd9b8f?ixid=M3w5NTU4NjF8MHwxfHNlYXJjaHwxfHxLaGFsaWQlMjBMYWdvb24lMjBTaGFyamFoJTIwYmlyZHN8ZW58MXwwfHx8MTc4NDQ1MTU2OXww&ixlib=rb-4.1.0&crop=entropy&cs=tinysrgb&fit=max&fm=jpg&q=80&w=1080"},{"placeId":"sharjah_heritage_area","name":"Sharjah Heritage Area","nameIt":"منطقة الشارقة التراثية","type":"LANDMARK","lat":25.3627,"lng":55.3885,"regionId":"sharjah","regionName":"Sharjah","regionEmoji":"🎨"},{"placeId":"central_souk","name":"Central Souk","nameIt":"السوق المركزي","type":"LANDMARK","lat":25.3589,"lng":55.3902,"regionId":"sharjah","regionName":"Sharjah","regionEmoji":"🎨"},{"placeId":"wasit_wetland_sanctuary","name":"Wasit Wetland Sanctuary","nameIt":"محمية الوسيع الرطبة","type":"NATURE","lat":25.4189,"lng":55.5256,"regionId":"sharjah","regionName":"Sharjah","regionEmoji":"🎨","image":"https://images.unsplash.com/photo-1589556183130-530470785fab?ixid=M3w5NTU4NjF8MHwxfHNlYXJjaHwxfHxXYXNpdCUyMFdldGxhbmQlMjBTYW5jdHVhcnklMjBtYW5ncm92ZXN8ZW58MXwwfHx8MTc4NDQ1MTU3M3ww&ixlib=rb-4.1.0&crop=entropy&cs=tinysrgb&fit=max&fm=jpg&q=80&w=1080"},{"placeId":"sharjah_science_museum","name":"Sharjah Science Museum","nameIt":"متحف الشارقة للعلوم","type":"LANDMARK","lat":25.3614,"lng":55.3846,"regionId":"sharjah","regionName":"Sharjah","regionEmoji":"🎨"},{"placeId":"khorfakkan_beach","name":"Khorfakkan","nameIt":"خورفكان","type":"COASTAL","lat":25.3658,"lng":56.3448,"regionId":"sharjah","regionName":"Sharjah","regionEmoji":"🎨"},{"placeId":"kalba_lagoon","name":"Kalba","nameIt":"كلبا","type":"COASTAL","lat":25.22,"lng":56.3403,"regionId":"sharjah","regionName":"Sharjah","regionEmoji":"🎨","image":"https://images.unsplash.com/photo-1612103183244-7598b792bb05?ixid=M3w5NTU4NjF8MHwxfHNlYXJjaHwxfHxLYWxiYSUyMFNoYXJqYWglMjBsYWdvb24lMjBtYW5ncm92ZXN8ZW58MXwwfHx8MTc4NDQ1MTU3OHww&ixlib=rb-4.1.0&crop=entropy&cs=tinysrgb&fit=max&fm=jpg&q=80&w=1080"},{"placeId":"sharjah_city","name":"Sharjah","type":"CITY","lat":25.3548,"lng":55.3915,"regionId":"sharjah","regionName":"Sharjah","regionEmoji":"🎨","image":"https://images.unsplash.com/photo-1637987897990-e660edd0af44?ixid=M3w5NTU4NjF8MHwxfHNlYXJjaHwxfHxTaGFyamFoJTIwVW5pdGVkJTIwQXJhYiUyMEVtaXJhdGVzfGVufDF8MHx8fDE3ODQ0NTE1ODF8MA&ixlib=rb-4.1.0&crop=entropy&cs=tinysrgb&fit=max&fm=jpg&q=80&w=1080"},{"placeId":"ajman_city","name":"Ajman City","nameIt":"مدينة عجمان","type":"CITY","lat":25.3959,"lng":55.4167,"regionId":"ajman","regionName":"Ajman","regionEmoji":"🏖️","image":"https://images.unsplash.com/photo-1561092894-962f57788d59?ixid=M3w5NTU4NjF8MHwxfHNlYXJjaHwxfHxBam1hbiUyMGNvcm5pY2hlJTIwd2F0ZXJmcm9udHxlbnwxfDB8fHwxNzg0NDUxNjY5fDA&ixlib=rb-4.1.0&crop=entropy&cs=tinysrgb&fit=max&fm=jpg&q=80&w=1080"},{"placeId":"ajman_museum","name":"Ajman Museum","nameIt":"متحف عجمان","type":"LANDMARK","lat":25.3975,"lng":55.4188,"regionId":"ajman","regionName":"Ajman","regionEmoji":"🏖️"},{"placeId":"ajman_souk","name":"Ajman Souk","nameIt":"سوق عجمان","type":"LANDMARK","lat":25.3952,"lng":55.4211,"regionId":"ajman","regionName":"Ajman","regionEmoji":"🏖️"},{"placeId":"ajman_beach","name":"Ajman Public Beach","nameIt":"شاطئ عجمان العام","type":"COASTAL","lat":25.3965,"lng":55.425,"regionId":"ajman","regionName":"Ajman","regionEmoji":"🏖️"},{"placeId":"masfout","name":"Masfout","nameIt":"مصفوت","type":"TOWN","lat":25.2833,"lng":55.7333,"regionId":"ajman","regionName":"Ajman","regionEmoji":"🏖️","image":"https://images.unsplash.com/photo-1569498283068-140e58143192?ixid=M3w5NTU4NjF8MHwxfHNlYXJjaHwxfHxNYXNmb3V0JTIwbW91bnRhaW4lMjB0b3duJTIwbGFuZHNjYXBlfGVufDF8MHx8fDE3ODQ0NTE2NzV8MA&ixlib=rb-4.1.0&crop=entropy&cs=tinysrgb&fit=max&fm=jpg&q=80&w=1080"},{"placeId":"manama_island","name":"Manama Island","nameIt":"جزيرة مناما","type":"ISLAND","lat":25.3556,"lng":55.5389,"regionId":"ajman","regionName":"Ajman","regionEmoji":"🏖️"},{"placeId":"ajman_corniche","name":"Ajman Corniche","nameIt":"كورنيش عجمان","type":"COASTAL","lat":25.3968,"lng":55.422,"regionId":"ajman","regionName":"Ajman","regionEmoji":"🏖️"},{"placeId":"sheikh_zayed_mosque","name":"Sheikh Zayed Mosque","nameIt":"مسجد الشيخ زايد","type":"LANDMARK","lat":25.3878,"lng":55.4089,"regionId":"ajman","regionName":"Ajman","regionEmoji":"🏖️","image":"https://images.unsplash.com/photo-1706413639793-1ad524e698ae?ixid=M3w5NTU4NjF8MHwxfHNlYXJjaHwxfHxTaGVpa2glMjBaYXllZCUyME1vc3F1ZSUyMEFqbWFuJTIwYXJjaGl0ZWN0dXJlfGVufDF8MHx8fDE3ODQ0NTE2Nzl8MA&ixlib=rb-4.1.0&crop=entropy&cs=tinysrgb&fit=max&fm=jpg&q=80&w=1080"},{"placeId":"ajman_marina","name":"Ajman Marina","nameIt":"مرسى عجمان","type":"COASTAL","lat":25.385,"lng":55.44,"regionId":"ajman","regionName":"Ajman","regionEmoji":"🏖️"},{"placeId":"umm_al_quwain_city","name":"Umm Al Quwain City","nameIt":"مدينة أم القيوين","type":"CITY","lat":25.5648,"lng":55.7567,"regionId":"umm_al_quwain","regionName":"Umm Al Quwain","regionEmoji":"⛵","image":"https://images.unsplash.com/photo-1582120042072-d01e2fc8f3ea?ixid=M3w5NTU4NjF8MHwxfHNlYXJjaHwxfHxVbW0lMjBBbCUyMFF1d2FpbiUyMGNpdHklMjB3YXRlcmZyb250fGVufDF8MHx8fDE3ODQ0NTcxNzR8MA&ixlib=rb-4.1.0&crop=entropy&cs=tinysrgb&fit=max&fm=jpg&q=80&w=1080"},{"placeId":"umm_al_quwain_marina","name":"Umm Al Quwain Marina","nameIt":"مارينا أم القيوين","type":"COASTAL","lat":25.562,"lng":55.752,"regionId":"umm_al_quwain","regionName":"Umm Al Quwain","regionEmoji":"⛵"},{"placeId":"umm_al_quwain_museum","name":"Umm Al Quwain Museum","nameIt":"متحف أم القيوين","type":"LANDMARK","lat":25.567,"lng":55.759,"regionId":"umm_al_quwain","regionName":"Umm Al Quwain","regionEmoji":"⛵"},{"placeId":"dreamland_aqua_park","name":"Dreamland Aqua Park","nameIt":"ملاهي دريملاند المائية","type":"LANDMARK","lat":25.548,"lng":55.735,"regionId":"umm_al_quwain","regionName":"Umm Al Quwain","regionEmoji":"⛵"},{"placeId":"al_quwain_beach","name":"Al Quwain Public Beach","nameIt":"شاطئ أم القيوين العام","type":"COASTAL","lat":25.57,"lng":55.76,"regionId":"umm_al_quwain","regionName":"Umm Al Quwain","regionEmoji":"⛵"},{"placeId":"umm_al_quwain_islands","name":"Umm Al Quwain Islands","nameIt":"جزر أم القيوين","type":"ISLAND","lat":25.55,"lng":55.65,"regionId":"umm_al_quwain","regionName":"Umm Al Quwain","regionEmoji":"⛵","image":"https://images.unsplash.com/photo-1565369728672-523bc7e59df2?ixid=M3w5NTU4NjF8MHwxfHNlYXJjaHwxfHxVbW0lMjBBbCUyMFF1d2FpbiUyMGlzbGFuZHMlMjBib2F0c3xlbnwxfDB8fHwxNzg0NDU3MTgxfDA&ixlib=rb-4.1.0&crop=entropy&cs=tinysrgb&fit=max&fm=jpg&q=80&w=1080"},{"placeId":"al_manara_beach","name":"Al Manara Beach","nameIt":"شاطئ المنارة","type":"COASTAL","lat":25.545,"lng":55.78,"regionId":"umm_al_quwain","regionName":"Umm Al Quwain","regionEmoji":"⛵"},{"placeId":"al_dar_al_baraka","name":"Al Dar Al Baraka (Heritage House)","nameIt":"دار البركة","type":"LANDMARK","lat":25.568,"lng":55.758,"regionId":"umm_al_quwain","regionName":"Umm Al Quwain","regionEmoji":"⛵","image":"https://images.unsplash.com/photo-1595576278564-6ca2675dbfb5?ixid=M3w5NTU4NjF8MHwxfHNlYXJjaHwxfHxBbCUyMERhciUyMEFsJTIwQmFyYWthJTIwaGVyaXRhZ2UlMjBob3VzZXxlbnwxfDB8fHwxNzg0NDU3MTg0fDA&ixlib=rb-4.1.0&crop=entropy&cs=tinysrgb&fit=max&fm=jpg&q=80&w=1080"},{"placeId":"umm_al_quwain_golf_club","name":"Umm Al Quwain Golf Club","nameIt":"نادي أم القيوين للجولف","type":"LANDMARK","lat":25.555,"lng":55.745,"regionId":"umm_al_quwain","regionName":"Umm Al Quwain","regionEmoji":"⛵","image":"https://images.unsplash.com/photo-1538648759472-7251f7cb2c2f?ixid=M3w5NTU4NjF8MHwxfHNlYXJjaHwxfHxVbW0lMjBBbCUyMFF1d2FpbiUyMGdvbGYlMjBjb3Vyc2V8ZW58MXwwfHx8MTc4NDQ1NzE4Nnww&ixlib=rb-4.1.0&crop=entropy&cs=tinysrgb&fit=max&fm=jpg&q=80&w=1080"},{"placeId":"khor_al_quwain","name":"Khor Al Quwain (Lagoon)","nameIt":"خور أم القيوين","type":"NATURE","lat":25.58,"lng":55.72,"regionId":"umm_al_quwain","regionName":"Umm Al Quwain","regionEmoji":"⛵","image":"https://images.unsplash.com/photo-1612103183244-7598b792bb05?ixid=M3w5NTU4NjF8MHwxfHNlYXJjaHwxfHxLaG9yJTIwQWwlMjBRdXdhaW4lMjBsYWdvb24lMjBtYW5ncm92ZXN8ZW58MXwwfHx8MTc4NDQ1NzE4OHww&ixlib=rb-4.1.0&crop=entropy&cs=tinysrgb&fit=max&fm=jpg&q=80&w=1080"},{"placeId":"al_quwain_fort","name":"Al Quwain Fort","nameIt":"حصن أم القيوين","type":"LANDMARK","lat":25.567,"lng":55.76,"regionId":"umm_al_quwain","regionName":"Umm Al Quwain","regionEmoji":"⛵","image":"https://images.unsplash.com/photo-1764583885277-397894401197?ixid=M3w5NTU4NjF8MHwxfHNlYXJjaHwxfHxBbCUyMFF1d2FpbiUyMGZvcnQlMjBoaXN0b3JpY3xlbnwxfDB8fHwxNzg0NDU3MTkwfDA&ixlib=rb-4.1.0&crop=entropy&cs=tinysrgb&fit=max&fm=jpg&q=80&w=1080"},{"placeId":"ras_al_khaimah_city","name":"Ras Al Khaimah City","nameIt":"مدينة رأس الخيمة","type":"CITY","lat":25.7854,"lng":55.9754,"regionId":"ras_al_khaimah","regionName":"Ras Al Khaimah","regionEmoji":"⛰️","image":"https://images.unsplash.com/photo-1537345532964-7c8f0749f8b8?ixid=M3w5NTU4NjF8MHwxfHNlYXJjaHwxfHxSYXMlMjBBbCUyMEtoYWltYWglMjBjaXR5JTIwY29ybmljaGV8ZW58MXwwfHx8MTc4NDQ2MDY2Nnww&ixlib=rb-4.1.0&crop=entropy&cs=tinysrgb&fit=max&fm=jpg&q=80&w=1080"},{"placeId":"jebel_jais","name":"Jebel Jais","nameIt":"جبل جيس","type":"NATURE","lat":25.9642,"lng":55.9367,"regionId":"ras_al_khaimah","regionName":"Ras Al Khaimah","regionEmoji":"⛰️","image":"https://images.unsplash.com/photo-1680425982106-4a7af217e2a6?ixid=M3w5NTU4NjF8MHwxfHNlYXJjaHwxfHxKZWJlbCUyMEphaXMlMjBtb3VudGFpbiUyMFVBRXxlbnwxfDB8fHwxNzg0NDYwNjY4fDA&ixlib=rb-4.1.0&crop=entropy&cs=tinysrgb&fit=max&fm=jpg&q=80&w=1080"},{"placeId":"ras_al_khaimah_beach","name":"Ras Al Khaimah Public Beach","nameIt":"شاطئ رأس الخيمة العام","type":"COASTAL","lat":25.7735,"lng":55.9685,"regionId":"ras_al_khaimah","regionName":"Ras Al Khaimah","regionEmoji":"⛰️"},{"placeId":"al_marjan_island","name":"Al Marjan Island","nameIt":"جزيرة المرجان","type":"ISLAND","lat":25.7894,"lng":55.9412,"regionId":"ras_al_khaimah","regionName":"Ras Al Khaimah","regionEmoji":"⛰️","image":"https://images.unsplash.com/photo-1744296133507-9efbce7a54d7?ixid=M3w5NTU4NjF8MHwxfHNlYXJjaHwxfHxBbCUyME1hcmphbiUyMElzbGFuZCUyMFJhcyUyMEFsJTIwS2hhaW1haHxlbnwxfDB8fHwxNzg0NDYwNjcxfDA&ixlib=rb-4.1.0&crop=entropy&cs=tinysrgb&fit=max&fm=jpg&q=80&w=1080"},{"placeId":"khatt_hot_springs","name":"Khatt Hot Springs","nameIt":"عيون خطة الساخنة","type":"NATURE","lat":25.9181,"lng":55.8839,"regionId":"ras_al_khaimah","regionName":"Ras Al Khaimah","regionEmoji":"⛰️","image":"https://images.unsplash.com/photo-1706620416248-229db458a83f?ixid=M3w5NTU4NjF8MHwxfHNlYXJjaHwxfHxLaGF0dCUyMGhvdCUyMHNwcmluZ3MlMjBSYXMlMjBBbCUyMEtoYWltYWh8ZW58MXwwfHx8MTc4NDQ2MDY3M3ww&ixlib=rb-4.1.0&crop=entropy&cs=tinysrgb&fit=max&fm=jpg&q=80&w=1080"},{"placeId":"ras_al_khaimah_museum","name":"Ras Al Khaimah National Museum","nameIt":"متحف رأس الخيمة الوطني","type":"LANDMARK","lat":25.7879,"lng":55.9655,"regionId":"ras_al_khaimah","regionName":"Ras Al Khaimah","regionEmoji":"⛰️"},{"placeId":"hajar_mountains","name":"Hajar Mountains","nameIt":"جبال الحجر","type":"NATURE","lat":25.8903,"lng":55.9156,"regionId":"ras_al_khaimah","regionName":"Ras Al Khaimah","regionEmoji":"⛰️","image":"https://images.unsplash.com/photo-1763544376772-97c309c39562?ixid=M3w5NTU4NjF8MHwxfHNlYXJjaHwxfHxIYWphciUyME1vdW50YWlucyUyMFJhcyUyMEFsJTIwS2hhaW1haCUyMGhpa2luZ3xlbnwxfDB8fHwxNzg0NDYwNjc2fDA&ixlib=rb-4.1.0&crop=entropy&cs=tinysrgb&fit=max&fm=jpg&q=80&w=1080"},{"placeId":"dibba","name":"Dibba","nameIt":"الدبا","type":"TOWN","lat":26.1627,"lng":56.269,"regionId":"ras_al_khaimah","regionName":"Ras Al Khaimah","regionEmoji":"⛰️","image":"https://images.unsplash.com/photo-1744296133507-9efbce7a54d7?ixid=M3w5NTU4NjF8MHwxfHNlYXJjaHwxfHxEaWJiYSUyMFJhcyUyMEFsJTIwS2hhaW1haCUyMGNvYXN0fGVufDF8MHx8fDE3ODQ0NjA2Nzh8MA&ixlib=rb-4.1.0&crop=entropy&cs=tinysrgb&fit=max&fm=jpg&q=80&w=1080"},{"placeId":"wadi_shawka","name":"Wadi Shawka","nameIt":"وادي شوكة","type":"NATURE","lat":25.8845,"lng":55.8923,"regionId":"ras_al_khaimah","regionName":"Ras Al Khaimah","regionEmoji":"⛰️"},{"placeId":"al_qasimi_palace","name":"Al Qasimi Palace","nameIt":"قصر القاسمي","type":"LANDMARK","lat":25.7854,"lng":55.9754,"regionId":"ras_al_khaimah","regionName":"Ras Al Khaimah","regionEmoji":"⛰️"},{"placeId":"rams_beach","name":"Rams Beach","nameIt":"شاطئ رام","type":"COASTAL","lat":26.1189,"lng":55.9456,"regionId":"ras_al_khaimah","regionName":"Ras Al Khaimah","regionEmoji":"⛰️","image":"https://images.unsplash.com/photo-1593321706583-6a76bdbee0f1?ixid=M3w5NTU4NjF8MHwxfHNlYXJjaHwxfHxSYW1zJTIwQmVhY2glMjBSYXMlMjBBbCUyMEtoYWltYWh8ZW58MXwwfHx8MTc4NDQ2MDY4M3ww&ixlib=rb-4.1.0&crop=entropy&cs=tinysrgb&fit=max&fm=jpg&q=80&w=1080"},{"placeId":"fujairah_city","name":"Fujairah City","nameIt":"مدينة الفجيرة","type":"CITY","lat":25.1167,"lng":56.3333,"regionId":"fujairah","regionName":"Fujairah","regionEmoji":"🏔️"},{"placeId":"fujairah_fort","name":"Fujairah Fort","nameIt":"حصن الفجيرة","type":"LANDMARK","lat":25.1189,"lng":56.3342,"regionId":"fujairah","regionName":"Fujairah","regionEmoji":"🏔️"},{"placeId":"al_hajar_mountains","name":"Al Hajar Mountains","nameIt":"جبال الحجر","type":"NATURE","lat":25.35,"lng":56.15,"regionId":"fujairah","regionName":"Fujairah","regionEmoji":"🏔️"},{"placeId":"al_qurayyah_beach","name":"Al Qurayyah Beach","nameIt":"شاطئ القريّة","type":"COASTAL","lat":25.2833,"lng":56.3667,"regionId":"fujairah","regionName":"Fujairah","regionEmoji":"🏔️"},{"placeId":"wadi_wurayah","name":"Wadi Wurayah","nameIt":"وادي وريعة","type":"NATURE","lat":25.4333,"lng":56.1167,"regionId":"fujairah","regionName":"Fujairah","regionEmoji":"🏔️"},{"placeId":"khorfakkan","name":"Khor Fakkan","nameIt":"خور فكان","type":"COASTAL","lat":25.3667,"lng":56.3167,"regionId":"fujairah","regionName":"Fujairah","regionEmoji":"🏔️"},{"placeId":"wadi_hq","name":"Wadi Hq","nameIt":"وادي حق","type":"NATURE","lat":25.2667,"lng":56.15,"regionId":"fujairah","regionName":"Fujairah","regionEmoji":"🏔️"},{"placeId":"fujairah_beach_park","name":"Fujairah Beach Park","nameIt":"حديقة شاطئ الفجيرة","type":"COASTAL","lat":25.1083,"lng":56.3417,"regionId":"fujairah","regionName":"Fujairah","regionEmoji":"🏔️"},{"placeId":"masafi","name":"Masafi","nameIt":"مصفوت","type":"VILLAGE","lat":25.3833,"lng":56.0833,"regionId":"fujairah","regionName":"Fujairah","regionEmoji":"🏔️"},{"placeId":"al_aqah_beach","name":"Al Aqah Beach","nameIt":"شاطئ العقة","type":"COASTAL","lat":25.45,"lng":56.25,"regionId":"fujairah","regionName":"Fujairah","regionEmoji":"🏔️"},{"placeId":"fujairah_souk","name":"Fujairah Central Souk","nameIt":"سوق الفجيرة المركزي","type":"LANDMARK","lat":25.12,"lng":56.335,"regionId":"fujairah","regionName":"Fujairah","regionEmoji":"🏔️"}]