[
  {
    "placeId": "cartagena",
    "name": "Cartagena",
    "nameIt": "Cartagena de Indias",
    "type": "CITY",
    "lat": 10.391,
    "lng": -75.4794,
    "regionId": "caribbean_coast",
    "regionName": "Caribbean Coast",
    "regionEmoji": "🏝️"
  },
  {
    "placeId": "santa_marta",
    "name": "Santa Marta",
    "nameIt": "Santa Marta",
    "type": "CITY",
    "lat": 11.2436,
    "lng": -74.2267,
    "regionId": "caribbean_coast",
    "regionName": "Caribbean Coast",
    "regionEmoji": "🏝️"
  },
  {
    "placeId": "tayrona_national_park",
    "name": "Tayrona National Park",
    "nameIt": "Parque Nacional Natural Tayrona",
    "type": "NATURE",
    "lat": 11.3,
    "lng": -74.0833,
    "regionId": "caribbean_coast",
    "regionName": "Caribbean Coast",
    "regionEmoji": "🏝️"
  },
  {
    "placeId": "lost_city",
    "name": "Lost City (Ciudad Perdida)",
    "nameIt": "Ciudad Perdida",
    "type": "LANDMARK",
    "lat": 11.0422,
    "lng": -74.0836,
    "regionId": "caribbean_coast",
    "regionName": "Caribbean Coast",
    "regionEmoji": "🏝️"
  },
  {
    "placeId": "tayrona_beaches",
    "name": "Tayrona Beaches",
    "nameIt": "Playas de Tayrona",
    "type": "COASTAL",
    "lat": 11.32,
    "lng": -74.07,
    "regionId": "caribbean_coast",
    "regionName": "Caribbean Coast",
    "regionEmoji": "🏝️"
  },
  {
    "placeId": "san_andres_island",
    "name": "San Andrés Island",
    "nameIt": "San Andrés",
    "type": "ISLAND",
    "lat": 12.5847,
    "lng": -81.7344,
    "regionId": "caribbean_coast",
    "regionName": "Caribbean Coast",
    "regionEmoji": "🏝️"
  },
  {
    "placeId": "providencia_island",
    "name": "Providencia Island",
    "nameIt": "Providencia",
    "type": "ISLAND",
    "lat": 13.3833,
    "lng": -81.3833,
    "regionId": "caribbean_coast",
    "regionName": "Caribbean Coast",
    "regionEmoji": "🏝️"
  },
  {
    "placeId": "palomino",
    "name": "Palomino",
    "nameIt": "Palomino",
    "type": "COASTAL",
    "lat": 11.2997,
    "lng": -74.0294,
    "regionId": "caribbean_coast",
    "regionName": "Caribbean Coast",
    "regionEmoji": "🏝️"
  },
  {
    "placeId": "minca",
    "name": "Minca",
    "nameIt": "Minca",
    "type": "VILLAGE",
    "lat": 11.2233,
    "lng": -74.1233,
    "regionId": "caribbean_coast",
    "regionName": "Caribbean Coast",
    "regionEmoji": "🏝️"
  },
  {
    "placeId": "barranquilla",
    "name": "Barranquilla",
    "nameIt": "Barranquilla",
    "type": "CITY",
    "lat": 10.9639,
    "lng": -74.7964,
    "regionId": "caribbean_coast",
    "regionName": "Caribbean Coast",
    "regionEmoji": "🏝️"
  },
  {
    "placeId": "rosario_islands",
    "name": "Rosario Islands",
    "nameIt": "Islas del Rosario",
    "type": "ISLAND",
    "lat": 10.2,
    "lng": -75.7833,
    "regionId": "caribbean_coast",
    "regionName": "Caribbean Coast",
    "regionEmoji": "🏝️"
  },
  {
    "placeId": "playa_blanca",
    "name": "Playa Blanca",
    "nameIt": "Playa Blanca",
    "type": "COASTAL",
    "lat": 10.1667,
    "lng": -75.5667,
    "regionId": "caribbean_coast",
    "regionName": "Caribbean Coast",
    "regionEmoji": "🏝️"
  },
  {
    "placeId": "cape_san_juan",
    "name": "Cape San Juan",
    "nameIt": "Cabo San Juan de Guía",
    "type": "COASTAL",
    "lat": 11.3033,
    "lng": -74.065,
    "regionId": "caribbean_coast",
    "regionName": "Caribbean Coast",
    "regionEmoji": "🏝️"
  },
  {
    "placeId": "san_andres",
    "name": "San Andrés",
    "type": "ISLAND",
    "lat": 12.5847,
    "lng": -81.7344,
    "regionId": "caribbean_coast",
    "regionName": "Caribbean Coast",
    "regionEmoji": "🏝️"
  },
  {
    "placeId": "isla_grande",
    "name": "Isla Grande",
    "nameIt": "Isla Grande",
    "type": "ISLAND",
    "lat": 10.1333,
    "lng": -75.65,
    "regionId": "atlantic_interior",
    "regionName": "Atlantic Interior",
    "regionEmoji": "🌾"
  },
  {
    "placeId": "guachaca",
    "name": "Guachaca",
    "nameIt": "Guachaca",
    "type": "COASTAL",
    "lat": 11.4,
    "lng": -74.25,
    "regionId": "atlantic_interior",
    "regionName": "Atlantic Interior",
    "regionEmoji": "🌾"
  },
  {
    "placeId": "lost_city_trek",
    "name": "Lost City Trek",
    "nameIt": "Ciudad Perdida",
    "type": "LANDMARK",
    "lat": 11.0408,
    "lng": -73.8847,
    "regionId": "santa_marta_mountains",
    "regionName": "Santa Marta & Lost City",
    "regionEmoji": "⛰️"
  },
  {
    "placeId": "el_pueblito",
    "name": "El Pueblito",
    "nameIt": "El Pueblito",
    "type": "LANDMARK",
    "lat": 11.31,
    "lng": -74.08,
    "regionId": "santa_marta_mountains",
    "regionName": "Santa Marta & Lost City",
    "regionEmoji": "⛰️"
  },
  {
    "placeId": "playa_grande",
    "name": "Playa Grande",
    "nameIt": "Playa Grande",
    "type": "COASTAL",
    "lat": 11.2,
    "lng": -74.3,
    "regionId": "santa_marta_mountains",
    "regionName": "Santa Marta & Lost City",
    "regionEmoji": "⛰️"
  },
  {
    "placeId": "magdalena_river",
    "name": "Magdalena River",
    "nameIt": "Río Magdalena",
    "type": "NATURE",
    "lat": 11.27,
    "lng": -74.21,
    "regionId": "santa_marta_mountains",
    "regionName": "Santa Marta & Lost City",
    "regionEmoji": "⛰️"
  },
  {
    "placeId": "bungalow_kogi",
    "name": "Bungalow Kogi Area",
    "nameIt": "Territorio Kogi",
    "type": "VILLAGE",
    "lat": 11.06,
    "lng": -73.95,
    "regionId": "santa_marta_mountains",
    "regionName": "Santa Marta & Lost City",
    "regionEmoji": "⛰️"
  },
  {
    "placeId": "san_pedro_alexis",
    "name": "San Pedro Alexis",
    "nameIt": "San Pedro Alexis",
    "type": "TOWN",
    "lat": 11.288,
    "lng": -73.777,
    "regionId": "santa_marta_mountains",
    "regionName": "Santa Marta & Lost City",
    "regionEmoji": "⛰️"
  },
  {
    "placeId": "aracataca",
    "name": "Aracataca",
    "nameIt": "Aracataca",
    "type": "TOWN",
    "lat": 10.633,
    "lng": -74.16,
    "regionId": "santa_marta_mountains",
    "regionName": "Santa Marta & Lost City",
    "regionEmoji": "⛰️"
  },
  {
    "placeId": "salento",
    "name": "Salento",
    "nameIt": "Salento",
    "type": "TOWN",
    "lat": 4.6568,
    "lng": -75.5689,
    "regionId": "coffee_region",
    "regionName": "Coffee Triangle",
    "regionEmoji": "☕"
  },
  {
    "placeId": "valle_de_cocora",
    "name": "Valle de Cocora",
    "nameIt": "Valle de Cocora",
    "type": "NATURE",
    "lat": 4.6426,
    "lng": -75.4854,
    "regionId": "coffee_region",
    "regionName": "Coffee Triangle",
    "regionEmoji": "☕"
  },
  {
    "placeId": "manizales",
    "name": "Manizales",
    "nameIt": "Manizales",
    "type": "CITY",
    "lat": 5.0686,
    "lng": -75.5244,
    "regionId": "coffee_region",
    "regionName": "Coffee Triangle",
    "regionEmoji": "☕"
  },
  {
    "placeId": "filandia",
    "name": "Filandia",
    "nameIt": "Filandia",
    "type": "TOWN",
    "lat": 4.7603,
    "lng": -75.6872,
    "regionId": "coffee_region",
    "regionName": "Coffee Triangle",
    "regionEmoji": "☕"
  },
  {
    "placeId": "coffee_cultural_park",
    "name": "Coffee Cultural Park",
    "nameIt": "Parque Cultural del Café",
    "type": "LANDMARK",
    "lat": 4.8945,
    "lng": -75.6956,
    "regionId": "coffee_region",
    "regionName": "Coffee Triangle",
    "regionEmoji": "☕"
  },
  {
    "placeId": "pereira",
    "name": "Pereira",
    "nameIt": "Pereira",
    "type": "CITY",
    "lat": 4.8133,
    "lng": -75.6969,
    "regionId": "coffee_region",
    "regionName": "Coffee Triangle",
    "regionEmoji": "☕"
  },
  {
    "placeId": "armenia",
    "name": "Armenia",
    "nameIt": "Armenia",
    "type": "CITY",
    "lat": 4.5339,
    "lng": -75.7316,
    "regionId": "coffee_region",
    "regionName": "Coffee Triangle",
    "regionEmoji": "☕"
  },
  {
    "placeId": "thermal_santa_rosa",
    "name": "Santa Rosa Hot Springs",
    "nameIt": "Aguas Termales de Santa Rosa",
    "type": "NATURE",
    "lat": 5.3227,
    "lng": -75.4464,
    "regionId": "coffee_region",
    "regionName": "Coffee Triangle",
    "regionEmoji": "☕"
  },
  {
    "placeId": "cocora_palms_hike",
    "name": "Cocora Wax Palm Trail",
    "nameIt": "Sendero de Palmas de Cera",
    "type": "NATURE",
    "lat": 4.6409,
    "lng": -75.4802,
    "regionId": "coffee_region",
    "regionName": "Coffee Triangle",
    "regionEmoji": "☕"
  },
  {
    "placeId": "otun_quimbaya",
    "name": "Otún Quimbaya Sanctuary",
    "nameIt": "Santuario de Fauna y Flora Otún Quimbaya",
    "type": "NATURE",
    "lat": 4.7544,
    "lng": -75.5156,
    "regionId": "coffee_region",
    "regionName": "Coffee Triangle",
    "regionEmoji": "☕"
  },
  {
    "placeId": "geisha_coffee_tour",
    "name": "Geisha Coffee Farm",
    "nameIt": "Finca Geisha",
    "type": "LANDMARK",
    "lat": 4.6789,
    "lng": -75.5412,
    "regionId": "coffee_region",
    "regionName": "Coffee Triangle",
    "regionEmoji": "☕"
  },
  {
    "placeId": "eco_lodge_cocora",
    "name": "Cocora Valley Ecolodge",
    "nameIt": "Ecolodge Valle de Cocora",
    "type": "LANDMARK",
    "lat": 4.645,
    "lng": -75.485,
    "regionId": "coffee_region",
    "regionName": "Coffee Triangle",
    "regionEmoji": "☕"
  },
  {
    "placeId": "las_lajas_waterfall",
    "name": "Las Lajas Waterfall",
    "nameIt": "Salto de Las Lajas",
    "type": "NATURE",
    "lat": 4.7223,
    "lng": -75.5889,
    "regionId": "coffee_region",
    "regionName": "Coffee Triangle",
    "regionEmoji": "☕"
  },
  {
    "placeId": "coffee_triangle",
    "name": "Coffee Triangle",
    "type": "REGION",
    "lat": 4.8397,
    "lng": -75.7581,
    "regionId": "coffee_region",
    "regionName": "Coffee Triangle",
    "regionEmoji": "☕"
  },
  {
    "placeId": "bogota",
    "name": "Bogotá",
    "nameIt": "Bogotá",
    "type": "CITY",
    "lat": 4.711,
    "lng": -74.0055,
    "regionId": "bogota_savanna",
    "regionName": "Bogotá & Cundinamarca",
    "regionEmoji": "🏙️"
  },
  {
    "placeId": "monserrate",
    "name": "Monserrate",
    "nameIt": "Monserrate",
    "type": "LANDMARK",
    "lat": 4.7364,
    "lng": -74.0055,
    "regionId": "bogota_savanna",
    "regionName": "Bogotá & Cundinamarca",
    "regionEmoji": "🏙️"
  },
  {
    "placeId": "zipaquira",
    "name": "Zipaquirá",
    "nameIt": "Zipaquirá",
    "type": "TOWN",
    "lat": 5.0275,
    "lng": -73.8061,
    "regionId": "bogota_savanna",
    "regionName": "Bogotá & Cundinamarca",
    "regionEmoji": "🏙️"
  },
  {
    "placeId": "la_candelaria",
    "name": "La Candelaria",
    "nameIt": "La Candelaria",
    "type": "LANDMARK",
    "lat": 4.716,
    "lng": -74.0082,
    "regionId": "bogota_savanna",
    "regionName": "Bogotá & Cundinamarca",
    "regionEmoji": "🏙️"
  },
  {
    "placeId": "usaquen",
    "name": "Usaquén",
    "nameIt": "Usaquén",
    "type": "LANDMARK",
    "lat": 4.7289,
    "lng": -74.0154,
    "regionId": "bogota_savanna",
    "regionName": "Bogotá & Cundinamarca",
    "regionEmoji": "🏙️"
  },
  {
    "placeId": "guatavita",
    "name": "Guatavita",
    "nameIt": "Guatavita",
    "type": "TOWN",
    "lat": 5.0167,
    "lng": -73.85,
    "regionId": "bogota_savanna",
    "regionName": "Bogotá & Cundinamarca",
    "regionEmoji": "🏙️"
  },
  {
    "placeId": "tequendama_falls",
    "name": "Tequendama Falls",
    "nameIt": "Salto del Tequendama",
    "type": "NATURE",
    "lat": 4.7492,
    "lng": -74.3289,
    "regionId": "bogota_savanna",
    "regionName": "Bogotá & Cundinamarca",
    "regionEmoji": "🏙️"
  },
  {
    "placeId": "ubaque",
    "name": "Ubaqué",
    "nameIt": "Ubaqué",
    "type": "VILLAGE",
    "lat": 4.8906,
    "lng": -73.9303,
    "regionId": "bogota_savanna",
    "regionName": "Bogotá & Cundinamarca",
    "regionEmoji": "🏙️"
  },
  {
    "placeId": "nemcon",
    "name": "Nemocón",
    "nameIt": "Nemocón",
    "type": "TOWN",
    "lat": 5.0511,
    "lng": -73.7733,
    "regionId": "bogota_savanna",
    "regionName": "Bogotá & Cundinamarca",
    "regionEmoji": "🏙️"
  },
  {
    "placeId": "chia",
    "name": "Chía",
    "nameIt": "Chía",
    "type": "TOWN",
    "lat": 4.8589,
    "lng": -74.0292,
    "regionId": "bogota_savanna",
    "regionName": "Bogotá & Cundinamarca",
    "regionEmoji": "🏙️"
  },
  {
    "placeId": "laguna_herrera",
    "name": "Laguna de Herrera",
    "nameIt": "Laguna de Herrera",
    "type": "NATURE",
    "lat": 4.9208,
    "lng": -74.0778,
    "regionId": "bogota_savanna",
    "regionName": "Bogotá & Cundinamarca",
    "regionEmoji": "🏙️"
  },
  {
    "placeId": "diplo_quarter",
    "name": "Zona Rosa & Chapinero",
    "nameIt": "Zona Rosa y Chapinero",
    "type": "LANDMARK",
    "lat": 4.719,
    "lng": -74.047,
    "regionId": "bogota_savanna",
    "regionName": "Bogotá & Cundinamarca",
    "regionEmoji": "🏙️"
  },
  {
    "placeId": "museo_nacional",
    "name": "National Museum",
    "nameIt": "Museo Nacional de Colombia",
    "type": "LANDMARK",
    "lat": 4.7236,
    "lng": -74.0237,
    "regionId": "bogota_savanna",
    "regionName": "Bogotá & Cundinamarca",
    "regionEmoji": "🏙️"
  },
  {
    "placeId": "villa_leyva",
    "name": "Villa de Leyva",
    "type": "TOWN",
    "lat": 5.6389,
    "lng": -73.5372,
    "regionId": "bogota_savanna",
    "regionName": "Bogotá & Cundinamarca",
    "regionEmoji": "🏙️"
  },
  {
    "placeId": "laguna_de_la_cocha",
    "name": "Lake La Cocha",
    "nameIt": "Laguna de la Cocha",
    "type": "NATURE",
    "lat": 1.0667,
    "lng": -76.9833,
    "regionId": "southwest_highlands",
    "regionName": "Southwest Highlands",
    "regionEmoji": "💃"
  },
  {
    "placeId": "ipiales",
    "name": "Ipiales",
    "nameIt": "Ipiales",
    "type": "TOWN",
    "lat": 0.8564,
    "lng": -76.7186,
    "regionId": "southwest_highlands",
    "regionName": "Southwest Highlands",
    "regionEmoji": "💃"
  },
  {
    "placeId": "las_lajas_sanctuary",
    "name": "Las Lajas Sanctuary",
    "nameIt": "Santuario de Las Lajas",
    "type": "LANDMARK",
    "lat": 0.8236,
    "lng": -76.7644,
    "regionId": "southwest_highlands",
    "regionName": "Southwest Highlands",
    "regionEmoji": "💃"
  },
  {
    "placeId": "san_juan_de_pasto_mountains",
    "name": "Galeras Volcano",
    "nameIt": "Volcán Galeras",
    "type": "NATURE",
    "lat": 1.2207,
    "lng": -77.2708,
    "regionId": "southwest_highlands",
    "regionName": "Southwest Highlands",
    "regionEmoji": "💃"
  },
  {
    "placeId": "guachucal",
    "name": "Guachucal",
    "nameIt": "Guachucal",
    "type": "TOWN",
    "lat": 1.4236,
    "lng": -77.1331,
    "regionId": "southwest_highlands",
    "regionName": "Southwest Highlands",
    "regionEmoji": "💃"
  },
  {
    "placeId": "pupiales",
    "name": "Pupiales",
    "nameIt": "Pupiales",
    "type": "TOWN",
    "lat": 1.0878,
    "lng": -76.8025,
    "regionId": "southwest_highlands",
    "regionName": "Southwest Highlands",
    "regionEmoji": "💃"
  },
  {
    "placeId": "el_penol",
    "name": "El Peñol",
    "nameIt": "El Peñol",
    "type": "LANDMARK",
    "lat": 1.1311,
    "lng": -76.8553,
    "regionId": "southwest_highlands",
    "regionName": "Southwest Highlands",
    "regionEmoji": "💃"
  },
  {
    "placeId": "tuquerres",
    "name": "Túquerres",
    "nameIt": "Túquerres",
    "type": "TOWN",
    "lat": 1.3197,
    "lng": -77.3392,
    "regionId": "southwest_highlands",
    "regionName": "Southwest Highlands",
    "regionEmoji": "💃"
  },
  {
    "placeId": "chitre",
    "name": "Chítara",
    "nameIt": "Chítara",
    "type": "VILLAGE",
    "lat": 1.1722,
    "lng": -76.95,
    "regionId": "southwest_highlands",
    "regionName": "Southwest Highlands",
    "regionEmoji": "💃"
  },
  {
    "placeId": "cali",
    "name": "Cali",
    "type": "CITY",
    "lat": 3.4372,
    "lng": -76.5225,
    "regionId": "southwest_highlands",
    "regionName": "Southwest Highlands",
    "regionEmoji": "💃"
  },
  {
    "placeId": "pasto",
    "name": "Pasto",
    "nameIt": "Pasto",
    "type": "CITY",
    "lat": 1.2136,
    "lng": -77.2811,
    "regionId": "narino_pasto",
    "regionName": "Nariño & Pasto",
    "regionEmoji": "🗻"
  },
  {
    "placeId": "laguna_de_la_cocha",
    "name": "Laguna de la Cocha",
    "nameIt": "Laguna de la Cocha",
    "type": "NATURE",
    "lat": 1.0667,
    "lng": -76.9667,
    "regionId": "narino_pasto",
    "regionName": "Nariño & Pasto",
    "regionEmoji": "🗻"
  },
  {
    "placeId": "san_juan_de_pasto_downtown",
    "name": "Historic Center of Pasto",
    "nameIt": "Centro Histórico de Pasto",
    "type": "LANDMARK",
    "lat": 1.2141,
    "lng": -77.2847,
    "regionId": "narino_pasto",
    "regionName": "Nariño & Pasto",
    "regionEmoji": "🗻"
  },
  {
    "placeId": "volcan_galeras",
    "name": "Volcán Galeras",
    "nameIt": "Volcán Galeras",
    "type": "NATURE",
    "lat": 1.2231,
    "lng": -77.1708,
    "regionId": "narino_pasto",
    "regionName": "Nariño & Pasto",
    "regionEmoji": "🗻"
  },
  {
    "placeId": "cumbal",
    "name": "Cumbal",
    "nameIt": "Cumbal",
    "type": "TOWN",
    "lat": 0.9928,
    "lng": -76.5883,
    "regionId": "narino_pasto",
    "regionName": "Nariño & Pasto",
    "regionEmoji": "🗻"
  },
  {
    "placeId": "santuario_flora_fauna_isla_corota",
    "name": "Isla Corota Wildlife Sanctuary",
    "nameIt": "Santuario de Fauna y Flora Isla Corota",
    "type": "ISLAND",
    "lat": 1.0733,
    "lng": -76.955,
    "regionId": "narino_pasto",
    "regionName": "Nariño & Pasto",
    "regionEmoji": "🗻"
  },
  {
    "placeId": "museo_taller_guambiano",
    "name": "Guambiano Workshop Museum",
    "nameIt": "Museo Taller Guambiano",
    "type": "LANDMARK",
    "lat": 1.2139,
    "lng": -77.2841,
    "regionId": "narino_pasto",
    "regionName": "Nariño & Pasto",
    "regionEmoji": "🗻"
  },
  {
    "placeId": "mocoa",
    "name": "Mocoa",
    "nameIt": "Mocoa",
    "type": "TOWN",
    "lat": 0.3515,
    "lng": -76.6491,
    "regionId": "narino_pasto",
    "regionName": "Nariño & Pasto",
    "regionEmoji": "🗻"
  },
  {
    "placeId": "nudo_de_los_pastos",
    "name": "Nudo de los Pastos Park",
    "nameIt": "Nudo de los Pastos",
    "type": "NATURE",
    "lat": 1.05,
    "lng": -76.45,
    "regionId": "narino_pasto",
    "regionName": "Nariño & Pasto",
    "regionEmoji": "🗻"
  },
  {
    "placeId": "chillan",
    "name": "Chillán",
    "nameIt": "Chillán",
    "type": "VILLAGE",
    "lat": 0.9319,
    "lng": -76.7056,
    "regionId": "narino_pasto",
    "regionName": "Nariño & Pasto",
    "regionEmoji": "🗻"
  },
  {
    "placeId": "leticia",
    "name": "Leticia",
    "nameIt": "Leticia",
    "type": "CITY",
    "lat": -4.2156,
    "lng": -69.9494,
    "regionId": "amazon_region",
    "regionName": "Amazon",
    "regionEmoji": "🌳"
  },
  {
    "placeId": "puerto_nario",
    "name": "Puerto Nariño",
    "nameIt": "Puerto Nariño",
    "type": "TOWN",
    "lat": -3.8039,
    "lng": -70.3608,
    "regionId": "amazon_region",
    "regionName": "Amazon",
    "regionEmoji": "🌳"
  },
  {
    "placeId": "reserva_natural_tanimboca",
    "name": "Tanimboca Natural Reserve",
    "nameIt": "Reserva Natural Tanimboca",
    "type": "NATURE",
    "lat": -3.85,
    "lng": -70.45,
    "regionId": "amazon_region",
    "regionName": "Amazon",
    "regionEmoji": "🌳"
  },
  {
    "placeId": "isla_de_los_micos",
    "name": "Monkey Island",
    "nameIt": "Isla de los Micos",
    "type": "ISLAND",
    "lat": -3.92,
    "lng": -70.28,
    "regionId": "amazon_region",
    "regionName": "Amazon",
    "regionEmoji": "🌳"
  },
  {
    "placeId": "parque_nacional_amacayacu",
    "name": "Amacayacu National Park",
    "nameIt": "Parque Nacional Natural Amacayacu",
    "type": "NATURE",
    "lat": -3.6833,
    "lng": -70.7667,
    "regionId": "amazon_region",
    "regionName": "Amazon",
    "regionEmoji": "🌳"
  },
  {
    "placeId": "matamata_lodge",
    "name": "Matamata Lake Lodge Area",
    "nameIt": "Lago Matamata",
    "type": "NATURE",
    "lat": -3.7,
    "lng": -70.55,
    "regionId": "amazon_region",
    "regionName": "Amazon",
    "regionEmoji": "🌳"
  },
  {
    "placeId": "tabatinga",
    "name": "Tabatinga",
    "nameIt": "Tabatinga",
    "type": "TOWN",
    "lat": -4.2528,
    "lng": -69.9361,
    "regionId": "amazon_region",
    "regionName": "Amazon",
    "regionEmoji": "🌳"
  },
  {
    "placeId": "santa_rosa_peru",
    "name": "Santa Rosa",
    "nameIt": "Santa Rosa",
    "type": "TOWN",
    "lat": -4.2092,
    "lng": -69.9844,
    "regionId": "amazon_region",
    "regionName": "Amazon",
    "regionEmoji": "🌳"
  },
  {
    "placeId": "centro_cultural_maloca",
    "name": "Maloca Indigenous Center",
    "nameIt": "Centro Maloca Indígena",
    "type": "LANDMARK",
    "lat": -4.195,
    "lng": -69.94,
    "regionId": "amazon_region",
    "regionName": "Amazon",
    "regionEmoji": "🌳"
  },
  {
    "placeId": "lago_yacumama",
    "name": "Lake Yacumama",
    "nameIt": "Lago Yacumama",
    "type": "NATURE",
    "lat": -4.05,
    "lng": -70.1,
    "regionId": "amazon_region",
    "regionName": "Amazon",
    "regionEmoji": "🌳"
  },
  {
    "placeId": "mirantes_leticia",
    "name": "Leticia Viewpoints and Parks",
    "nameIt": "Mirantes y Parques de Leticia",
    "type": "LANDMARK",
    "lat": -4.2156,
    "lng": -69.945,
    "regionId": "amazon_region",
    "regionName": "Amazon",
    "regionEmoji": "🌳"
  },
  {
    "placeId": "reserva_zacambu",
    "name": "Zacambú Reserve",
    "nameIt": "Reserva Zacambú",
    "type": "NATURE",
    "lat": -3.88,
    "lng": -70.32,
    "regionId": "amazon_region",
    "regionName": "Amazon",
    "regionEmoji": "🌳"
  },
  {
    "placeId": "villavicencio",
    "name": "Villavicencio",
    "nameIt": "Villavicencio",
    "type": "CITY",
    "lat": 4.1431,
    "lng": -73.6253,
    "regionId": "orinoco_plains",
    "regionName": "Orinoco Plains",
    "regionEmoji": "🐄"
  },
  {
    "placeId": "hato_la_aurora",
    "name": "Hato La Aurora",
    "nameIt": "Hato La Aurora",
    "type": "NATURE",
    "lat": 4.2047,
    "lng": -73.5633,
    "regionId": "orinoco_plains",
    "regionName": "Orinoco Plains",
    "regionEmoji": "🐄"
  },
  {
    "placeId": "puerto_lopez",
    "name": "Puerto López",
    "nameIt": "Puerto López",
    "type": "TOWN",
    "lat": 4.0757,
    "lng": -72.248,
    "regionId": "orinoco_plains",
    "regionName": "Orinoco Plains",
    "regionEmoji": "🐄"
  },
  {
    "placeId": "cano_cristales",
    "name": "Caño Cristales",
    "nameIt": "Caño Cristales",
    "type": "NATURE",
    "lat": 2.5833,
    "lng": -71.8167,
    "regionId": "orinoco_plains",
    "regionName": "Orinoco Plains",
    "regionEmoji": "🐄"
  },
  {
    "placeId": "san_martin_meta",
    "name": "San Martín",
    "nameIt": "San Martín",
    "type": "TOWN",
    "lat": 2.6667,
    "lng": -71.3333,
    "regionId": "orinoco_plains",
    "regionName": "Orinoco Plains",
    "regionEmoji": "🐄"
  },
  {
    "placeId": "serrania_macarena",
    "name": "Serranía de la Macarena",
    "nameIt": "Serranía de la Macarena",
    "type": "NATURE",
    "lat": 2.55,
    "lng": -71.75,
    "regionId": "orinoco_plains",
    "regionName": "Orinoco Plains",
    "regionEmoji": "🐄"
  },
  {
    "placeId": "acacias",
    "name": "Acacías",
    "nameIt": "Acacías",
    "type": "TOWN",
    "lat": 3.8833,
    "lng": -73.7667,
    "regionId": "orinoco_plains",
    "regionName": "Orinoco Plains",
    "regionEmoji": "🐄"
  },
  {
    "placeId": "el_dorado_meta",
    "name": "El Dorado",
    "nameIt": "El Dorado",
    "type": "TOWN",
    "lat": 3.3167,
    "lng": -73.8333,
    "regionId": "orinoco_plains",
    "regionName": "Orinoco Plains",
    "regionEmoji": "🐄"
  },
  {
    "placeId": "reserva_natural_sumapaz",
    "name": "Sumapaz National Nature Reserve",
    "nameIt": "Reserva Natural Sumapaz",
    "type": "NATURE",
    "lat": 3.8,
    "lng": -74.3333,
    "regionId": "orinoco_plains",
    "regionName": "Orinoco Plains",
    "regionEmoji": "🐄"
  },
  {
    "placeId": "puerto_gaitan",
    "name": "Puerto Gaitán",
    "nameIt": "Puerto Gaitán",
    "type": "TOWN",
    "lat": 4.2833,
    "lng": -71.9167,
    "regionId": "orinoco_plains",
    "regionName": "Orinoco Plains",
    "regionEmoji": "🐄"
  },
  {
    "placeId": "laguna_metica",
    "name": "Laguna Metía",
    "nameIt": "Laguna Metía",
    "type": "NATURE",
    "lat": 4.15,
    "lng": -71.85,
    "regionId": "orinoco_plains",
    "regionName": "Orinoco Plains",
    "regionEmoji": "🐄"
  },
  {
    "placeId": "buenaventura",
    "name": "Buenaventura",
    "nameIt": "Buenaventura",
    "type": "CITY",
    "lat": 3.8767,
    "lng": -77.3137,
    "regionId": "pacific_coast",
    "regionName": "Pacific Coast",
    "regionEmoji": "🌊"
  },
  {
    "placeId": "bahia_solano",
    "name": "Bahía Solano",
    "nameIt": "Bahía Solano",
    "type": "COASTAL",
    "lat": 6.2167,
    "lng": -77.4,
    "regionId": "pacific_coast",
    "regionName": "Pacific Coast",
    "regionEmoji": "🌊"
  },
  {
    "placeId": "nuqui",
    "name": "Nuquí",
    "nameIt": "Nuquí",
    "type": "COASTAL",
    "lat": 5.7167,
    "lng": -77.2667,
    "regionId": "pacific_coast",
    "regionName": "Pacific Coast",
    "regionEmoji": "🌊"
  },
  {
    "placeId": "isla_gorgona",
    "name": "Gorgona Island",
    "nameIt": "Isla de Gorgona",
    "type": "ISLAND",
    "lat": 2.9667,
    "lng": -77.3667,
    "regionId": "pacific_coast",
    "regionName": "Pacific Coast",
    "regionEmoji": "🌊"
  },
  {
    "placeId": "playa_juanchaco",
    "name": "Juanchaco Beach",
    "nameIt": "Playa Juanchaco",
    "type": "COASTAL",
    "lat": 3.9167,
    "lng": -77.35,
    "regionId": "pacific_coast",
    "regionName": "Pacific Coast",
    "regionEmoji": "🌊"
  },
  {
    "placeId": "ladrilleros",
    "name": "Ladrilleros Beach",
    "nameIt": "Playa Ladrilleros",
    "type": "COASTAL",
    "lat": 3.9,
    "lng": -77.3667,
    "regionId": "pacific_coast",
    "regionName": "Pacific Coast",
    "regionEmoji": "🌊"
  },
  {
    "placeId": "el_valle",
    "name": "El Valle",
    "nameIt": "El Valle",
    "type": "TOWN",
    "lat": 5.3667,
    "lng": -77.1667,
    "regionId": "pacific_coast",
    "regionName": "Pacific Coast",
    "regionEmoji": "🌊"
  },
  {
    "placeId": "isla_malpelo",
    "name": "Malpelo Island",
    "nameIt": "Isla de Malpelo",
    "type": "ISLAND",
    "lat": 3.9833,
    "lng": -81.6,
    "regionId": "pacific_coast",
    "regionName": "Pacific Coast",
    "regionEmoji": "🌊"
  },
  {
    "placeId": "playa_choco",
    "name": "Chocó Pacific Beaches",
    "nameIt": "Playas del Chocó",
    "type": "COASTAL",
    "lat": 4.7,
    "lng": -77.2,
    "regionId": "pacific_coast",
    "regionName": "Pacific Coast",
    "regionEmoji": "🌊"
  },
  {
    "placeId": "ensenada_utria",
    "name": "Utría National Park",
    "nameIt": "Parque Nacional Natural Ensenada de Utría",
    "type": "NATURE",
    "lat": 6.0167,
    "lng": -77.35,
    "regionId": "pacific_coast",
    "regionName": "Pacific Coast",
    "regionEmoji": "🌊"
  },
  {
    "placeId": "cabo_corrientes",
    "name": "Cabo Corrientes",
    "nameIt": "Cabo Corrientes",
    "type": "LANDMARK",
    "lat": 2.5667,
    "lng": -77.25,
    "regionId": "pacific_coast",
    "regionName": "Pacific Coast",
    "regionEmoji": "🌊"
  },
  {
    "placeId": "bucaramanga",
    "name": "Bucaramanga",
    "nameIt": "Bucaramanga",
    "type": "CITY",
    "lat": 7.1254,
    "lng": -73.1198,
    "regionId": "northeastern_highlands",
    "regionName": "Northeastern Highlands",
    "regionEmoji": "🏔️"
  },
  {
    "placeId": "socorro",
    "name": "Socorro",
    "nameIt": "Socorro",
    "type": "TOWN",
    "lat": 6.7469,
    "lng": -73.1828,
    "regionId": "northeastern_highlands",
    "regionName": "Northeastern Highlands",
    "regionEmoji": "🏔️"
  },
  {
    "placeId": "barichara",
    "name": "Barichara",
    "nameIt": "Barichara",
    "type": "TOWN",
    "lat": 6.6033,
    "lng": -73.2236,
    "regionId": "northeastern_highlands",
    "regionName": "Northeastern Highlands",
    "regionEmoji": "🏔️"
  },
  {
    "placeId": "guane",
    "name": "Guane",
    "nameIt": "Guane",
    "type": "VILLAGE",
    "lat": 6.5767,
    "lng": -73.1733,
    "regionId": "northeastern_highlands",
    "regionName": "Northeastern Highlands",
    "regionEmoji": "🏔️"
  },
  {
    "placeId": "chicamocha_canyon",
    "name": "Chicamocha Canyon",
    "nameIt": "Cañón del Chicamocha",
    "type": "NATURE",
    "lat": 6.55,
    "lng": -73.05,
    "regionId": "northeastern_highlands",
    "regionName": "Northeastern Highlands",
    "regionEmoji": "🏔️"
  },
  {
    "placeId": "curiti",
    "name": "Curití",
    "nameIt": "Curití",
    "type": "TOWN",
    "lat": 6.8444,
    "lng": -73.3511,
    "regionId": "northeastern_highlands",
    "regionName": "Northeastern Highlands",
    "regionEmoji": "🏔️"
  },
  {
    "placeId": "mesa_de_los_santos",
    "name": "Mesa de los Santos",
    "nameIt": "Mesa de los Santos",
    "type": "NATURE",
    "lat": 6.9306,
    "lng": -73.1267,
    "regionId": "northeastern_highlands",
    "regionName": "Northeastern Highlands",
    "regionEmoji": "🏔️"
  },
  {
    "placeId": "floridablanca",
    "name": "Floridablanca",
    "nameIt": "Floridablanca",
    "type": "CITY",
    "lat": 7.0778,
    "lng": -73.0844,
    "regionId": "northeastern_highlands",
    "regionName": "Northeastern Highlands",
    "regionEmoji": "🏔️"
  },
  {
    "placeId": "giron",
    "name": "Girón",
    "nameIt": "Girón",
    "type": "TOWN",
    "lat": 7.0444,
    "lng": -73.1919,
    "regionId": "northeastern_highlands",
    "regionName": "Northeastern Highlands",
    "regionEmoji": "🏔️"
  },
  {
    "placeId": "piedecuesta",
    "name": "Piedecuesta",
    "nameIt": "Piedecuesta",
    "type": "TOWN",
    "lat": 6.9417,
    "lng": -73.2017,
    "regionId": "northeastern_highlands",
    "regionName": "Northeastern Highlands",
    "regionEmoji": "🏔️"
  },
  {
    "placeId": "san_gil",
    "name": "San Gil",
    "nameIt": "San Gil",
    "type": "CITY",
    "lat": 6.5583,
    "lng": -73.1389,
    "regionId": "northeastern_highlands",
    "regionName": "Northeastern Highlands",
    "regionEmoji": "🏔️"
  },
  {
    "placeId": "galeras_fuente_hermosa",
    "name": "Galeras Nature Reserve",
    "nameIt": "Galeras Fuente Hermosa",
    "type": "NATURE",
    "lat": 6.6222,
    "lng": -73.25,
    "regionId": "northeastern_highlands",
    "regionName": "Northeastern Highlands",
    "regionEmoji": "🏔️"
  }
]