[{"placeId":"pescara","name":"Pescara","nameIt":"Pescara","type":"CITY","lat":42.4618,"lng":14.2139,"regionId":"abruzzo","regionName":"Abruzzo","regionEmoji":"🏔️","image":"https://images.unsplash.com/photo-1634396715433-76541f14fe49?crop=entropy&cs=tinysrgb&fit=max&fm=jpg&ixid=M3w5NTU4NjF8MHwxfHNlYXJjaHwxfHxQZXNjYXJhfGVufDF8MHx8fDE3ODE1NDczMTB8MA&ixlib=rb-4.1.0&q=80&w=1080"},{"placeId":"gran_sasso","name":"Gran Sasso and Monti della Laga National Park","nameIt":"Parco Nazionale Gran Sasso e Monti della Laga","type":"MOUNTAIN","lat":42.4588,"lng":13.5557,"regionId":"abruzzo","regionName":"Abruzzo","regionEmoji":"🏔️","image":"https://images.unsplash.com/photo-1646492112834-343f1fe36aba?crop=entropy&cs=tinysrgb&fit=max&fm=jpg&ixid=M3w5NTU4NjF8MHwxfHNlYXJjaHwxfHxHcmFuJTIwU2Fzc28lMjBhbmQlMjBNb250aSUyMGRlbGxhJTIwTGFnYSUyME5hdGlvbmFsJTIwUGFya3xlbnwxfDB8fHwxNzgxNTQ3MzExfDA&ixlib=rb-4.1.0&q=80&w=1080"},{"placeId":"sulmona","name":"Sulmona","nameIt":"Sulmona","type":"TOWN","lat":42.0487,"lng":13.9289,"regionId":"abruzzo","regionName":"Abruzzo","regionEmoji":"🏔️","image":"https://images.unsplash.com/photo-1700301517283-bacc4661bd58?crop=entropy&cs=tinysrgb&fit=max&fm=jpg&ixid=M3w5NTU4NjF8MHwxfHNlYXJjaHwxfHxTdWxtb25hfGVufDF8MHx8fDE3ODE1NDczMTF8MA&ixlib=rb-4.1.0&q=80&w=1080"},{"placeId":"scanno","name":"Scanno","nameIt":"Scanno","type":"TOWN","lat":41.9025,"lng":13.8836,"regionId":"abruzzo","regionName":"Abruzzo","regionEmoji":"🏔️","image":"https://images.unsplash.com/photo-1608229337835-b02d33792014?crop=entropy&cs=tinysrgb&fit=max&fm=jpg&ixid=M3w5NTU4NjF8MHwxfHNlYXJjaHwxfHxTY2Fubm98ZW58MXwwfHx8MTc4MTU0NzMxMnww&ixlib=rb-4.1.0&q=80&w=1080"},{"placeId":"chieti","name":"Chieti","nameIt":"Chieti","type":"CITY","lat":42.3516,"lng":14.1676,"regionId":"abruzzo","regionName":"Abruzzo","regionEmoji":"🏔️","image":"https://images.unsplash.com/photo-1591290883270-61eb3b89e620?crop=entropy&cs=tinysrgb&fit=max&fm=jpg&ixid=M3w5NTU4NjF8MHwxfHNlYXJjaHwxfHxDaGlldGl8ZW58MXwwfHx8MTc4MTU0NzMxM3ww&ixlib=rb-4.1.0&q=80&w=1080"},{"placeId":"vasto","name":"Vasto","nameIt":"Vasto","type":"COAST","lat":42.1116,"lng":14.7077,"regionId":"abruzzo","regionName":"Abruzzo","regionEmoji":"🏔️","image":"https://images.unsplash.com/photo-1629139450686-0742f65676aa?crop=entropy&cs=tinysrgb&fit=max&fm=jpg&ixid=M3w5NTU4NjF8MHwxfHNlYXJjaHw0fHxWYXN0b3xlbnwxfDB8fHwxNzgxNTQ3MzEzfDA&ixlib=rb-4.1.0&q=80&w=1080"},{"placeId":"alba_fucens","name":"Alba Fucens","nameIt":"Alba Fucens","type":"LANDMARK","lat":42.0794,"lng":13.5197,"regionId":"abruzzo","regionName":"Abruzzo","regionEmoji":"🏔️","image":"https://images.unsplash.com/photo-1591357454745-584dfdebc662?crop=entropy&cs=tinysrgb&fit=max&fm=jpg&ixid=M3w5NTU4NjF8MHwxfHNlYXJjaHwxfHxBbGJhJTIwRnVjZW5zfGVufDF8MHx8fDE3ODE1NDczMTR8MA&ixlib=rb-4.1.0&q=80&w=1080"},{"placeId":"civitella_alfedena","name":"Civitella Alfedena","nameIt":"Civitella Alfedena","type":"TOWN","lat":41.7697,"lng":13.9403,"regionId":"abruzzo","regionName":"Abruzzo","regionEmoji":"🏔️","image":"https://images.unsplash.com/photo-1633186707120-e1217bd977de?crop=entropy&cs=tinysrgb&fit=max&fm=jpg&ixid=M3w5NTU4NjF8MHwxfHNlYXJjaHwxfHxDaXZpdGVsbGElMjBBbGZlZGVuYXxlbnwxfDB8fHwxNzgxNTQ3MzE1fDA&ixlib=rb-4.1.0&q=80&w=1080"},{"placeId":"lanciano","name":"Lanciano","nameIt":"Lanciano","type":"TOWN","lat":42.2286,"lng":14.3916,"regionId":"abruzzo","regionName":"Abruzzo","regionEmoji":"🏔️","image":"https://images.unsplash.com/photo-1742060917266-ef3d45756b1f?crop=entropy&cs=tinysrgb&fit=max&fm=jpg&ixid=M3w5NTU4NjF8MHwxfHNlYXJjaHwyfHxMYW5jaWFubyUyMEFicnV6em98ZW58MXx8fHwxNzgyNTU3OTk5fDA&ixlib=rb-4.1.0&q=80&w=1080"},{"placeId":"matera","name":"Matera","nameIt":"Matera","type":"CITY","lat":40.6664,"lng":16.6043,"regionId":"basilicata","regionName":"Basilicata","regionEmoji":"🪨","image":"https://images.unsplash.com/photo-1528214096798-37891d32174c?crop=entropy&cs=tinysrgb&fit=max&fm=jpg&ixid=M3w5NTU4NjF8MHwxfHNlYXJjaHwxfHxNYXRlcmF8ZW58MXwwfHx8MTc4MTU0NzMxNnww&ixlib=rb-4.1.0&q=80&w=1080"},{"placeId":"potenza","name":"Potenza","nameIt":"Potenza","type":"CITY","lat":40.64,"lng":15.805,"regionId":"basilicata","regionName":"Basilicata","regionEmoji":"🪨","image":"https://images.unsplash.com/photo-1707232372798-27cf9355faf0?crop=entropy&cs=tinysrgb&fit=max&fm=jpg&ixid=M3w5NTU4NjF8MHwxfHNlYXJjaHw0fHxQb3RlbnphfGVufDF8MHx8fDE3ODE1NDczMTZ8MA&ixlib=rb-4.1.0&q=80&w=1080"},{"placeId":"metaponto","name":"Metaponto","nameIt":"Metaponto","type":"COAST","lat":40.3731,"lng":16.8258,"regionId":"basilicata","regionName":"Basilicata","regionEmoji":"🪨","image":"https://petitfute.twic.pics/medias/photo/originale/28/fb/081883-metaponto-tavole-palatine.jpg"},{"placeId":"maratea","name":"Maratea","nameIt":"Maratea","type":"COAST","lat":39.9986,"lng":15.7197,"regionId":"basilicata","regionName":"Basilicata","regionEmoji":"🪨","image":"https://images.unsplash.com/photo-1689933884682-78c889593718?crop=entropy&cs=tinysrgb&fit=max&fm=jpg&ixid=M3w5NTU4NjF8MHwxfHNlYXJjaHwxfHxNYXJhdGVhfGVufDF8MHx8fDE3ODE1NDczMTh8MA&ixlib=rb-4.1.0&q=80&w=1080"},{"placeId":"melfi","name":"Melfi","nameIt":"Melfi","type":"TOWN","lat":40.9962,"lng":15.6521,"regionId":"basilicata","regionName":"Basilicata","regionEmoji":"🪨","image":"https://images.unsplash.com/photo-1691505748956-2d02b6603e84?crop=entropy&cs=tinysrgb&fit=max&fm=jpg&ixid=M3w5NTU4NjF8MHwxfHNlYXJjaHwxfHxNZWxmaXxlbnwxfDB8fHwxNzgxNTQ3MzE5fDA&ixlib=rb-4.1.0&q=80&w=1080"},{"placeId":"venosa","name":"Venosa","nameIt":"Venosa","type":"TOWN","lat":40.9633,"lng":15.8181,"regionId":"basilicata","regionName":"Basilicata","regionEmoji":"🪨","image":"https://images.unsplash.com/photo-1636543460037-bd891b345519?crop=entropy&cs=tinysrgb&fit=max&fm=jpg&ixid=M3w5NTU4NjF8MHwxfHNlYXJjaHwxfHxWZW5vc2F8ZW58MXwwfHx8MTc4MTU0NzMyMHww&ixlib=rb-4.1.0&q=80&w=1080"},{"placeId":"pietrapertosa","name":"Pietrapertosa","nameIt":"Pietrapertosa","type":"TOWN","lat":40.5167,"lng":16.0667,"regionId":"basilicata","regionName":"Basilicata","regionEmoji":"🪨","image":"https://images.unsplash.com/photo-1706809224367-2b476f3a3cf8?crop=entropy&cs=tinysrgb&fit=max&fm=jpg&ixid=M3w5NTU4NjF8MHwxfHNlYXJjaHwxfHxQaWV0cmFwZXJ0b3NhfGVufDF8MHx8fDE3ODE1NDczMjB8MA&ixlib=rb-4.1.0&q=80&w=1080"},{"placeId":"craco","name":"Craco","nameIt":"Craco","type":"LANDMARK","lat":40.3786,"lng":16.4411,"regionId":"basilicata","regionName":"Basilicata","regionEmoji":"🪨","image":"https://images.unsplash.com/photo-1612604391804-ed5ed03933a2?crop=entropy&cs=tinysrgb&fit=max&fm=jpg&ixid=M3w5NTU4NjF8MHwxfHNlYXJjaHwxfHxDcmFjb3xlbnwxfDB8fHwxNzgxNTQ3MzIxfDA&ixlib=rb-4.1.0&q=80&w=1080"},{"placeId":"lago_san_giuliano","name":"Lake San Giuliano","nameIt":"Lago di San Giuliano","type":"LAKE","lat":40.6667,"lng":16.2167,"regionId":"basilicata","regionName":"Basilicata","regionEmoji":"🪨","image":"https://upload.wikimedia.org/wikipedia/commons/thumb/0/07/Lago_di_San_Giuliano_primavera.JPG/960px-Lago_di_San_Giuliano_primavera.JPG"},{"placeId":"tursi","name":"Tursi","nameIt":"Tursi","type":"TOWN","lat":40.2456,"lng":16.4681,"regionId":"basilicata","regionName":"Basilicata","regionEmoji":"🪨","image":"https://images.unsplash.com/photo-1579802555847-60df4564176b?crop=entropy&cs=tinysrgb&fit=max&fm=jpg&ixid=M3w5NTU4NjF8MHwxfHNlYXJjaHwyfHxUdXJzaXxlbnwxfDB8fHwxNzgxNTQ3MzIzfDA&ixlib=rb-4.1.0&q=80&w=1080"},{"placeId":"catanzaro","name":"Catanzaro","nameIt":"Catanzaro","type":"CITY","lat":38.9098,"lng":16.587,"regionId":"calabria","regionName":"Calabria","regionEmoji":"🌶️","image":"https://images.unsplash.com/photo-1523365154888-8a758819b722?crop=entropy&cs=tinysrgb&fit=max&fm=jpg&ixid=M3w5NTU4NjF8MHwxfHNlYXJjaHwxfHxDYXRhbnphcm8lMjBDYWxhYnJpYXxlbnwxfHx8fDE3ODI1NTg2MzN8MA&ixlib=rb-4.1.0&q=80&w=1080"},{"placeId":"tropea","name":"Tropea","nameIt":"Tropea","type":"COAST","lat":38.6767,"lng":15.8975,"regionId":"calabria","regionName":"Calabria","regionEmoji":"🌶️","image":"https://images.unsplash.com/photo-1602582703401-4b37c2840322?crop=entropy&cs=tinysrgb&fit=max&fm=jpg&ixid=M3w5NTU4NjF8MHwxfHNlYXJjaHwxfHxUcm9wZWF8ZW58MXwwfHx8MTc4MTU0NzMyNHww&ixlib=rb-4.1.0&q=80&w=1080"},{"placeId":"reggio_calabria","name":"Reggio Calabria","nameIt":"Reggio di Calabria","type":"CITY","lat":38.1113,"lng":15.6472,"regionId":"calabria","regionName":"Calabria","regionEmoji":"🌶️","image":"https://images.unsplash.com/photo-1701870856515-82eba2ec6736?crop=entropy&cs=tinysrgb&fit=max&fm=jpg&ixid=M3w5NTU4NjF8MHwxfHNlYXJjaHwxfHxSZWdnaW8lMjBDYWxhYnJpYSUyMENhbGFicmlhfGVufDF8fHx8MTc4MjU1ODY3NXww&ixlib=rb-4.1.0&q=80&w=1080"},{"placeId":"sila_national_park","name":"Sila National Park","nameIt":"Parco Nazionale della Sila","type":"MOUNTAIN","lat":39.35,"lng":16.55,"regionId":"calabria","regionName":"Calabria","regionEmoji":"🌶️","image":"https://upload.wikimedia.org/wikipedia/commons/thumb/c/ca/Lago_Ariamacina.jpg/960px-Lago_Ariamacina.jpg"},{"placeId":"gerace","name":"Gerace","nameIt":"Gerace","type":"TOWN","lat":38.2667,"lng":16.2167,"regionId":"calabria","regionName":"Calabria","regionEmoji":"🌶️","image":"https://upload.wikimedia.org/wikipedia/commons/e/ef/Gerace_Panorama.jpg"},{"placeId":"scilla","name":"Scilla","nameIt":"Scilla","type":"TOWN","lat":38.2533,"lng":15.715,"regionId":"calabria","regionName":"Calabria","regionEmoji":"🌶️","image":"https://images.unsplash.com/photo-1600023144744-6df7090fe9c5?crop=entropy&cs=tinysrgb&fit=max&fm=jpg&ixid=M3w5NTU4NjF8MHwxfHNlYXJjaHw2fHxTY2lsbGElMjBDYWxhYnJpYXxlbnwxfHx8fDE3ODI1NTg4Njh8MA&ixlib=rb-4.1.0&q=80&w=1080"},{"placeId":"capo_vaticano","name":"Capo Vaticano","nameIt":"Capo Vaticano","type":"COAST","lat":38.6167,"lng":15.8333,"regionId":"calabria","regionName":"Calabria","regionEmoji":"🌶️","image":"https://images.unsplash.com/photo-1660154201843-e4b8a2007256?crop=entropy&cs=tinysrgb&fit=max&fm=jpg&ixid=M3w5NTU4NjF8MHwxfHNlYXJjaHwxfHxDYXBvJTIwVmF0aWNhbm98ZW58MXwwfHx8MTc4MTU0NzMyOHww&ixlib=rb-4.1.0&q=80&w=1080"},{"placeId":"stilo","name":"Stilo","nameIt":"Stilo","type":"TOWN","lat":38.4833,"lng":16.4667,"regionId":"calabria","regionName":"Calabria","regionEmoji":"🌶️","image":"https://upload.wikimedia.org/wikipedia/commons/thumb/7/7c/Stilo_vecchio_2.jpg/500px-Stilo_vecchio_2.jpg"},{"placeId":"locri","name":"Locri","nameIt":"Locri","type":"CITY","lat":38.2333,"lng":16.2667,"regionId":"calabria","regionName":"Calabria","regionEmoji":"🌶️","image":"https://calabriastraordinaria.it/storage/images/6609/locri-mare-20.jpg"},{"placeId":"civita","name":"Civita","nameIt":"Civita","type":"TOWN","lat":39.8333,"lng":16.3167,"regionId":"calabria","regionName":"Calabria","regionEmoji":"🌶️","image":"https://upload.wikimedia.org/wikipedia/commons/1/1b/Civita_panorama.jpg"},{"placeId":"naples","name":"Naples","nameIt":"Napoli","type":"CITY","lat":40.8518,"lng":14.2681,"regionId":"campania","regionName":"Campania","regionEmoji":"🍕","image":"https://images.unsplash.com/photo-1609244283184-96db6d696573?crop=entropy&cs=tinysrgb&fit=max&fm=jpg&ixid=M3w5NTU4NjF8MHwxfHNlYXJjaHwxfHxOYXBsZXN8ZW58MXwwfHx8MTc4MTU0NzMzMXww&ixlib=rb-4.1.0&q=80&w=1080"},{"placeId":"pompeii","name":"Pompeii","nameIt":"Pompei","type":"LANDMARK","lat":40.7462,"lng":14.4989,"regionId":"campania","regionName":"Campania","regionEmoji":"🍕","image":"https://images.unsplash.com/photo-1531220238712-18cea1d53e59?crop=entropy&cs=tinysrgb&fit=max&fm=jpg&ixid=M3w5NTU4NjF8MHwxfHNlYXJjaHwxfHxQb21wZWlpfGVufDF8MHx8fDE3ODE1NDczMzF8MA&ixlib=rb-4.1.0&q=80&w=1080"},{"placeId":"amalfi_coast","name":"Amalfi Coast","nameIt":"Costiera Amalfitana","type":"COAST","lat":40.634,"lng":14.6027,"regionId":"campania","regionName":"Campania","regionEmoji":"🍕","image":"https://images.unsplash.com/photo-1612698093158-e07ac200d44e?crop=entropy&cs=tinysrgb&fit=max&fm=jpg&ixid=M3w5NTU4NjF8MHwxfHNlYXJjaHwxfHxBbWFsZmklMjBDb2FzdHxlbnwxfDB8fHwxNzgxNTQ3MzMyfDA&ixlib=rb-4.1.0&q=80&w=1080"},{"placeId":"paestum","name":"Paestum","nameIt":"Paestum","type":"LANDMARK","lat":40.4219,"lng":15.005,"regionId":"campania","regionName":"Campania","regionEmoji":"🍕","image":"https://images.unsplash.com/photo-1597154552766-16f0b3532c61?crop=entropy&cs=tinysrgb&fit=max&fm=jpg&ixid=M3w5NTU4NjF8MHwxfHNlYXJjaHwxfHxQYWVzdHVtfGVufDF8MHx8fDE3ODE1NDczMzJ8MA&ixlib=rb-4.1.0&q=80&w=1080"},{"placeId":"ischia","name":"Ischia","nameIt":"Ischia","type":"COAST","lat":40.731,"lng":13.902,"regionId":"campania","regionName":"Campania","regionEmoji":"🍕","image":"https://images.unsplash.com/photo-1645543732122-ac80f090eea2?crop=entropy&cs=tinysrgb&fit=max&fm=jpg&ixid=M3w5NTU4NjF8MHwxfHNlYXJjaHwxfHxJc2NoaWF8ZW58MXwwfHx8MTc4MTU0NzMzM3ww&ixlib=rb-4.1.0&q=80&w=1080"},{"placeId":"caserta","name":"Caserta","nameIt":"Caserta","type":"CITY","lat":41.0726,"lng":14.3326,"regionId":"campania","regionName":"Campania","regionEmoji":"🍕","image":"https://images.unsplash.com/photo-1717317948909-e899c36b32b2?crop=entropy&cs=tinysrgb&fit=max&fm=jpg&ixid=M3w5NTU4NjF8MHwxfHNlYXJjaHwxfHxDYXNlcnRhfGVufDF8MHx8fDE3ODE1NDczMzN8MA&ixlib=rb-4.1.0&q=80&w=1080"},{"placeId":"benevento","name":"Benevento","nameIt":"Benevento","type":"CITY","lat":41.1297,"lng":14.782,"regionId":"campania","regionName":"Campania","regionEmoji":"🍕","image":"https://images.unsplash.com/photo-1703021196975-6169d366447d?crop=entropy&cs=tinysrgb&fit=max&fm=jpg&ixid=M3w5NTU4NjF8MHwxfHNlYXJjaHwxfHxCZW5ldmVudG98ZW58MXwwfHx8MTc4MTU0NzMzNHww&ixlib=rb-4.1.0&q=80&w=1080"},{"placeId":"cilento_coast","name":"Cilento Coast","nameIt":"Costa del Cilento","type":"COAST","lat":40.15,"lng":15.1,"regionId":"campania","regionName":"Campania","regionEmoji":"🍕","image":"https://images.unsplash.com/photo-1665831351436-b29bec443b34?crop=entropy&cs=tinysrgb&fit=max&fm=jpg&ixid=M3w5NTU4NjF8MHwxfHNlYXJjaHwxfHxDaWxlbnRvJTIwQ29hc3R8ZW58MXwwfHx8MTc4MTU0NzMzNHww&ixlib=rb-4.1.0&q=80&w=1080"},{"placeId":"procida","name":"Procida","nameIt":"Procida","type":"TOWN","lat":40.757,"lng":14.0118,"regionId":"campania","regionName":"Campania","regionEmoji":"🍕","image":"https://images.unsplash.com/photo-1651516692656-0a4d9e8f7e93?crop=entropy&cs=tinysrgb&fit=max&fm=jpg&ixid=M3w5NTU4NjF8MHwxfHNlYXJjaHwxfHxQcm9jaWRhfGVufDF8MHx8fDE3ODE1NDczMzV8MA&ixlib=rb-4.1.0&q=80&w=1080"},{"placeId":"sorrento","name":"Sorrento","nameIt":"Sorrento","type":"TOWN","lat":40.6264,"lng":14.3757,"regionId":"campania","regionName":"Campania","regionEmoji":"🍕","image":"https://images.unsplash.com/photo-1592484149049-d3b6c5c64ca6?crop=entropy&cs=tinysrgb&fit=max&fm=jpg&ixid=M3w5NTU4NjF8MHwxfHNlYXJjaHwxfHxTb3JyZW50b3xlbnwxfDB8fHwxNzgxNTQ3MzM1fDA&ixlib=rb-4.1.0&q=80&w=1080"},{"placeId":"bologna","name":"Bologna","nameIt":"Bologna","type":"CITY","lat":44.4949,"lng":11.3426,"regionId":"emilia_romagna","regionName":"Emilia-Romagna","regionEmoji":"🍝","image":"https://images.unsplash.com/photo-1635469019177-7264fc1e013c?crop=entropy&cs=tinysrgb&fit=max&fm=jpg&ixid=M3w5NTU4NjF8MHwxfHNlYXJjaHwxfHxCb2xvZ25hfGVufDF8MHx8fDE3ODE1NDczMzZ8MA&ixlib=rb-4.1.0&q=80&w=1080"},{"placeId":"ravenna","name":"Ravenna","nameIt":"Ravenna","type":"CITY","lat":44.4154,"lng":12.2011,"regionId":"emilia_romagna","regionName":"Emilia-Romagna","regionEmoji":"🍝","image":"https://images.unsplash.com/photo-1607956747208-66769e9e3a23?crop=entropy&cs=tinysrgb&fit=max&fm=jpg&ixid=M3w5NTU4NjF8MHwxfHNlYXJjaHwyfHxSYXZlbm5hfGVufDF8MHx8fDE3ODE1NTM3MDN8MA&ixlib=rb-4.1.0&q=80&w=1080"},{"placeId":"parma","name":"Parma","nameIt":"Parma","type":"CITY","lat":44.8015,"lng":10.3279,"regionId":"emilia_romagna","regionName":"Emilia-Romagna","regionEmoji":"🍝","image":"https://images.unsplash.com/photo-1603056740028-4291336263c8?crop=entropy&cs=tinysrgb&fit=max&fm=jpg&ixid=M3w5NTU4NjF8MHwxfHNlYXJjaHwxfHxQYXJtYXxlbnwxfDB8fHwxNzgxNTUzNzAzfDA&ixlib=rb-4.1.0&q=80&w=1080"},{"placeId":"ferrara","name":"Ferrara","nameIt":"Ferrara","type":"CITY","lat":44.8353,"lng":11.6196,"regionId":"emilia_romagna","regionName":"Emilia-Romagna","regionEmoji":"🍝","image":"https://images.unsplash.com/photo-1648918648791-4ee1efba686f?crop=entropy&cs=tinysrgb&fit=max&fm=jpg&ixid=M3w5NTU4NjF8MHwxfHNlYXJjaHwxfHxGZXJyYXJhfGVufDF8MHx8fDE3ODE1NTM3MDR8MA&ixlib=rb-4.1.0&q=80&w=1080"},{"placeId":"rimini","name":"Rimini","nameIt":"Rimini","type":"COAST","lat":44.0678,"lng":12.5695,"regionId":"emilia_romagna","regionName":"Emilia-Romagna","regionEmoji":"🍝","image":"https://images.unsplash.com/photo-1717166322351-a67aa53f4651?crop=entropy&cs=tinysrgb&fit=max&fm=jpg&ixid=M3w5NTU4NjF8MHwxfHNlYXJjaHwxfHxSaW1pbml8ZW58MXwwfHx8MTc4MTU1MzcwNXww&ixlib=rb-4.1.0&q=80&w=1080"},{"placeId":"modena","name":"Modena","nameIt":"Modena","type":"CITY","lat":44.6471,"lng":10.9252,"regionId":"emilia_romagna","regionName":"Emilia-Romagna","regionEmoji":"🍝","image":"https://images.unsplash.com/photo-1641950036463-eca47ef30d70?crop=entropy&cs=tinysrgb&fit=max&fm=jpg&ixid=M3w5NTU4NjF8MHwxfHNlYXJjaHwxfHxNb2RlbmF8ZW58MXwwfHx8MTc4MTU1MzcwNXww&ixlib=rb-4.1.0&q=80&w=1080"},{"placeId":"reggio_emilia","name":"Reggio Emilia","nameIt":"Reggio Emilia","type":"CITY","lat":44.6989,"lng":10.6297,"regionId":"emilia_romagna","regionName":"Emilia-Romagna","regionEmoji":"🍝","image":"https://images.unsplash.com/photo-1586857027886-cad8cac57dd6?crop=entropy&cs=tinysrgb&fit=max&fm=jpg&ixid=M3w5NTU4NjF8MHwxfHNlYXJjaHwxfHxSZWdnaW8lMjBFbWlsaWF8ZW58MXwwfHx8MTc4MTU1MzcwNnww&ixlib=rb-4.1.0&q=80&w=1080"},{"placeId":"piacenza","name":"Piacenza","nameIt":"Piacenza","type":"CITY","lat":45.0526,"lng":9.693,"regionId":"emilia_romagna","regionName":"Emilia-Romagna","regionEmoji":"🍝","image":"https://images.unsplash.com/photo-1716840769689-12b34378624e?crop=entropy&cs=tinysrgb&fit=max&fm=jpg&ixid=M3w5NTU4NjF8MHwxfHNlYXJjaHwxfHxQaWFjZW56YXxlbnwxfDB8fHwxNzgxNTUzNzA3fDA&ixlib=rb-4.1.0&q=80&w=1080"},{"placeId":"comacchio","name":"Comacchio","nameIt":"Comacchio","type":"TOWN","lat":44.6963,"lng":12.1833,"regionId":"emilia_romagna","regionName":"Emilia-Romagna","regionEmoji":"🍝","image":"https://images.unsplash.com/photo-1657009629616-c02867d35daf?crop=entropy&cs=tinysrgb&fit=max&fm=jpg&ixid=M3w5NTU4NjF8MHwxfHNlYXJjaHwxfHxDb21hY2NoaW98ZW58MXwwfHx8MTc4MTU1MzcwN3ww&ixlib=rb-4.1.0&q=80&w=1080"},{"placeId":"dozza","name":"Dozza","nameIt":"Dozza","type":"TOWN","lat":44.3637,"lng":11.6255,"regionId":"emilia_romagna","regionName":"Emilia-Romagna","regionEmoji":"🍝","image":"https://images.unsplash.com/photo-1576177161161-ffe6045cf18f?crop=entropy&cs=tinysrgb&fit=max&fm=jpg&ixid=M3w5NTU4NjF8MHwxfHNlYXJjaHwxfHxEb3p6YSUyMEVtaWxpYS1Sb21hZ25hfGVufDF8fHx8MTc4MjU2ODM3OHww&ixlib=rb-4.1.0&q=80&w=1080"},{"placeId":"trieste","name":"Trieste","nameIt":"Trieste","type":"CITY","lat":45.6495,"lng":13.7768,"regionId":"friuli","regionName":"Friuli-Venezia Giulia","regionEmoji":"🍷","image":"https://images.unsplash.com/photo-1676706980757-e3b5d6c16321?crop=entropy&cs=tinysrgb&fit=max&fm=jpg&ixid=M3w5NTU4NjF8MHwxfHNlYXJjaHwxfHxUcmllc3RlfGVufDF8MHx8fDE3ODE1NTM3MjJ8MA&ixlib=rb-4.1.0&q=80&w=1080"},{"placeId":"udine","name":"Udine","nameIt":"Udine","type":"CITY","lat":46.0711,"lng":13.2347,"regionId":"friuli","regionName":"Friuli-Venezia Giulia","regionEmoji":"🍷","image":"https://images.unsplash.com/photo-1606931482892-4ea6f26cce56?crop=entropy&cs=tinysrgb&fit=max&fm=jpg&ixid=M3w5NTU4NjF8MHwxfHNlYXJjaHwxfHxVZGluZXxlbnwxfDB8fHwxNzgxNTUzNzIzfDA&ixlib=rb-4.1.0&q=80&w=1080"},{"placeId":"aquileia","name":"Aquileia","nameIt":"Aquileia","type":"LANDMARK","lat":45.7693,"lng":13.3698,"regionId":"friuli","regionName":"Friuli-Venezia Giulia","regionEmoji":"🍷","image":"https://images.unsplash.com/photo-1673023252670-814ff5868ec2?crop=entropy&cs=tinysrgb&fit=max&fm=jpg&ixid=M3w5NTU4NjF8MHwxfHNlYXJjaHwxfHxBcXVpbGVpYXxlbnwxfDB8fHwxNzgxNTUzNzIzfDA&ixlib=rb-4.1.0&q=80&w=1080"},{"placeId":"grado","name":"Grado","nameIt":"Grado","type":"COAST","lat":45.6783,"lng":13.3917,"regionId":"friuli","regionName":"Friuli-Venezia Giulia","regionEmoji":"🍷","image":"https://images.unsplash.com/photo-1639651359432-9fa9d63810cf?crop=entropy&cs=tinysrgb&fit=max&fm=jpg&ixid=M3w5NTU4NjF8MHwxfHNlYXJjaHwxfHxHcmFkb3xlbnwxfDB8fHwxNzgxNTUzNzI0fDA&ixlib=rb-4.1.0&q=80&w=1080"},{"placeId":"tarvisio","name":"Tarvisio","nameIt":"Tarvisio","type":"MOUNTAIN","lat":46.506,"lng":13.5703,"regionId":"friuli","regionName":"Friuli-Venezia Giulia","regionEmoji":"🍷","image":"https://images.unsplash.com/photo-1668891929400-69034d1f56fd?crop=entropy&cs=tinysrgb&fit=max&fm=jpg&ixid=M3w5NTU4NjF8MHwxfHNlYXJjaHwyfHxUYXJ2aXNpb3xlbnwxfDB8fHwxNzgxNTUzNzI0fDA&ixlib=rb-4.1.0&q=80&w=1080"},{"placeId":"cividale_del_friuli","name":"Cividale del Friuli","nameIt":"Cividale del Friuli","type":"TOWN","lat":46.0931,"lng":13.4317,"regionId":"friuli","regionName":"Friuli-Venezia Giulia","regionEmoji":"🍷","image":"https://images.unsplash.com/photo-1732876343334-0642ef130be4?crop=entropy&cs=tinysrgb&fit=max&fm=jpg&ixid=M3w5NTU4NjF8MHwxfHNlYXJjaHwxfHxDaXZpZGFsZSUyMGRlbCUyMEZyaXVsaXxlbnwxfDB8fHwxNzgxNTUzNzI1fDA&ixlib=rb-4.1.0&q=80&w=1080"},{"placeId":"palmanova","name":"Palmanova","nameIt":"Palmanova","type":"TOWN","lat":45.9053,"lng":13.3119,"regionId":"friuli","regionName":"Friuli-Venezia Giulia","regionEmoji":"🍷","image":"https://images.unsplash.com/photo-1751834504750-18f8c6e041d5?crop=entropy&cs=tinysrgb&fit=max&fm=jpg&ixid=M3w5NTU4NjF8MHwxfHNlYXJjaHwxfHxQYWxtYW5vdmF8ZW58MXwwfHx8MTc4MTU1MzcyNnww&ixlib=rb-4.1.0&q=80&w=1080"},{"placeId":"lignano_sabbiadoro","name":"Lignano Sabbiadoro","nameIt":"Lignano Sabbiadoro","type":"COAST","lat":45.6906,"lng":13.1456,"regionId":"friuli","regionName":"Friuli-Venezia Giulia","regionEmoji":"🍷","image":"https://images.unsplash.com/photo-1637068732590-70c33ec21865?crop=entropy&cs=tinysrgb&fit=max&fm=jpg&ixid=M3w5NTU4NjF8MHwxfHNlYXJjaHwxfHxMaWduYW5vJTIwU2FiYmlhZG9yb3xlbnwxfDB8fHwxNzgxNTUzNzI3fDA&ixlib=rb-4.1.0&q=80&w=1080"},{"placeId":"pordenone","name":"Pordenone","nameIt":"Pordenone","type":"CITY","lat":45.9564,"lng":12.6615,"regionId":"friuli","regionName":"Friuli-Venezia Giulia","regionEmoji":"🍷","image":"https://images.unsplash.com/photo-1765403376837-983a986a77af?crop=entropy&cs=tinysrgb&fit=max&fm=jpg&ixid=M3w5NTU4NjF8MHwxfHNlYXJjaHwyfHxQb3JkZW5vbmV8ZW58MXwwfHx8MTc4MTU1MzcyN3ww&ixlib=rb-4.1.0&q=80&w=1080"},{"placeId":"san_daniele_del_friuli","name":"San Daniele del Friuli","nameIt":"San Daniele del Friuli","type":"TOWN","lat":46.1594,"lng":13.0106,"regionId":"friuli","regionName":"Friuli-Venezia Giulia","regionEmoji":"🍷","image":"https://images.unsplash.com/photo-1600369872071-59c9d59952fd?crop=entropy&cs=tinysrgb&fit=max&fm=jpg&ixid=M3w5NTU4NjF8MHwxfHNlYXJjaHwxfHxTYW4lMjBEYW5pZWxlJTIwZGVsJTIwRnJpdWxpfGVufDF8MHx8fDE3ODE1NTM3Mjh8MA&ixlib=rb-4.1.0&q=80&w=1080"},{"placeId":"rome","name":"Rome","nameIt":"Roma","type":"CITY","lat":41.9028,"lng":12.4964,"regionId":"lazio","regionName":"Lazio","regionEmoji":"🏛️","image":"https://images.unsplash.com/photo-1552832230-c0197dd311b5?crop=entropy&cs=tinysrgb&fit=max&fm=jpg&ixid=M3w5NTU4NjF8MHwxfHNlYXJjaHwxfHxSb21lfGVufDF8MHx8fDE3ODE1NTE3NzJ8MA&ixlib=rb-4.1.0&q=80&w=1080"},{"placeId":"tivoli","name":"Tivoli","nameIt":"Tivoli","type":"TOWN","lat":41.9632,"lng":12.7983,"regionId":"lazio","regionName":"Lazio","regionEmoji":"🏛️","image":"https://images.unsplash.com/photo-1632403419014-c1a68ed5e3b8?crop=entropy&cs=tinysrgb&fit=max&fm=jpg&ixid=M3w5NTU4NjF8MHwxfHNlYXJjaHwxfHxUaXZvbGl8ZW58MXwwfHx8MTc4MTU1MTc4NXww&ixlib=rb-4.1.0&q=80&w=1080"},{"placeId":"lake_bracciano","name":"Lake Bracciano","nameIt":"Lago di Bracciano","type":"LAKE","lat":42.1167,"lng":12.2,"regionId":"lazio","regionName":"Lazio","regionEmoji":"🏛️","image":"https://images.unsplash.com/photo-1688401256450-4fb250665e39?crop=entropy&cs=tinysrgb&fit=max&fm=jpg&ixid=M3w5NTU4NjF8MHwxfHNlYXJjaHwxfHxMYWtlJTIwQnJhY2NpYW5vfGVufDF8MHx8fDE3ODE1NTE4MjJ8MA&ixlib=rb-4.1.0&q=80&w=1080"},{"placeId":"civita_di_bagnoregio","name":"Civita di Bagnoregio","nameIt":"Civita di Bagnoregio","type":"TOWN","lat":42.6278,"lng":12.1131,"regionId":"lazio","regionName":"Lazio","regionEmoji":"🏛️","image":"https://images.unsplash.com/photo-1654603189638-238c0d458b35?crop=entropy&cs=tinysrgb&fit=max&fm=jpg&ixid=M3w5NTU4NjF8MHwxfHNlYXJjaHwxfHxDaXZpdGElMjBkaSUyMEJhZ25vcmVnaW98ZW58MXwwfHx8MTc4MTU1MTgzNHww&ixlib=rb-4.1.0&q=80&w=1080"},{"placeId":"sperlonga","name":"Sperlonga","nameIt":"Sperlonga","type":"COAST","lat":41.2567,"lng":13.4311,"regionId":"lazio","regionName":"Lazio","regionEmoji":"🏛️","image":"https://images.unsplash.com/photo-1596773032967-4bd736501fc4?crop=entropy&cs=tinysrgb&fit=max&fm=jpg&ixid=M3w5NTU4NjF8MHwxfHNlYXJjaHwxfHxTcGVybG9uZ2F8ZW58MXwwfHx8MTc4MTU1MTg0MHww&ixlib=rb-4.1.0&q=80&w=1080"},{"placeId":"ostia_antica","name":"Ostia Antica","nameIt":"Ostia Antica","type":"LANDMARK","lat":41.7561,"lng":12.2897,"regionId":"lazio","regionName":"Lazio","regionEmoji":"🏛️","image":"https://images.unsplash.com/photo-1696341964613-ef3d073b82af?crop=entropy&cs=tinysrgb&fit=max&fm=jpg&ixid=M3w5NTU4NjF8MHwxfHNlYXJjaHwxfHxPc3RpYSUyMEFudGljYXxlbnwxfDB8fHwxNzgxNTUxODQ2fDA&ixlib=rb-4.1.0&q=80&w=1080"},{"placeId":"viterbo","name":"Viterbo","nameIt":"Viterbo","type":"CITY","lat":42.4178,"lng":12.1047,"regionId":"lazio","regionName":"Lazio","regionEmoji":"🏛️","image":"https://images.unsplash.com/photo-1716754465630-3b4020a5b32b?crop=entropy&cs=tinysrgb&fit=max&fm=jpg&ixid=M3w5NTU4NjF8MHwxfHNlYXJjaHwxfHxWaXRlcmJvfGVufDF8MHx8fDE3ODE1NTE4NTN8MA&ixlib=rb-4.1.0&q=80&w=1080"},{"placeId":"lake_bolsena","name":"Lake Bolsena","nameIt":"Lago di Bolsena","type":"LAKE","lat":42.6,"lng":11.9667,"regionId":"lazio","regionName":"Lazio","regionEmoji":"🏛️","image":"https://images.unsplash.com/photo-1759596343188-28db4a5b27f4?crop=entropy&cs=tinysrgb&fit=max&fm=jpg&ixid=M3w5NTU4NjF8MHwxfHNlYXJjaHwyfHxMYWtlJTIwQm9sc2VuYXxlbnwxfDB8fHwxNzgxNTUxODYxfDA&ixlib=rb-4.1.0&q=80&w=1080"},{"placeId":"palestrina","name":"Palestrina","nameIt":"Palestrina","type":"TOWN","lat":41.8395,"lng":12.8931,"regionId":"lazio","regionName":"Lazio","regionEmoji":"🏛️","image":"https://www.lazionascosto.it/wp-content/uploads/2021/05/palestrina-palazzo-barberini-med.jpg"},{"placeId":"sermoneta","name":"Sermoneta","nameIt":"Sermoneta","type":"TOWN","lat":41.5495,"lng":12.9878,"regionId":"lazio","regionName":"Lazio","regionEmoji":"🏛️","image":"https://images.unsplash.com/photo-1661014826738-bc378e807e8c?crop=entropy&cs=tinysrgb&fit=max&fm=jpg&ixid=M3w5NTU4NjF8MHwxfHNlYXJjaHwxfHxTZXJtb25ldGF8ZW58MXwwfHx8MTc4MTU1MTg4MXww&ixlib=rb-4.1.0&q=80&w=1080"},{"placeId":"genoa","name":"Genoa","nameIt":"Genova","type":"CITY","lat":44.4056,"lng":8.9463,"regionId":"liguria","regionName":"Liguria","regionEmoji":"🫒","image":"https://images.unsplash.com/photo-1601047197922-156024782afd?crop=entropy&cs=tinysrgb&fit=max&fm=jpg&ixid=M3w5NTU4NjF8MHwxfHNlYXJjaHwxfHxHZW5vYXxlbnwxfDB8fHwxNzgxNTUzNzQ5fDA&ixlib=rb-4.1.0&q=80&w=1080"},{"placeId":"cinque_terre","name":"Cinque Terre","nameIt":"Cinque Terre","type":"COAST","lat":44.1461,"lng":9.6439,"regionId":"liguria","regionName":"Liguria","regionEmoji":"🫒","image":"https://images.unsplash.com/photo-1616234643798-12dc87da67b4?crop=entropy&cs=tinysrgb&fit=max&fm=jpg&ixid=M3w5NTU4NjF8MHwxfHNlYXJjaHwyfHxDaW5xdWUlMjBUZXJyZXxlbnwxfDB8fHwxNzgxNTUzNzU0fDA&ixlib=rb-4.1.0&q=80&w=1080"},{"placeId":"portofino","name":"Portofino","nameIt":"Portofino","type":"TOWN","lat":44.3025,"lng":9.2099,"regionId":"liguria","regionName":"Liguria","regionEmoji":"🫒","image":"https://images.unsplash.com/photo-1517988368819-88f4eacfef44?crop=entropy&cs=tinysrgb&fit=max&fm=jpg&ixid=M3w5NTU4NjF8MHwxfHNlYXJjaHwxfHxQb3J0b2Zpbm98ZW58MXwwfHx8MTc4MTU1Mzc1OXww&ixlib=rb-4.1.0&q=80&w=1080"},{"placeId":"sanremo","name":"Sanremo","nameIt":"Sanremo","type":"CITY","lat":43.8159,"lng":7.7765,"regionId":"liguria","regionName":"Liguria","regionEmoji":"🫒","image":"https://images.unsplash.com/photo-1681123797517-af8034bb8bec?crop=entropy&cs=tinysrgb&fit=max&fm=jpg&ixid=M3w5NTU4NjF8MHwxfHNlYXJjaHwxfHxTYW5yZW1vfGVufDF8MHx8fDE3ODE1NTM3NjZ8MA&ixlib=rb-4.1.0&q=80&w=1080"},{"placeId":"la_spezia","name":"La Spezia","nameIt":"La Spezia","type":"CITY","lat":44.1024,"lng":9.824,"regionId":"liguria","regionName":"Liguria","regionEmoji":"🫒","image":"https://images.unsplash.com/photo-1578001936607-f80ae7e1ad44?crop=entropy&cs=tinysrgb&fit=max&fm=jpg&ixid=M3w5NTU4NjF8MHwxfHNlYXJjaHwxfHxMYSUyMFNwZXppYXxlbnwxfDB8fHwxNzgxNTUzNzc2fDA&ixlib=rb-4.1.0&q=80&w=1080"},{"placeId":"camogli","name":"Camogli","nameIt":"Camogli","type":"TOWN","lat":44.3442,"lng":9.1538,"regionId":"liguria","regionName":"Liguria","regionEmoji":"🫒","image":"https://images.unsplash.com/photo-1732551929161-4a206ba4bb07?crop=entropy&cs=tinysrgb&fit=max&fm=jpg&ixid=M3w5NTU4NjF8MHwxfHNlYXJjaHwxfHxDYW1vZ2xpfGVufDF8MHx8fDE3ODE1NTM3ODZ8MA&ixlib=rb-4.1.0&q=80&w=1080"},{"placeId":"lerici","name":"Lerici","nameIt":"Lerici","type":"TOWN","lat":44.0754,"lng":9.91,"regionId":"liguria","regionName":"Liguria","regionEmoji":"🫒","image":"https://images.unsplash.com/photo-1532456578991-30a12f1986e5?crop=entropy&cs=tinysrgb&fit=max&fm=jpg&ixid=M3w5NTU4NjF8MHwxfHNlYXJjaHwxfHxMZXJpY2l8ZW58MXwwfHx8MTc4MTU1Mzc5OHww&ixlib=rb-4.1.0&q=80&w=1080"},{"placeId":"albenga","name":"Albenga","nameIt":"Albenga","type":"CITY","lat":44.0504,"lng":8.2134,"regionId":"liguria","regionName":"Liguria","regionEmoji":"🫒","image":"https://upload.wikimedia.org/wikipedia/commons/d/d1/Albenga.JPG"},{"placeId":"dolceacqua","name":"Dolceacqua","nameIt":"Dolceacqua","type":"TOWN","lat":43.8545,"lng":7.6265,"regionId":"liguria","regionName":"Liguria","regionEmoji":"🫒","image":"https://images.unsplash.com/photo-1635184502335-09efa3fb7b8a?crop=entropy&cs=tinysrgb&fit=max&fm=jpg&ixid=M3w5NTU4NjF8MHwxfHNlYXJjaHwyfHxEb2xjZWFjcXVhfGVufDF8MHx8fDE3ODE1NTM3NDJ8MA&ixlib=rb-4.1.0&q=80&w=1080"},{"placeId":"finale_ligure","name":"Finale Ligure","nameIt":"Finale Ligure","type":"TOWN","lat":44.1693,"lng":8.3426,"regionId":"liguria","regionName":"Liguria","regionEmoji":"🫒","image":"https://images.unsplash.com/photo-1592899548344-7014e63c65b8?crop=entropy&cs=tinysrgb&fit=max&fm=jpg&ixid=M3w5NTU4NjF8MHwxfHNlYXJjaHwxfHxGaW5hbGUlMjBMaWd1cmV8ZW58MXwwfHx8MTc4MTU1Mzc0Mnww&ixlib=rb-4.1.0&q=80&w=1080"},{"placeId":"milan","name":"Milan","nameIt":"Milano","type":"CITY","lat":45.4654,"lng":9.1859,"regionId":"lombardy","regionName":"Lombardy","regionEmoji":"👔","image":"https://images.unsplash.com/photo-1610016302534-6f67f1c968d8?crop=entropy&cs=tinysrgb&fit=max&fm=jpg&ixid=M3w5NTU4NjF8MHwxfHNlYXJjaHwxfHxNaWxhbnxlbnwxfDB8fHwxNzgxNjAxMTAwfDA&ixlib=rb-4.1.0&q=80&w=1080"},{"placeId":"lake_como","name":"Lake Como","nameIt":"Lago di Como","type":"LAKE","lat":45.9937,"lng":9.2565,"regionId":"lombardy","regionName":"Lombardy","regionEmoji":"👔","image":"https://images.unsplash.com/photo-1586974726316-c6302de6a160?crop=entropy&cs=tinysrgb&fit=max&fm=jpg&ixid=M3w5NTU4NjF8MHwxfHNlYXJjaHwxfHxMYWtlJTIwQ29tb3xlbnwxfDB8fHwxNzgxNjAxMTA3fDA&ixlib=rb-4.1.0&q=80&w=1080"},{"placeId":"bergamo","name":"Bergamo","nameIt":"Bergamo","type":"TOWN","lat":45.6983,"lng":9.6773,"regionId":"lombardy","regionName":"Lombardy","regionEmoji":"👔","image":"https://images.unsplash.com/photo-1722068326894-405c682d6933?crop=entropy&cs=tinysrgb&fit=max&fm=jpg&ixid=M3w5NTU4NjF8MHwxfHNlYXJjaHwxfHxCZXJnYW1vfGVufDF8MHx8fDE3ODE2MDExMTN8MA&ixlib=rb-4.1.0&q=80&w=1080"},{"placeId":"lake_garda_sirmione","name":"Sirmione, Lake Garda","nameIt":"Sirmione, Lago di Garda","type":"LAKE","lat":45.4958,"lng":10.6083,"regionId":"lombardy","regionName":"Lombardy","regionEmoji":"👔","image":"https://images.unsplash.com/photo-1609777496858-b0593f1e7c0c?crop=entropy&cs=tinysrgb&fit=max&fm=jpg&ixid=M3w5NTU4NjF8MHwxfHNlYXJjaHwxfHxTaXJtaW9uZSUyQyUyMExha2UlMjBHYXJkYXxlbnwxfDB8fHwxNzgxNjAxMTE4fDA&ixlib=rb-4.1.0&q=80&w=1080"},{"placeId":"mantua","name":"Mantua","nameIt":"Mantova","type":"TOWN","lat":45.1564,"lng":10.7914,"regionId":"lombardy","regionName":"Lombardy","regionEmoji":"👔","image":"https://images.unsplash.com/photo-1675427523142-b7c3e6acdbdc?crop=entropy&cs=tinysrgb&fit=max&fm=jpg&ixid=M3w5NTU4NjF8MHwxfHNlYXJjaHwxfHxNYW50dWF8ZW58MXwwfHx8MTc4MTYwMTEyNHww&ixlib=rb-4.1.0&q=80&w=1080"},{"placeId":"pavia","name":"Pavia","nameIt":"Pavia","type":"CITY","lat":45.1847,"lng":9.1582,"regionId":"lombardy","regionName":"Lombardy","regionEmoji":"👔","image":"https://images.unsplash.com/photo-1679098419872-77cb6eb24e46?crop=entropy&cs=tinysrgb&fit=max&fm=jpg&ixid=M3w5NTU4NjF8MHwxfHNlYXJjaHwxfHxQYXZpYXxlbnwxfDB8fHwxNzgxNjAxMDk2fDA&ixlib=rb-4.1.0&q=80&w=1080"},{"placeId":"cremona","name":"Cremona","nameIt":"Cremona","type":"CITY","lat":45.1327,"lng":10.0227,"regionId":"lombardy","regionName":"Lombardy","regionEmoji":"👔","image":"https://images.unsplash.com/photo-1647167452643-e5460914b3cd?crop=entropy&cs=tinysrgb&fit=max&fm=jpg&ixid=M3w5NTU4NjF8MHwxfHNlYXJjaHwxfHxDcmVtb25hfGVufDF8MHx8fDE3ODE2MDEwOTZ8MA&ixlib=rb-4.1.0&q=80&w=1080"},{"placeId":"lake_iseo","name":"Lake Iseo","nameIt":"Lago d'Iseo","type":"LAKE","lat":45.6554,"lng":10.0686,"regionId":"lombardy","regionName":"Lombardy","regionEmoji":"👔","image":"https://images.unsplash.com/photo-1695634929711-1e37053f262a?crop=entropy&cs=tinysrgb&fit=max&fm=jpg&ixid=M3w5NTU4NjF8MHwxfHNlYXJjaHwxfHxMYWtlJTIwSXNlb3xlbnwxfDB8fHwxNzgxNjAxMDk3fDA&ixlib=rb-4.1.0&q=80&w=1080"},{"placeId":"brescia","name":"Brescia","nameIt":"Brescia","type":"CITY","lat":45.5416,"lng":10.2118,"regionId":"lombardy","regionName":"Lombardy","regionEmoji":"👔","image":"https://images.unsplash.com/photo-1701271065696-d959a8f559e9?crop=entropy&cs=tinysrgb&fit=max&fm=jpg&ixid=M3w5NTU4NjF8MHwxfHNlYXJjaHwxfHxCcmVzY2lhfGVufDF8MHx8fDE3ODE2MDEwOTd8MA&ixlib=rb-4.1.0&q=80&w=1080"},{"placeId":"valchiavenna","name":"Chiavenna","nameIt":"Chiavenna","type":"TOWN","lat":46.3228,"lng":9.3969,"regionId":"lombardy","regionName":"Lombardy","regionEmoji":"👔","image":"https://images.unsplash.com/photo-1582452528883-5de22f7dc527?crop=entropy&cs=tinysrgb&fit=max&fm=jpg&ixid=M3w5NTU4NjF8MHwxfHNlYXJjaHw1fHxDaGlhdmVubmF8ZW58MXwwfHx8MTc4MTYwMTA5OHww&ixlib=rb-4.1.0&q=80&w=1080"},{"placeId":"ancona","name":"Ancona","nameIt":"Ancona","type":"CITY","lat":43.6158,"lng":13.5189,"regionId":"marche","regionName":"Marche","regionEmoji":"🌊","image":"https://images.unsplash.com/photo-1538511221642-69b32208ead7?crop=entropy&cs=tinysrgb&fit=max&fm=jpg&ixid=M3w5NTU4NjF8MHwxfHNlYXJjaHwxfHxBbmNvbmF8ZW58MXwwfHx8MTc4MTYwMTEzOHww&ixlib=rb-4.1.0&q=80&w=1080"},{"placeId":"urbino","name":"Urbino","nameIt":"Urbino","type":"TOWN","lat":43.7262,"lng":12.6367,"regionId":"marche","regionName":"Marche","regionEmoji":"🌊","image":"https://images.unsplash.com/photo-1660850395276-a2555052bc30?crop=entropy&cs=tinysrgb&fit=max&fm=jpg&ixid=M3w5NTU4NjF8MHwxfHNlYXJjaHwxfHxVcmJpbm98ZW58MXwwfHx8MTc4MTYwMTEzOXww&ixlib=rb-4.1.0&q=80&w=1080"},{"placeId":"ascoli_piceno","name":"Ascoli Piceno","nameIt":"Ascoli Piceno","type":"TOWN","lat":42.8535,"lng":13.5751,"regionId":"marche","regionName":"Marche","regionEmoji":"🌊","image":"https://images.unsplash.com/photo-1733701319141-d0cb341c505e?crop=entropy&cs=tinysrgb&fit=max&fm=jpg&ixid=M3w5NTU4NjF8MHwxfHNlYXJjaHwxfHxBc2NvbGklMjBQaWNlbm98ZW58MXwwfHx8MTc4MTYwMTEzOXww&ixlib=rb-4.1.0&q=80&w=1080"},{"placeId":"conero_riviera","name":"Conero Riviera","nameIt":"Riviera del Conero","type":"COAST","lat":43.55,"lng":13.61,"regionId":"marche","regionName":"Marche","regionEmoji":"🌊","image":"https://tourismmedia.italia.it/is/image/mitur/20210526162237-05-numana-parco-del-conero-marche-shutterstock-648599551-1?wid=800&hei=500&fit=constrain,1&fmt=webp"},{"placeId":"monti_sibillini","name":"Monti Sibillini National Park","nameIt":"Parco Nazionale dei Monti Sibillini","type":"MOUNTAIN","lat":42.95,"lng":13.25,"regionId":"marche","regionName":"Marche","regionEmoji":"🌊","image":"https://images.unsplash.com/photo-1596546235731-27cca6b8762d?crop=entropy&cs=tinysrgb&fit=max&fm=jpg&ixid=M3w5NTU4NjF8MHwxfHNlYXJjaHwxfHxNb250aSUyMFNpYmlsbGluaSUyME5hdGlvbmFsJTIwUGFyayUyME1hcmNoZXxlbnwxfHx8fDE3ODI1NjkzODR8MA&ixlib=rb-4.1.0&q=80&w=1080"},{"placeId":"campobasso","name":"Campobasso","nameIt":"Campobasso","type":"CITY","lat":41.5603,"lng":14.6557,"regionId":"molise","regionName":"Molise","regionEmoji":"🌾","image":"https://images.unsplash.com/photo-1721388468916-78b8878b7a92?crop=entropy&cs=tinysrgb&fit=max&fm=jpg&ixid=M3w5NTU4NjF8MHwxfHNlYXJjaHwxfHxDYW1wb2Jhc3NvJTIwTW9saXNlfGVufDF8fHx8MTc4MjU2OTQyOXww&ixlib=rb-4.1.0&q=80&w=1080"},{"placeId":"isernia","name":"Isernia","nameIt":"Isernia","type":"CITY","lat":41.5955,"lng":14.2329,"regionId":"molise","regionName":"Molise","regionEmoji":"🌾","image":"https://images.unsplash.com/photo-1579547878996-035dc088ef7c?crop=entropy&cs=tinysrgb&fit=max&fm=jpg&ixid=M3w5NTU4NjF8MHwxfHNlYXJjaHwxfHxJc2VybmlhJTIwTW9saXNlfGVufDF8fHx8MTc4MjU2OTQ5MXww&ixlib=rb-4.1.0&q=80&w=1080"},{"placeId":"agnone","name":"Agnone","nameIt":"Agnone","type":"TOWN","lat":41.8086,"lng":14.3693,"regionId":"molise","regionName":"Molise","regionEmoji":"🌾","image":"https://upload.wikimedia.org/wikipedia/commons/d/d2/Agnone_Molise_Italy.jpg"},{"placeId":"termoli","name":"Termoli","nameIt":"Termoli","type":"COAST","lat":41.9926,"lng":14.9993,"regionId":"molise","regionName":"Molise","regionEmoji":"🌾","image":"https://images.unsplash.com/photo-1599667687816-431289420368?crop=entropy&cs=tinysrgb&fit=max&fm=jpg&ixid=M3w5NTU4NjF8MHwxfHNlYXJjaHwzfHxUZXJtb2xpJTIwTW9saXNlfGVufDF8fHx8MTc4MjU2OTU0M3ww&ixlib=rb-4.1.0&q=80&w=1080"},{"placeId":"saepinum","name":"Saepinum Archaeological Site","nameIt":"Sepino - Altilia","type":"LANDMARK","lat":41.4142,"lng":14.6556,"regionId":"molise","regionName":"Molise","regionEmoji":"🌾","image":"https://www.italyreview.com/uploads/2/6/3/6/26365745/saepinum-molise-22_1_orig.jpg"},{"placeId":"pietrabbondante","name":"Pietrabbondante","nameIt":"Pietrabbondante","type":"TOWN","lat":41.7453,"lng":14.3897,"regionId":"molise","regionName":"Molise","regionEmoji":"🌾","image":"https://images.unsplash.com/photo-1579547878996-035dc088ef7c?crop=entropy&cs=tinysrgb&fit=max&fm=jpg&ixid=M3w5NTU4NjF8MHwxfHNlYXJjaHwxfHxQaWV0cmFiYm9uZGFudGUlMjBNb2xpc2V8ZW58MXx8fHwxNzgyNTY5NjAwfDA&ixlib=rb-4.1.0&q=80&w=1080"},{"placeId":"larino","name":"Larino","nameIt":"Larino","type":"TOWN","lat":41.8006,"lng":14.9119,"regionId":"molise","regionName":"Molise","regionEmoji":"🌾","image":"https://images.visititaly.eu/uploads/articoli/evidenza/20210208172149centro%20storico.jpg"},{"placeId":"bojano","name":"Bojano","nameIt":"Bojano","type":"TOWN","lat":41.4814,"lng":14.4722,"regionId":"molise","regionName":"Molise","regionEmoji":"🌾","image":"https://upload.wikimedia.org/wikipedia/commons/9/9f/Bojano_panorama.jpg"},{"placeId":"venafro","name":"Venafro","nameIt":"Venafro","type":"TOWN","lat":41.4833,"lng":14.05,"regionId":"molise","regionName":"Molise","regionEmoji":"🌾","image":"https://images.trvl-media.com/place/6129500/97c12dc8-9259-4ac8-a031-cc285e8bc7b9.jpg"},{"placeId":"capracotta","name":"Capracotta","nameIt":"Capracotta","type":"MOUNTAIN","lat":41.8358,"lng":14.2686,"regionId":"molise","regionName":"Molise","regionEmoji":"🌾","image":"https://upload.wikimedia.org/wikipedia/commons/b/b6/Capracotta.jpg"},{"placeId":"turin","name":"Turin","nameIt":"Torino","type":"CITY","lat":45.0703,"lng":7.6869,"regionId":"piedmont","regionName":"Piedmont","regionEmoji":"🍫","image":"https://tourismmedia.italia.it/is/image/mitur/20210329170000-torino-skyline-piemonte-gettyimages-636399938-1?wid=800&hei=500&fit=constrain,1&fmt=webp"},{"placeId":"alba","name":"Alba","nameIt":"Alba","type":"TOWN","lat":44.6985,"lng":8.0353,"regionId":"piedmont","regionName":"Piedmont","regionEmoji":"🍫","image":"https://upload.wikimedia.org/wikipedia/commons/0/0a/PmAlba01.jpg"},{"placeId":"lake_orta","name":"Lake Orta","nameIt":"Lago d'Orta","type":"LAKE","lat":45.7986,"lng":8.4017,"regionId":"piedmont","regionName":"Piedmont","regionEmoji":"🍫","image":"https://images.unsplash.com/photo-1710185997245-d877555e4ff3?crop=entropy&cs=tinysrgb&fit=max&fm=jpg&ixid=M3w5NTU4NjF8MHwxfHNlYXJjaHwxfHxMYWtlJTIwT3J0YXxlbnwxfDB8fHwxNzgxNjAxMTUwfDA&ixlib=rb-4.1.0&q=80&w=1080"},{"placeId":"asti","name":"Asti","nameIt":"Asti","type":"TOWN","lat":44.9003,"lng":8.2064,"regionId":"piedmont","regionName":"Piedmont","regionEmoji":"🍫","image":"https://liveinitalymag.com/wp-content/uploads/2020/09/DAsti-1024x631.jpg"},{"placeId":"sestriere","name":"Sestriere","nameIt":"Sestriere","type":"MOUNTAIN","lat":44.959,"lng":6.8769,"regionId":"piedmont","regionName":"Piedmont","regionEmoji":"🍫","image":"https://upload.wikimedia.org/wikipedia/commons/1/13/Sestriere_2017.jpg"},{"placeId":"casale_monferrato","name":"Casale Monferrato","nameIt":"Casale Monferrato","type":"TOWN","lat":45.1338,"lng":8.4508,"regionId":"piedmont","regionName":"Piedmont","regionEmoji":"🍫","image":"https://www.italia.it/en/piedmont/things-to-do/hills-villages-monferrato-what-to-do-see"},{"placeId":"verbania","name":"Verbania","nameIt":"Verbania","type":"TOWN","lat":45.9213,"lng":8.5517,"regionId":"piedmont","regionName":"Piedmont","regionEmoji":"🍫","image":"https://tourismmedia.italia.it/is/image/mitur/2480X1000_verbania_destination?wid=2480&hei=1000&fit=constrain,1&fmt=webp"},{"placeId":"sacra_san_michele","name":"Sacra di San Michele","nameIt":"Sacra di San Michele","type":"LANDMARK","lat":45.095,"lng":7.354,"regionId":"piedmont","regionName":"Piedmont","regionEmoji":"🍫","image":"https://images.unsplash.com/photo-1655884737128-fd796191b774?crop=entropy&cs=tinysrgb&fit=max&fm=jpg&ixid=M3w5NTU4NjF8MHwxfHNlYXJjaHwxfHxTYWNyYSUyMGRpJTIwU2FuJTIwTWljaGVsZSUyMFBpZWRtb250fGVufDF8fHx8MTc4MjU3MDEzMnww&ixlib=rb-4.1.0&q=80&w=1080"},{"placeId":"stresa","name":"Stresa","nameIt":"Stresa","type":"TOWN","lat":45.8837,"lng":8.5348,"regionId":"piedmont","regionName":"Piedmont","regionEmoji":"🍫","image":"https://images.unsplash.com/photo-1718548530540-d2fea733425e?crop=entropy&cs=tinysrgb&fit=max&fm=jpg&ixid=M3w5NTU4NjF8MHwxfHNlYXJjaHwzfHxTdHJlc2ElMjBQaWVkbW9udHxlbnwxfHx8fDE3ODI1NzAxNTh8MA&ixlib=rb-4.1.0&q=80&w=1080"},{"placeId":"acqui_terme","name":"Acqui Terme","nameIt":"Acqui Terme","type":"TOWN","lat":44.6756,"lng":8.4679,"regionId":"piedmont","regionName":"Piedmont","regionEmoji":"🍫","image":"https://tourismmedia.italia.it/is/image/mitur/2480X1000_acqui_terme_destination?wid=2480&hei=1000&fit=constrain,1&fmt=webp"},{"placeId":"bari","name":"Bari","nameIt":"Bari","type":"CITY","lat":41.1177,"lng":16.8719,"regionId":"puglia","regionName":"Puglia","regionEmoji":"🫙","image":"https://images.unsplash.com/photo-1611238763458-0de1027136cf?crop=entropy&cs=tinysrgb&fit=max&fm=jpg&ixid=M3w5NTU4NjF8MHwxfHNlYXJjaHwxfHxCYXJpfGVufDF8MHx8fDE3ODE2MDExNTh8MA&ixlib=rb-4.1.0&q=80&w=1080"},{"placeId":"lecce","name":"Lecce","nameIt":"Lecce","type":"CITY","lat":40.3519,"lng":18.175,"regionId":"puglia","regionName":"Puglia","regionEmoji":"🫙","image":"https://images.unsplash.com/photo-1680938166156-07a91b54745e?crop=entropy&cs=tinysrgb&fit=max&fm=jpg&ixid=M3w5NTU4NjF8MHwxfHNlYXJjaHwxfHxMZWNjZXxlbnwxfDB8fHwxNzgxNjAxMTU5fDA&ixlib=rb-4.1.0&q=80&w=1080"},{"placeId":"alberobello","name":"Alberobello","nameIt":"Alberobello","type":"TOWN","lat":40.7842,"lng":17.2394,"regionId":"puglia","regionName":"Puglia","regionEmoji":"🫙","image":"https://images.unsplash.com/photo-1609948368716-254e2501d243?crop=entropy&cs=tinysrgb&fit=max&fm=jpg&ixid=M3w5NTU4NjF8MHwxfHNlYXJjaHwxfHxBbGJlcm9iZWxsb3xlbnwxfDB8fHwxNzgxNjAxMTU5fDA&ixlib=rb-4.1.0&q=80&w=1080"},{"placeId":"polignano_a_mare","name":"Polignano a Mare","nameIt":"Polignano a Mare","type":"COAST","lat":40.9956,"lng":17.2158,"regionId":"puglia","regionName":"Puglia","regionEmoji":"🫙","image":"https://images.unsplash.com/photo-1600160805984-2d44e4a1a903?crop=entropy&cs=tinysrgb&fit=max&fm=jpg&ixid=M3w5NTU4NjF8MHwxfHNlYXJjaHwxfHxQb2xpZ25hbm8lMjBhJTIwTWFyZXxlbnwxfDB8fHwxNzgxNjAxMTYwfDA&ixlib=rb-4.1.0&q=80&w=1080"},{"placeId":"ostuni","name":"Ostuni","nameIt":"Ostuni","type":"TOWN","lat":40.7285,"lng":17.5784,"regionId":"puglia","regionName":"Puglia","regionEmoji":"🫙","image":"https://images.unsplash.com/photo-1732966713411-1bcf1273eaa6?crop=entropy&cs=tinysrgb&fit=max&fm=jpg&ixid=M3w5NTU4NjF8MHwxfHNlYXJjaHwxfHxPc3R1bml8ZW58MXwwfHx8MTc4MTYwMTE2MHww&ixlib=rb-4.1.0&q=80&w=1080"},{"placeId":"otranto","name":"Otranto","nameIt":"Otranto","type":"TOWN","lat":40.1472,"lng":18.4936,"regionId":"puglia","regionName":"Puglia","regionEmoji":"🫙","image":"https://images.unsplash.com/photo-1582008251265-bb5e21547f4f?crop=entropy&cs=tinysrgb&fit=max&fm=jpg&ixid=M3w5NTU4NjF8MHwxfHNlYXJjaHwxfHxPdHJhbnRvfGVufDF8MHx8fDE3ODE2MDExNjF8MA&ixlib=rb-4.1.0&q=80&w=1080"},{"placeId":"matera_adjacent_castellaneta","name":"Castellana Grotte","nameIt":"Castellana Grotte","type":"TOWN","lat":40.8833,"lng":17.1667,"regionId":"puglia","regionName":"Puglia","regionEmoji":"🫙","image":"https://images.unsplash.com/photo-1779814887517-871988cee620?crop=entropy&cs=tinysrgb&fit=max&fm=jpg&ixid=M3w5NTU4NjF8MHwxfHNlYXJjaHwyfHxDYXN0ZWxsYW5hJTIwR3JvdHRlfGVufDF8MHx8fDE3ODE2MDExNjF8MA&ixlib=rb-4.1.0&q=80&w=1080"},{"placeId":"vieste","name":"Vieste","nameIt":"Vieste","type":"TOWN","lat":41.8818,"lng":16.1752,"regionId":"puglia","regionName":"Puglia","regionEmoji":"🫙","image":"https://images.unsplash.com/photo-1574171182096-769ad9bc7b8d?crop=entropy&cs=tinysrgb&fit=max&fm=jpg&ixid=M3w5NTU4NjF8MHwxfHNlYXJjaHwxfHxWaWVzdGV8ZW58MXwwfHx8MTc4MTYwMTE2Mnww&ixlib=rb-4.1.0&q=80&w=1080"},{"placeId":"trani","name":"Trani","nameIt":"Trani","type":"CITY","lat":41.2764,"lng":16.4152,"regionId":"puglia","regionName":"Puglia","regionEmoji":"🫙","image":"https://images.unsplash.com/photo-1611354905491-973a69173458?crop=entropy&cs=tinysrgb&fit=max&fm=jpg&ixid=M3w5NTU4NjF8MHwxfHNlYXJjaHwxfHxUcmFuaXxlbnwxfDB8fHwxNzgxNjAxMTYyfDA&ixlib=rb-4.1.0&q=80&w=1080"},{"placeId":"locorotondo","name":"Locorotondo","nameIt":"Locorotondo","type":"TOWN","lat":40.7555,"lng":17.3261,"regionId":"puglia","regionName":"Puglia","regionEmoji":"🫙","image":"https://images.unsplash.com/photo-1527166124503-10400af9d69d?crop=entropy&cs=tinysrgb&fit=max&fm=jpg&ixid=M3w5NTU4NjF8MHwxfHNlYXJjaHwyfHxMb2Nvcm90b25kb3xlbnwxfDB8fHwxNzgxNjAxMTYzfDA&ixlib=rb-4.1.0&q=80&w=1080"},{"placeId":"cagliari","name":"Cagliari","nameIt":"Cagliari","type":"CITY","lat":39.2238,"lng":9.1217,"regionId":"sardinia","regionName":"Sardinia","regionEmoji":"🏖️","image":"https://images.unsplash.com/photo-1593075356257-252c29b02ce8?crop=entropy&cs=tinysrgb&fit=max&fm=jpg&ixid=M3w5NTU4NjF8MHwxfHNlYXJjaHwxfHxDYWdsaWFyaXxlbnwxfDB8fHwxNzgxNTU5NDM0fDA&ixlib=rb-4.1.0&q=80&w=1080"},{"placeId":"su_nuraxi_barumini","name":"Su Nuraxi of Barumini","nameIt":"Su Nuraxi di Barumini","type":"LANDMARK","lat":39.7008,"lng":9.0003,"regionId":"sardinia","regionName":"Sardinia","regionEmoji":"🏖️","image":"https://encrypted-tbn0.gstatic.com/images?q=tbn:ANd9GcRvz-AZHrKksIOoSfPNWc7LuGmL8X4NwzjVRKsOe4UYsgJto8NsuzKJDFfr&s=10"},{"placeId":"costa_smeralda","name":"Costa Smeralda","nameIt":"Costa Smeralda","type":"COAST","lat":41.08,"lng":9.53,"regionId":"sardinia","regionName":"Sardinia","regionEmoji":"🏖️","image":"https://images.unsplash.com/photo-1698247186956-1a06d3c7fb6c?crop=entropy&cs=tinysrgb&fit=max&fm=jpg&ixid=M3w5NTU4NjF8MHwxfHNlYXJjaHwxfHxDb3N0YSUyMFNtZXJhbGRhfGVufDF8MHx8fDE3ODE1NTk0MzV8MA&ixlib=rb-4.1.0&q=80&w=1080"},{"placeId":"orgosolo","name":"Orgosolo","nameIt":"Orgosolo","type":"TOWN","lat":40.1928,"lng":9.3539,"regionId":"sardinia","regionName":"Sardinia","regionEmoji":"🏖️","image":"https://images.unsplash.com/photo-1642341306748-08cd062d2d5f?crop=entropy&cs=tinysrgb&fit=max&fm=jpg&ixid=M3w5NTU4NjF8MHwxfHNlYXJjaHwxfHxPcmdvc29sb3xlbnwxfDB8fHwxNzgxNTU5NDM2fDA&ixlib=rb-4.1.0&q=80&w=1080"},{"placeId":"alghero","name":"Alghero","nameIt":"Alghero","type":"TOWN","lat":40.5594,"lng":8.3192,"regionId":"sardinia","regionName":"Sardinia","regionEmoji":"🏖️","image":"https://images.unsplash.com/photo-1613807174615-4af4b5ae30da?crop=entropy&cs=tinysrgb&fit=max&fm=jpg&ixid=M3w5NTU4NjF8MHwxfHNlYXJjaHwxfHxBbGdoZXJvfGVufDF8MHx8fDE3ODE1NTk0MzZ8MA&ixlib=rb-4.1.0&q=80&w=1080"},{"placeId":"bosa","name":"Bosa","nameIt":"Bosa","type":"TOWN","lat":40.2985,"lng":8.502,"regionId":"sardinia","regionName":"Sardinia","regionEmoji":"🏖️","image":"https://images.unsplash.com/photo-1573285965005-2e0156881091?crop=entropy&cs=tinysrgb&fit=max&fm=jpg&ixid=M3w5NTU4NjF8MHwxfHNlYXJjaHwxfHxCb3NhfGVufDF8MHx8fDE3ODE1NTk0MzZ8MA&ixlib=rb-4.1.0&q=80&w=1080"},{"placeId":"maddalena_archipelago","name":"La Maddalena Archipelago","nameIt":"Arcipelago di La Maddalena","type":"COAST","lat":41.2133,"lng":9.405,"regionId":"sardinia","regionName":"Sardinia","regionEmoji":"🏖️","image":"https://images.unsplash.com/photo-1752901896089-82dc1c390007?crop=entropy&cs=tinysrgb&fit=max&fm=jpg&ixid=M3w5NTU4NjF8MHwxfHNlYXJjaHwxfHxMYSUyME1hZGRhbGVuYSUyMEFyY2hpcGVsYWdvfGVufDF8MHx8fDE3ODE1NTk0Mzd8MA&ixlib=rb-4.1.0&q=80&w=1080"},{"placeId":"oristano","name":"Oristano","nameIt":"Oristano","type":"CITY","lat":39.9063,"lng":8.5916,"regionId":"sardinia","regionName":"Sardinia","regionEmoji":"🏖️","image":"https://images.unsplash.com/photo-1573285965005-2e0156881091?crop=entropy&cs=tinysrgb&fit=max&fm=jpg&ixid=M3w5NTU4NjF8MHwxfHNlYXJjaHwxfHxPcmlzdGFub3xlbnwxfDB8fHwxNzgxNTU5NDM3fDA&ixlib=rb-4.1.0&q=80&w=1080"},{"placeId":"gennargentu","name":"Gennargentu Mountains","nameIt":"Massiccio del Gennargentu","type":"MOUNTAIN","lat":39.99,"lng":9.25,"regionId":"sardinia","regionName":"Sardinia","regionEmoji":"🏖️","image":"https://images.unsplash.com/photo-1591387521806-3b42ef79974c?crop=entropy&cs=tinysrgb&fit=max&fm=jpg&ixid=M3w5NTU4NjF8MHwxfHNlYXJjaHwxfHxHZW5uYXJnZW50dSUyME1vdW50YWluc3xlbnwxfDB8fHwxNzgxNTU5NDM4fDA&ixlib=rb-4.1.0&q=80&w=1080"},{"placeId":"castelsardo","name":"Castelsardo","nameIt":"Castelsardo","type":"TOWN","lat":40.9173,"lng":8.7124,"regionId":"sardinia","regionName":"Sardinia","regionEmoji":"🏖️","image":"https://images.unsplash.com/photo-1614346967441-5a98908e0dad?crop=entropy&cs=tinysrgb&fit=max&fm=jpg&ixid=M3w5NTU4NjF8MHwxfHNlYXJjaHwxfHxDYXN0ZWxzYXJkb3xlbnwxfDB8fHwxNzgxNTU5NDM5fDA&ixlib=rb-4.1.0&q=80&w=1080"},{"placeId":"palermo","name":"Palermo","nameIt":"Palermo","type":"CITY","lat":38.1157,"lng":13.3615,"regionId":"sicily","regionName":"Sicily","regionEmoji":"🌋","image":"https://images.unsplash.com/photo-1618048558171-8c9edde77055?crop=entropy&cs=tinysrgb&fit=max&fm=jpg&ixid=M3w5NTU4NjF8MHwxfHNlYXJjaHwxfHxQYWxlcm1vfGVufDF8MHx8fDE3ODE2MDExNzd8MA&ixlib=rb-4.1.0&q=80&w=1080"},{"placeId":"agrigento","name":"Agrigento","nameIt":"Agrigento","type":"LANDMARK","lat":37.3111,"lng":13.5765,"regionId":"sicily","regionName":"Sicily","regionEmoji":"🌋","image":"https://images.unsplash.com/photo-1668212145926-8725e292145d?crop=entropy&cs=tinysrgb&fit=max&fm=jpg&ixid=M3w5NTU4NjF8MHwxfHNlYXJjaHwyfHxBZ3JpZ2VudG98ZW58MXwwfHx8MTc4MTYwMTE3OHww&ixlib=rb-4.1.0&q=80&w=1080"},{"placeId":"taormina","name":"Taormina","nameIt":"Taormina","type":"TOWN","lat":37.8526,"lng":15.2869,"regionId":"sicily","regionName":"Sicily","regionEmoji":"🌋","image":"https://images.unsplash.com/photo-1617103099853-6dd647eb1489?crop=entropy&cs=tinysrgb&fit=max&fm=jpg&ixid=M3w5NTU4NjF8MHwxfHNlYXJjaHwxfHxUYW9ybWluYXxlbnwxfDB8fHwxNzgxNjAxMTc4fDA&ixlib=rb-4.1.0&q=80&w=1080"},{"placeId":"siracusa","name":"Syracuse","nameIt":"Siracusa","type":"CITY","lat":37.0755,"lng":15.2866,"regionId":"sicily","regionName":"Sicily","regionEmoji":"🌋","image":"https://images.unsplash.com/photo-1559397052-ce686599cf78?crop=entropy&cs=tinysrgb&fit=max&fm=jpg&ixid=M3w5NTU4NjF8MHwxfHNlYXJjaHwxfHxTeXJhY3VzZXxlbnwxfDB8fHwxNzgxNjAxMTc4fDA&ixlib=rb-4.1.0&q=80&w=1080"},{"placeId":"trapani","name":"Trapani","nameIt":"Trapani","type":"COAST","lat":38.0176,"lng":12.5136,"regionId":"sicily","regionName":"Sicily","regionEmoji":"🌋","image":"https://images.unsplash.com/photo-1683295550311-4a5bfaeb43c0?crop=entropy&cs=tinysrgb&fit=max&fm=jpg&ixid=M3w5NTU4NjF8MHwxfHNlYXJjaHwxfHxUcmFwYW5pfGVufDF8MHx8fDE3ODE2MDExNzl8MA&ixlib=rb-4.1.0&q=80&w=1080"},{"placeId":"cefalu","name":"Cefalù","nameIt":"Cefalù","type":"TOWN","lat":38.0392,"lng":14.0228,"regionId":"sicily","regionName":"Sicily","regionEmoji":"🌋","image":"https://images.unsplash.com/photo-1621965466770-796bf5000084?crop=entropy&cs=tinysrgb&fit=max&fm=jpg&ixid=M3w5NTU4NjF8MHwxfHNlYXJjaHwxfHxDZWZhbCVDMyVCOXxlbnwxfDB8fHwxNzgxNjAxMTc5fDA&ixlib=rb-4.1.0&q=80&w=1080"},{"placeId":"marsala","name":"Marsala","nameIt":"Marsala","type":"CITY","lat":37.7986,"lng":12.4353,"regionId":"sicily","regionName":"Sicily","regionEmoji":"🌋","image":"https://images.unsplash.com/photo-1541345544687-ef6c84c669cd?crop=entropy&cs=tinysrgb&fit=max&fm=jpg&ixid=M3w5NTU4NjF8MHwxfHNlYXJjaHwxfHxNYXJzYWxhfGVufDF8MHx8fDE3ODE2MDExODB8MA&ixlib=rb-4.1.0&q=80&w=1080"},{"placeId":"etna","name":"Mount Etna","nameIt":"Monte Etna","type":"MOUNTAIN","lat":37.751,"lng":14.9934,"regionId":"sicily","regionName":"Sicily","regionEmoji":"🌋","image":"https://images.unsplash.com/photo-1559424092-88b61cb7a6c2?crop=entropy&cs=tinysrgb&fit=max&fm=jpg&ixid=M3w5NTU4NjF8MHwxfHNlYXJjaHwxfHxNb3VudCUyMEV0bmF8ZW58MXwwfHx8MTc4MTYwMTE4MHww&ixlib=rb-4.1.0&q=80&w=1080"},{"placeId":"ragusa","name":"Ragusa","nameIt":"Ragusa","type":"CITY","lat":36.927,"lng":14.7315,"regionId":"sicily","regionName":"Sicily","regionEmoji":"🌋","image":"https://images.unsplash.com/photo-1698042873732-86c0bb1ad73c?crop=entropy&cs=tinysrgb&fit=max&fm=jpg&ixid=M3w5NTU4NjF8MHwxfHNlYXJjaHwxfHxSYWd1c2F8ZW58MXwwfHx8MTc4MTYwMTE4MXww&ixlib=rb-4.1.0&q=80&w=1080"},{"placeId":"aeolian_islands","name":"Aeolian Islands","nameIt":"Isole Eolie","type":"COAST","lat":38.4918,"lng":14.9232,"regionId":"sicily","regionName":"Sicily","regionEmoji":"🌋","image":"https://images.unsplash.com/photo-1566515706327-d8900c9bf2fd?crop=entropy&cs=tinysrgb&fit=max&fm=jpg&ixid=M3w5NTU4NjF8MHwxfHNlYXJjaHwxfHxBZW9saWFuJTIwSXNsYW5kc3xlbnwxfDB8fHwxNzgxNjAxMTgxfDA&ixlib=rb-4.1.0&q=80&w=1080"},{"placeId":"trento","name":"Trento","nameIt":"Trento","type":"CITY","lat":46.0748,"lng":11.1217,"regionId":"trentino","regionName":"Trentino-Alto Adige","regionEmoji":"⛷️","image":"https://images.unsplash.com/photo-1681477421173-804e57cda0e5?crop=entropy&cs=tinysrgb&fit=max&fm=jpg&ixid=M3w5NTU4NjF8MHwxfHNlYXJjaHwxfHxUcmVudG98ZW58MXwwfHx8MTc4MTYwMTE4N3ww&ixlib=rb-4.1.0&q=80&w=1080"},{"placeId":"bolzano","name":"Bolzano","nameIt":"Bolzano / Bozen","type":"CITY","lat":46.4983,"lng":11.3548,"regionId":"trentino","regionName":"Trentino-Alto Adige","regionEmoji":"⛷️","image":"https://images.unsplash.com/photo-1672167681836-4fac084a9f38?crop=entropy&cs=tinysrgb&fit=max&fm=jpg&ixid=M3w5NTU4NjF8MHwxfHNlYXJjaHwxfHxCb2x6YW5vfGVufDF8MHx8fDE3ODE2MDExODd8MA&ixlib=rb-4.1.0&q=80&w=1080"},{"placeId":"lake_garda_riva","name":"Riva del Garda","nameIt":"Riva del Garda","type":"LAKE","lat":45.8857,"lng":10.8405,"regionId":"trentino","regionName":"Trentino-Alto Adige","regionEmoji":"⛷️","image":"https://images.unsplash.com/photo-1475066903363-e46730503e66?crop=entropy&cs=tinysrgb&fit=max&fm=jpg&ixid=M3w5NTU4NjF8MHwxfHNlYXJjaHwxfHxSaXZhJTIwZGVsJTIwR2FyZGF8ZW58MXwwfHx8MTc4MTYwMTE4N3ww&ixlib=rb-4.1.0&q=80&w=1080"},{"placeId":"cortina_dolomites","name":"Canazei and the Sella Ronda","nameIt":"Canazei","type":"MOUNTAIN","lat":46.4769,"lng":11.7706,"regionId":"trentino","regionName":"Trentino-Alto Adige","regionEmoji":"⛷️","image":"https://images.unsplash.com/photo-1753978103194-56aebd721785?crop=entropy&cs=tinysrgb&fit=max&fm=jpg&ixid=M3w5NTU4NjF8MHwxfHNlYXJjaHwxfHxDYW5hemVpJTIwYW5kJTIwdGhlJTIwU2VsbGElMjBSb25kYXxlbnwxfDB8fHwxNzgxNjAxMTg4fDA&ixlib=rb-4.1.0&q=80&w=1080"},{"placeId":"merano","name":"Merano","nameIt":"Merano / Meran","type":"TOWN","lat":46.6713,"lng":11.1597,"regionId":"trentino","regionName":"Trentino-Alto Adige","regionEmoji":"⛷️","image":"https://images.unsplash.com/photo-1636218586093-031f7290a2c8?crop=entropy&cs=tinysrgb&fit=max&fm=jpg&ixid=M3w5NTU4NjF8MHwxfHNlYXJjaHwxfHxNZXJhbm98ZW58MXwwfHx8MTc4MTYwMTE4OHww&ixlib=rb-4.1.0&q=80&w=1080"},{"placeId":"florence","name":"Florence","nameIt":"Firenze","type":"CITY","lat":43.7696,"lng":11.2558,"regionId":"tuscany","regionName":"Tuscany","regionEmoji":"🌻","image":"https://images.unsplash.com/photo-1476362174823-3a23f4aa6d76?crop=entropy&cs=tinysrgb&fit=max&fm=jpg&ixid=M3w5NTU4NjF8MHwxfHNlYXJjaHwxfHxGbG9yZW5jZXxlbnwxfDB8fHwxNzgxNjIxNDkyfDA&ixlib=rb-4.1.0&q=80&w=1080"},{"placeId":"siena","name":"Siena","nameIt":"Siena","type":"CITY","lat":43.3186,"lng":11.3307,"regionId":"tuscany","regionName":"Tuscany","regionEmoji":"🌻","image":"https://images.unsplash.com/photo-1604142056225-1feabdac3af1?crop=entropy&cs=tinysrgb&fit=max&fm=jpg&ixid=M3w5NTU4NjF8MHwxfHNlYXJjaHwxfHxTaWVuYXxlbnwxfDB8fHwxNzgxNjIxNDkyfDA&ixlib=rb-4.1.0&q=80&w=1080"},{"placeId":"san_gimignano","name":"San Gimignano","nameIt":"San Gimignano","type":"TOWN","lat":43.4676,"lng":11.0431,"regionId":"tuscany","regionName":"Tuscany","regionEmoji":"🌻","image":"https://images.unsplash.com/photo-1672235212392-a6389a42dd9d?crop=entropy&cs=tinysrgb&fit=max&fm=jpg&ixid=M3w5NTU4NjF8MHwxfHNlYXJjaHwxfHxTYW4lMjBHaW1pZ25hbm98ZW58MXwwfHx8MTc4MTYyMTQ5Mnww&ixlib=rb-4.1.0&q=80&w=1080"},{"placeId":"val_dorcia","name":"Val d'Orcia","nameIt":"Val d'Orcia","type":"LANDMARK","lat":43.05,"lng":11.6,"regionId":"tuscany","regionName":"Tuscany","regionEmoji":"🌻","image":"https://images.unsplash.com/photo-1653843034003-467e337f4c99?crop=entropy&cs=tinysrgb&fit=max&fm=jpg&ixid=M3w5NTU4NjF8MHwxfHNlYXJjaHwxfHxWYWwlMjBkJTI3T3JjaWF8ZW58MXwwfHx8MTc4MTYyMTQ5M3ww&ixlib=rb-4.1.0&q=80&w=1080"},{"placeId":"cinque_terre_coast_livorno","name":"Livorno","nameIt":"Livorno","type":"COAST","lat":43.5484,"lng":10.3106,"regionId":"tuscany","regionName":"Tuscany","regionEmoji":"🌻","image":"https://images.unsplash.com/photo-1601469197497-8c5d85f5721e?crop=entropy&cs=tinysrgb&fit=max&fm=jpg&ixid=M3w5NTU4NjF8MHwxfHNlYXJjaHwyfHxMaXZvcm5vfGVufDF8MHx8fDE3ODE2MjE0OTR8MA&ixlib=rb-4.1.0&q=80&w=1080"},{"placeId":"lucca","name":"Lucca","nameIt":"Lucca","type":"CITY","lat":43.843,"lng":10.505,"regionId":"tuscany","regionName":"Tuscany","regionEmoji":"🌻","image":"https://images.unsplash.com/photo-1592237604582-ee103af86911?crop=entropy&cs=tinysrgb&fit=max&fm=jpg&ixid=M3w5NTU4NjF8MHwxfHNlYXJjaHwyfHxMdWNjYXxlbnwxfDB8fHwxNzgxNjIxNDk0fDA&ixlib=rb-4.1.0&q=80&w=1080"},{"placeId":"pisa","name":"Pisa","nameIt":"Pisa","type":"CITY","lat":43.7228,"lng":10.4017,"regionId":"tuscany","regionName":"Tuscany","regionEmoji":"🌻","image":"https://images.unsplash.com/photo-1598910332865-0a6b066d5602?crop=entropy&cs=tinysrgb&fit=max&fm=jpg&ixid=M3w5NTU4NjF8MHwxfHNlYXJjaHwxfHxQaXNhfGVufDF8MHx8fDE3ODE2MjE0OTV8MA&ixlib=rb-4.1.0&q=80&w=1080"},{"placeId":"montepulciano","name":"Montepulciano","nameIt":"Montepulciano","type":"TOWN","lat":43.0948,"lng":11.7866,"regionId":"tuscany","regionName":"Tuscany","regionEmoji":"🌻","image":"https://images.unsplash.com/photo-1434025697302-54853b8da166?crop=entropy&cs=tinysrgb&fit=max&fm=jpg&ixid=M3w5NTU4NjF8MHwxfHNlYXJjaHwxfHxNb250ZXB1bGNpYW5vfGVufDF8MHx8fDE3ODE2MjE0OTV8MA&ixlib=rb-4.1.0&q=80&w=1080"},{"placeId":"elba_island","name":"Elba Island","nameIt":"Isola d'Elba","type":"COAST","lat":42.76,"lng":10.27,"regionId":"tuscany","regionName":"Tuscany","regionEmoji":"🌻","image":"https://images.unsplash.com/photo-1612690254243-c9986784fc70?crop=entropy&cs=tinysrgb&fit=max&fm=jpg&ixid=M3w5NTU4NjF8MHwxfHNlYXJjaHwxfHxFbGJhJTIwSXNsYW5kfGVufDF8MHx8fDE3ODE2MjE0OTV8MA&ixlib=rb-4.1.0&q=80&w=1080"},{"placeId":"arezzo","name":"Arezzo","nameIt":"Arezzo","type":"CITY","lat":43.4633,"lng":11.88,"regionId":"tuscany","regionName":"Tuscany","regionEmoji":"🌻","image":"https://images.unsplash.com/photo-1630328236650-b817c538b1a4?crop=entropy&cs=tinysrgb&fit=max&fm=jpg&ixid=M3w5NTU4NjF8MHwxfHNlYXJjaHwxfHxBcmV6em98ZW58MXwwfHx8MTc4MTYyMTQ5Nnww&ixlib=rb-4.1.0&q=80&w=1080"},{"placeId":"perugia","name":"Perugia","nameIt":"Perugia","type":"CITY","lat":43.1107,"lng":12.3908,"regionId":"umbria","regionName":"Umbria","regionEmoji":"🫖","image":"https://images.unsplash.com/photo-1621016142665-1afa6d6d5484?crop=entropy&cs=tinysrgb&fit=max&fm=jpg&ixid=M3w5NTU4NjF8MHwxfHNlYXJjaHwxfHxQZXJ1Z2lhfGVufDF8MHx8fDE3ODE2MjE1MDB8MA&ixlib=rb-4.1.0&q=80&w=1080"},{"placeId":"assisi","name":"Assisi","nameIt":"Assisi","type":"TOWN","lat":43.0707,"lng":12.6196,"regionId":"umbria","regionName":"Umbria","regionEmoji":"🫖","image":"https://images.unsplash.com/photo-1607703617873-0294acaf1496?crop=entropy&cs=tinysrgb&fit=max&fm=jpg&ixid=M3w5NTU4NjF8MHwxfHNlYXJjaHwxfHxBc3Npc2l8ZW58MXwwfHx8MTc4MTYyMTUwMXww&ixlib=rb-4.1.0&q=80&w=1080"},{"placeId":"orvieto","name":"Orvieto","nameIt":"Orvieto","type":"TOWN","lat":42.7185,"lng":12.1078,"regionId":"umbria","regionName":"Umbria","regionEmoji":"🫖","image":"https://images.unsplash.com/photo-1711203290757-fc071f4e797e?crop=entropy&cs=tinysrgb&fit=max&fm=jpg&ixid=M3w5NTU4NjF8MHwxfHNlYXJjaHwxfHxPcnZpZXRvfGVufDF8MHx8fDE3ODE2MjE1MDF8MA&ixlib=rb-4.1.0&q=80&w=1080"},{"placeId":"spoleto","name":"Spoleto","nameIt":"Spoleto","type":"TOWN","lat":42.7342,"lng":12.7377,"regionId":"umbria","regionName":"Umbria","regionEmoji":"🫖","image":"https://images.unsplash.com/photo-1605391433501-886193996c57?crop=entropy&cs=tinysrgb&fit=max&fm=jpg&ixid=M3w5NTU4NjF8MHwxfHNlYXJjaHwxfHxTcG9sZXRvfGVufDF8MHx8fDE3ODE2MjE1MDJ8MA&ixlib=rb-4.1.0&q=80&w=1080"},{"placeId":"norcia","name":"Norcia","nameIt":"Norcia","type":"TOWN","lat":42.7944,"lng":13.0956,"regionId":"umbria","regionName":"Umbria","regionEmoji":"🫖","image":"https://images.unsplash.com/photo-1687090054155-0136923c32a6?crop=entropy&cs=tinysrgb&fit=max&fm=jpg&ixid=M3w5NTU4NjF8MHwxfHNlYXJjaHwxfHxOb3JjaWF8ZW58MXwwfHx8MTc4MTYyMTUwMnww&ixlib=rb-4.1.0&q=80&w=1080"},{"placeId":"gubbio","name":"Gubbio","nameIt":"Gubbio","type":"TOWN","lat":43.3536,"lng":12.5755,"regionId":"umbria","regionName":"Umbria","regionEmoji":"🫖","image":"https://images.unsplash.com/photo-1595199644559-6d5ee4e48355?crop=entropy&cs=tinysrgb&fit=max&fm=jpg&ixid=M3w5NTU4NjF8MHwxfHNlYXJjaHwxfHxHdWJiaW98ZW58MXwwfHx8MTc4MTYyMTUwM3ww&ixlib=rb-4.1.0&q=80&w=1080"},{"placeId":"todi","name":"Todi","nameIt":"Todi","type":"TOWN","lat":42.7827,"lng":12.4065,"regionId":"umbria","regionName":"Umbria","regionEmoji":"🫖","image":"https://images.unsplash.com/photo-1668066340788-321261e8571e?crop=entropy&cs=tinysrgb&fit=max&fm=jpg&ixid=M3w5NTU4NjF8MHwxfHNlYXJjaHwxfHxUb2RpfGVufDF8MHx8fDE3ODE2MjE1MDR8MA&ixlib=rb-4.1.0&q=80&w=1080"},{"placeId":"montefalco","name":"Montefalco","nameIt":"Montefalco","type":"TOWN","lat":42.8933,"lng":12.6514,"regionId":"umbria","regionName":"Umbria","regionEmoji":"🫖","image":"https://images.unsplash.com/photo-1761138207825-a3ccb82b19d0?crop=entropy&cs=tinysrgb&fit=max&fm=jpg&ixid=M3w5NTU4NjF8MHwxfHNlYXJjaHwxfHxNb250ZWZhbGNvfGVufDF8MHx8fDE3ODE2MjE1MDR8MA&ixlib=rb-4.1.0&q=80&w=1080"},{"placeId":"castelluccio_di_norcia","name":"Castelluccio di Norcia","nameIt":"Castelluccio di Norcia","type":"MOUNTAIN","lat":42.8283,"lng":13.2118,"regionId":"umbria","regionName":"Umbria","regionEmoji":"🫖","image":"https://images.unsplash.com/photo-1594484649116-db89765ae989?crop=entropy&cs=tinysrgb&fit=max&fm=jpg&ixid=M3w5NTU4NjF8MHwxfHNlYXJjaHwxfHxDYXN0ZWxsdWNjaW8lMjBkaSUyME5vcmNpYXxlbnwxfDB8fHwxNzgxNjIxNTA1fDA&ixlib=rb-4.1.0&q=80&w=1080"},{"placeId":"citta_di_castello","name":"Città di Castello","nameIt":"Città di Castello","type":"CITY","lat":43.4561,"lng":12.2392,"regionId":"umbria","regionName":"Umbria","regionEmoji":"🫖","image":"https://images.unsplash.com/photo-1728109640252-9bd68570fa7d?crop=entropy&cs=tinysrgb&fit=max&fm=jpg&ixid=M3w5NTU4NjF8MHwxfHNlYXJjaHwxfHxDaXR0JUMzJUEwJTIwZGklMjBDYXN0ZWxsb3xlbnwxfDB8fHwxNzgxNjIxNTA1fDA&ixlib=rb-4.1.0&q=80&w=1080"},{"placeId":"aosta","name":"Aosta","nameIt":"Aosta","type":"CITY","lat":45.7369,"lng":7.3153,"regionId":"vda","regionName":"Valle d'Aosta","regionEmoji":"🏔️","image":"https://images.unsplash.com/photo-1601477429901-e091430e4614?crop=entropy&cs=tinysrgb&fit=max&fm=jpg&ixid=M3w5NTU4NjF8MHwxfHNlYXJjaHwxfHxBb3N0YXxlbnwxfDB8fHwxNzgxNjIxNTA5fDA&ixlib=rb-4.1.0&q=80&w=1080"},{"placeId":"cervinia","name":"Cervinia","nameIt":"Breuil-Cervinia","type":"MOUNTAIN","lat":45.9341,"lng":7.6263,"regionId":"vda","regionName":"Valle d'Aosta","regionEmoji":"🏔️","image":"https://images.unsplash.com/photo-1594887452593-2a5a79d2a845?crop=entropy&cs=tinysrgb&fit=max&fm=jpg&ixid=M3w5NTU4NjF8MHwxfHNlYXJjaHwxfHxDZXJ2aW5pYXxlbnwxfDB8fHwxNzgxNjIxNTA5fDA&ixlib=rb-4.1.0&q=80&w=1080"},{"placeId":"courmayeur","name":"Courmayeur","nameIt":"Courmayeur","type":"MOUNTAIN","lat":45.7963,"lng":6.9706,"regionId":"vda","regionName":"Valle d'Aosta","regionEmoji":"🏔️","image":"https://images.unsplash.com/photo-1695641063850-b22145b14d7c?crop=entropy&cs=tinysrgb&fit=max&fm=jpg&ixid=M3w5NTU4NjF8MHwxfHNlYXJjaHwxfHxDb3VybWF5ZXVyfGVufDF8MHx8fDE3ODE2MjE1MDl8MA&ixlib=rb-4.1.0&q=80&w=1080"},{"placeId":"fenis_castle","name":"Fénis Castle","nameIt":"Castello di Fénis","type":"LANDMARK","lat":45.7478,"lng":7.4908,"regionId":"vda","regionName":"Valle d'Aosta","regionEmoji":"🏔️","image":"https://images.unsplash.com/photo-1579892541678-bfaa0557e728?crop=entropy&cs=tinysrgb&fit=max&fm=jpg&ixid=M3w5NTU4NjF8MHwxfHNlYXJjaHwxfHxGJUMzJUE5bmlzJTIwQ2FzdGxlfGVufDF8MHx8fDE3ODE2MjE1MTB8MA&ixlib=rb-4.1.0&q=80&w=1080"},{"placeId":"gran_paradiso","name":"Gran Paradiso National Park","nameIt":"Parco Nazionale Gran Paradiso","type":"MOUNTAIN","lat":45.5167,"lng":7.2667,"regionId":"vda","regionName":"Valle d'Aosta","regionEmoji":"🏔️","image":"https://images.unsplash.com/photo-1582280823002-3a931f71fe9a?crop=entropy&cs=tinysrgb&fit=max&fm=jpg&ixid=M3w5NTU4NjF8MHwxfHNlYXJjaHwxfHxHcmFuJTIwUGFyYWRpc28lMjBOYXRpb25hbCUyMFBhcmt8ZW58MXwwfHx8MTc4MTYyMTUxMXww&ixlib=rb-4.1.0&q=80&w=1080"},{"placeId":"saint_vincent","name":"Saint-Vincent","nameIt":"Saint-Vincent","type":"TOWN","lat":45.7511,"lng":7.6414,"regionId":"vda","regionName":"Valle d'Aosta","regionEmoji":"🏔️","image":"https://images.unsplash.com/photo-1579167149678-76415f24b197?crop=entropy&cs=tinysrgb&fit=max&fm=jpg&ixid=M3w5NTU4NjF8MHwxfHNlYXJjaHwxfHxTYWludC1WaW5jZW50fGVufDF8MHx8fDE3ODE2MjE1MTF8MA&ixlib=rb-4.1.0&q=80&w=1080"},{"placeId":"bard_fortress","name":"Bard Fortress","nameIt":"Forte di Bard","type":"LANDMARK","lat":45.6083,"lng":7.7458,"regionId":"vda","regionName":"Valle d'Aosta","regionEmoji":"🏔️","image":"https://images.unsplash.com/photo-1603405947593-02b861bcd85e?crop=entropy&cs=tinysrgb&fit=max&fm=jpg&ixid=M3w5NTU4NjF8MHwxfHNlYXJjaHwxfHxCYXJkJTIwRm9ydHJlc3N8ZW58MXwwfHx8MTc4MTYyMTUxMnww&ixlib=rb-4.1.0&q=80&w=1080"},{"placeId":"cogne","name":"Cogne","nameIt":"Cogne","type":"TOWN","lat":45.6089,"lng":7.3578,"regionId":"vda","regionName":"Valle d'Aosta","regionEmoji":"🏔️","image":"https://images.unsplash.com/photo-1716893489122-94c0ae974012?crop=entropy&cs=tinysrgb&fit=max&fm=jpg&ixid=M3w5NTU4NjF8MHwxfHNlYXJjaHwzfHxDb2duZXxlbnwxfDB8fHwxNzgxNjIxNTEyfDA&ixlib=rb-4.1.0&q=80&w=1080"},{"placeId":"la_thuile","name":"La Thuile","nameIt":"La Thuile","type":"TOWN","lat":45.6697,"lng":6.9728,"regionId":"vda","regionName":"Valle d'Aosta","regionEmoji":"🏔️","image":"https://images.unsplash.com/photo-1590767715879-0cdf24e78966?crop=entropy&cs=tinysrgb&fit=max&fm=jpg&ixid=M3w5NTU4NjF8MHwxfHNlYXJjaHwxfHxMYSUyMFRodWlsZXxlbnwxfDB8fHwxNzgxNjIxNTEzfDA&ixlib=rb-4.1.0&q=80&w=1080"},{"placeId":"issogne_castle","name":"Issogne Castle","nameIt":"Castello di Issogne","type":"LANDMARK","lat":45.6611,"lng":7.6872,"regionId":"vda","regionName":"Valle d'Aosta","regionEmoji":"🏔️","image":"https://upload.wikimedia.org/wikipedia/commons/8/85/IssogneJuly292023_01.jpg"},{"placeId":"venice","name":"Venice","nameIt":"Venezia","type":"CITY","lat":45.4408,"lng":12.3155,"regionId":"veneto","regionName":"Veneto","regionEmoji":"🎭","image":"https://images.unsplash.com/photo-1514890547357-a9ee288728e0?crop=entropy&cs=tinysrgb&fit=max&fm=jpg&ixid=M3w5NTU4NjF8MHwxfHNlYXJjaHwxfHxWZW5pY2V8ZW58MXwwfHx8MTc4MTU1MzY1N3ww&ixlib=rb-4.1.0&q=80&w=1080"},{"placeId":"verona","name":"Verona","nameIt":"Verona","type":"CITY","lat":45.4384,"lng":10.9916,"regionId":"veneto","regionName":"Veneto","regionEmoji":"🎭","image":"https://images.unsplash.com/photo-1555796861-b29396df890e?crop=entropy&cs=tinysrgb&fit=max&fm=jpg&ixid=M3w5NTU4NjF8MHwxfHNlYXJjaHwxfHxWZXJvbmF8ZW58MXwwfHx8MTc4MTU1MzY1N3ww&ixlib=rb-4.1.0&q=80&w=1080"},{"placeId":"dolomites_veneto","name":"Dolomites","nameIt":"Dolomiti","type":"MOUNTAIN","lat":46.4102,"lng":11.844,"regionId":"veneto","regionName":"Veneto","regionEmoji":"🎭","image":"https://images.unsplash.com/photo-1534106474077-f9e9c6f5a47c?crop=entropy&cs=tinysrgb&fit=max&fm=jpg&ixid=M3w5NTU4NjF8MHwxfHNlYXJjaHwxfHxEb2xvbWl0ZXN8ZW58MXwwfHx8MTc4MTU1MzY1N3ww&ixlib=rb-4.1.0&q=80&w=1080"},{"placeId":"lake_garda_veneto","name":"Lake Garda","nameIt":"Lago di Garda","type":"LAKE","lat":45.6389,"lng":10.668,"regionId":"veneto","regionName":"Veneto","regionEmoji":"🎭","image":"https://images.unsplash.com/photo-1595238530567-c6acebcb8a2b?crop=entropy&cs=tinysrgb&fit=max&fm=jpg&ixid=M3w5NTU4NjF8MHwxfHNlYXJjaHwxfHxMYWtlJTIwR2FyZGF8ZW58MXwwfHx8MTc4MTU1MzY1OHww&ixlib=rb-4.1.0&q=80&w=1080"},{"placeId":"padua","name":"Padua","nameIt":"Padova","type":"CITY","lat":45.4064,"lng":11.8768,"regionId":"veneto","regionName":"Veneto","regionEmoji":"🎭","image":"https://images.unsplash.com/photo-1584699232068-ab0eabccc805?crop=entropy&cs=tinysrgb&fit=max&fm=jpg&ixid=M3w5NTU4NjF8MHwxfHNlYXJjaHwxfHxQYWR1YXxlbnwxfDB8fHwxNzgxNTUzNjU5fDA&ixlib=rb-4.1.0&q=80&w=1080"},{"placeId":"vicenza","name":"Vicenza","nameIt":"Vicenza","type":"CITY","lat":45.5455,"lng":11.5354,"regionId":"veneto","regionName":"Veneto","regionEmoji":"🎭","image":"https://images.unsplash.com/photo-1700689476555-fe239c105d98?crop=entropy&cs=tinysrgb&fit=max&fm=jpg&ixid=M3w5NTU4NjF8MHwxfHNlYXJjaHwxfHxWaWNlbnphfGVufDF8MHx8fDE3ODE1NTM2NTl8MA&ixlib=rb-4.1.0&q=80&w=1080"},{"placeId":"treviso","name":"Treviso","nameIt":"Treviso","type":"CITY","lat":45.6669,"lng":12.2433,"regionId":"veneto","regionName":"Veneto","regionEmoji":"🎭","image":"https://images.unsplash.com/photo-1630353492444-c2470cd9185e?crop=entropy&cs=tinysrgb&fit=max&fm=jpg&ixid=M3w5NTU4NjF8MHwxfHNlYXJjaHwxfHxUcmV2aXNvfGVufDF8MHx8fDE3ODE1NTM2NjB8MA&ixlib=rb-4.1.0&q=80&w=1080"},{"placeId":"euganean_hills","name":"Euganean Hills","nameIt":"Colli Euganei","type":"MOUNTAIN","lat":45.3167,"lng":11.7,"regionId":"veneto","regionName":"Veneto","regionEmoji":"🎭","image":"https://images.unsplash.com/photo-1706364057627-98609a0089a8?crop=entropy&cs=tinysrgb&fit=max&fm=jpg&ixid=M3w5NTU4NjF8MHwxfHNlYXJjaHwxfHxFdWdhbmVhbiUyMEhpbGxzfGVufDF8MHx8fDE3ODE1NTM2NjB8MA&ixlib=rb-4.1.0&q=80&w=1080"},{"placeId":"bassano_del_grappa","name":"Bassano del Grappa","nameIt":"Bassano del Grappa","type":"TOWN","lat":45.7668,"lng":11.7346,"regionId":"veneto","regionName":"Veneto","regionEmoji":"🎭","image":"https://images.unsplash.com/photo-1616748909757-c1eb4a241eb4?crop=entropy&cs=tinysrgb&fit=max&fm=jpg&ixid=M3w5NTU4NjF8MHwxfHNlYXJjaHwxfHxCYXNzYW5vJTIwZGVsJTIwR3JhcHBhfGVufDF8MHx8fDE3ODE1NTM2NjF8MA&ixlib=rb-4.1.0&q=80&w=1080"},{"placeId":"conegliano","name":"Conegliano","nameIt":"Conegliano","type":"TOWN","lat":45.8887,"lng":12.2969,"regionId":"veneto","regionName":"Veneto","regionEmoji":"🎭","image":"https://images.unsplash.com/photo-1621154541163-299c623ba206?crop=entropy&cs=tinysrgb&fit=max&fm=jpg&ixid=M3w5NTU4NjF8MHwxfHNlYXJjaHwxfHxDb25lZ2xpYW5vfGVufDF8MHx8fDE3ODE1NTM2NjF8MA&ixlib=rb-4.1.0&q=80&w=1080"}]