[{"placeId":"pescara","name":"Pescara","nameIt":"Pescara","type":"CITY","lat":42.4618,"lng":14.2139,"regionId":"abruzzo","regionName":"Abruzzo","regionEmoji":"🏔️"},{"placeId":"gran_sasso","name":"Gran Sasso and Monti della Laga National Park","nameIt":"Parco Nazionale Gran Sasso e Monti della Laga","type":"MOUNTAIN","lat":42.4588,"lng":13.5557,"regionId":"abruzzo","regionName":"Abruzzo","regionEmoji":"🏔️"},{"placeId":"sulmona","name":"Sulmona","nameIt":"Sulmona","type":"TOWN","lat":42.0487,"lng":13.9289,"regionId":"abruzzo","regionName":"Abruzzo","regionEmoji":"🏔️"},{"placeId":"scanno","name":"Scanno","nameIt":"Scanno","type":"TOWN","lat":41.9025,"lng":13.8836,"regionId":"abruzzo","regionName":"Abruzzo","regionEmoji":"🏔️"},{"placeId":"chieti","name":"Chieti","nameIt":"Chieti","type":"CITY","lat":42.3516,"lng":14.1676,"regionId":"abruzzo","regionName":"Abruzzo","regionEmoji":"🏔️"},{"placeId":"vasto","name":"Vasto","nameIt":"Vasto","type":"COAST","lat":42.1116,"lng":14.7077,"regionId":"abruzzo","regionName":"Abruzzo","regionEmoji":"🏔️"},{"placeId":"alba_fucens","name":"Alba Fucens","nameIt":"Alba Fucens","type":"LANDMARK","lat":42.0794,"lng":13.5197,"regionId":"abruzzo","regionName":"Abruzzo","regionEmoji":"🏔️"},{"placeId":"civitella_alfedena","name":"Civitella Alfedena","nameIt":"Civitella Alfedena","type":"TOWN","lat":41.7697,"lng":13.9403,"regionId":"abruzzo","regionName":"Abruzzo","regionEmoji":"🏔️"},{"placeId":"lanciano","name":"Lanciano","nameIt":"Lanciano","type":"TOWN","lat":42.2286,"lng":14.3916,"regionId":"abruzzo","regionName":"Abruzzo","regionEmoji":"🏔️"},{"placeId":"matera","name":"Matera","nameIt":"Matera","type":"CITY","lat":40.6664,"lng":16.6043,"regionId":"basilicata","regionName":"Basilicata","regionEmoji":"🪨"},{"placeId":"potenza","name":"Potenza","nameIt":"Potenza","type":"CITY","lat":40.64,"lng":15.805,"regionId":"basilicata","regionName":"Basilicata","regionEmoji":"🪨"},{"placeId":"metaponto","name":"Metaponto","nameIt":"Metaponto","type":"COAST","lat":40.3731,"lng":16.8258,"regionId":"basilicata","regionName":"Basilicata","regionEmoji":"🪨"},{"placeId":"maratea","name":"Maratea","nameIt":"Maratea","type":"COAST","lat":39.9986,"lng":15.7197,"regionId":"basilicata","regionName":"Basilicata","regionEmoji":"🪨"},{"placeId":"melfi","name":"Melfi","nameIt":"Melfi","type":"TOWN","lat":40.9962,"lng":15.6521,"regionId":"basilicata","regionName":"Basilicata","regionEmoji":"🪨"},{"placeId":"venosa","name":"Venosa","nameIt":"Venosa","type":"TOWN","lat":40.9633,"lng":15.8181,"regionId":"basilicata","regionName":"Basilicata","regionEmoji":"🪨"},{"placeId":"pietrapertosa","name":"Pietrapertosa","nameIt":"Pietrapertosa","type":"TOWN","lat":40.5167,"lng":16.0667,"regionId":"basilicata","regionName":"Basilicata","regionEmoji":"🪨"},{"placeId":"craco","name":"Craco","nameIt":"Craco","type":"LANDMARK","lat":40.3786,"lng":16.4411,"regionId":"basilicata","regionName":"Basilicata","regionEmoji":"🪨"},{"placeId":"lago_san_giuliano","name":"Lake San Giuliano","nameIt":"Lago di San Giuliano","type":"LAKE","lat":40.6667,"lng":16.2167,"regionId":"basilicata","regionName":"Basilicata","regionEmoji":"🪨"},{"placeId":"tursi","name":"Tursi","nameIt":"Tursi","type":"TOWN","lat":40.2456,"lng":16.4681,"regionId":"basilicata","regionName":"Basilicata","regionEmoji":"🪨"},{"placeId":"catanzaro","name":"Catanzaro","nameIt":"Catanzaro","type":"CITY","lat":38.9098,"lng":16.587,"regionId":"calabria","regionName":"Calabria","regionEmoji":"🌶️"},{"placeId":"tropea","name":"Tropea","nameIt":"Tropea","type":"COAST","lat":38.6767,"lng":15.8975,"regionId":"calabria","regionName":"Calabria","regionEmoji":"🌶️"},{"placeId":"reggio_calabria","name":"Reggio Calabria","nameIt":"Reggio di Calabria","type":"CITY","lat":38.1113,"lng":15.6472,"regionId":"calabria","regionName":"Calabria","regionEmoji":"🌶️"},{"placeId":"sila_national_park","name":"Sila National Park","nameIt":"Parco Nazionale della Sila","type":"MOUNTAIN","lat":39.35,"lng":16.55,"regionId":"calabria","regionName":"Calabria","regionEmoji":"🌶️"},{"placeId":"gerace","name":"Gerace","nameIt":"Gerace","type":"TOWN","lat":38.2667,"lng":16.2167,"regionId":"calabria","regionName":"Calabria","regionEmoji":"🌶️"},{"placeId":"scilla","name":"Scilla","nameIt":"Scilla","type":"TOWN","lat":38.2533,"lng":15.715,"regionId":"calabria","regionName":"Calabria","regionEmoji":"🌶️"},{"placeId":"capo_vaticano","name":"Capo Vaticano","nameIt":"Capo Vaticano","type":"COAST","lat":38.6167,"lng":15.8333,"regionId":"calabria","regionName":"Calabria","regionEmoji":"🌶️"},{"placeId":"stilo","name":"Stilo","nameIt":"Stilo","type":"TOWN","lat":38.4833,"lng":16.4667,"regionId":"calabria","regionName":"Calabria","regionEmoji":"🌶️"},{"placeId":"locri","name":"Locri","nameIt":"Locri","type":"CITY","lat":38.2333,"lng":16.2667,"regionId":"calabria","regionName":"Calabria","regionEmoji":"🌶️"},{"placeId":"civita","name":"Civita","nameIt":"Civita","type":"TOWN","lat":39.8333,"lng":16.3167,"regionId":"calabria","regionName":"Calabria","regionEmoji":"🌶️"},{"placeId":"naples","name":"Naples","nameIt":"Napoli","type":"CITY","lat":40.8518,"lng":14.2681,"regionId":"campania","regionName":"Campania","regionEmoji":"🍕"},{"placeId":"pompeii","name":"Pompeii","nameIt":"Pompei","type":"LANDMARK","lat":40.7462,"lng":14.4989,"regionId":"campania","regionName":"Campania","regionEmoji":"🍕"},{"placeId":"amalfi_coast","name":"Amalfi Coast","nameIt":"Costiera Amalfitana","type":"COAST","lat":40.634,"lng":14.6027,"regionId":"campania","regionName":"Campania","regionEmoji":"🍕"},{"placeId":"paestum","name":"Paestum","nameIt":"Paestum","type":"LANDMARK","lat":40.4219,"lng":15.005,"regionId":"campania","regionName":"Campania","regionEmoji":"🍕"},{"placeId":"ischia","name":"Ischia","nameIt":"Ischia","type":"COAST","lat":40.731,"lng":13.902,"regionId":"campania","regionName":"Campania","regionEmoji":"🍕"},{"placeId":"caserta","name":"Caserta","nameIt":"Caserta","type":"CITY","lat":41.0726,"lng":14.3326,"regionId":"campania","regionName":"Campania","regionEmoji":"🍕"},{"placeId":"benevento","name":"Benevento","nameIt":"Benevento","type":"CITY","lat":41.1297,"lng":14.782,"regionId":"campania","regionName":"Campania","regionEmoji":"🍕"},{"placeId":"cilento_coast","name":"Cilento Coast","nameIt":"Costa del Cilento","type":"COAST","lat":40.15,"lng":15.1,"regionId":"campania","regionName":"Campania","regionEmoji":"🍕"},{"placeId":"procida","name":"Procida","nameIt":"Procida","type":"TOWN","lat":40.757,"lng":14.0118,"regionId":"campania","regionName":"Campania","regionEmoji":"🍕"},{"placeId":"sorrento","name":"Sorrento","nameIt":"Sorrento","type":"TOWN","lat":40.6264,"lng":14.3757,"regionId":"campania","regionName":"Campania","regionEmoji":"🍕"},{"placeId":"bologna","name":"Bologna","nameIt":"Bologna","type":"CITY","lat":44.4949,"lng":11.3426,"regionId":"emilia_romagna","regionName":"Emilia-Romagna","regionEmoji":"🍝"},{"placeId":"ravenna","name":"Ravenna","nameIt":"Ravenna","type":"CITY","lat":44.4154,"lng":12.2011,"regionId":"emilia_romagna","regionName":"Emilia-Romagna","regionEmoji":"🍝"},{"placeId":"parma","name":"Parma","nameIt":"Parma","type":"CITY","lat":44.8015,"lng":10.3279,"regionId":"emilia_romagna","regionName":"Emilia-Romagna","regionEmoji":"🍝"},{"placeId":"ferrara","name":"Ferrara","nameIt":"Ferrara","type":"CITY","lat":44.8353,"lng":11.6196,"regionId":"emilia_romagna","regionName":"Emilia-Romagna","regionEmoji":"🍝"},{"placeId":"rimini","name":"Rimini","nameIt":"Rimini","type":"COAST","lat":44.0678,"lng":12.5695,"regionId":"emilia_romagna","regionName":"Emilia-Romagna","regionEmoji":"🍝"},{"placeId":"modena","name":"Modena","nameIt":"Modena","type":"CITY","lat":44.6471,"lng":10.9252,"regionId":"emilia_romagna","regionName":"Emilia-Romagna","regionEmoji":"🍝"},{"placeId":"reggio_emilia","name":"Reggio Emilia","nameIt":"Reggio Emilia","type":"CITY","lat":44.6989,"lng":10.6297,"regionId":"emilia_romagna","regionName":"Emilia-Romagna","regionEmoji":"🍝"},{"placeId":"piacenza","name":"Piacenza","nameIt":"Piacenza","type":"CITY","lat":45.0526,"lng":9.693,"regionId":"emilia_romagna","regionName":"Emilia-Romagna","regionEmoji":"🍝"},{"placeId":"comacchio","name":"Comacchio","nameIt":"Comacchio","type":"TOWN","lat":44.6963,"lng":12.1833,"regionId":"emilia_romagna","regionName":"Emilia-Romagna","regionEmoji":"🍝"},{"placeId":"dozza","name":"Dozza","nameIt":"Dozza","type":"TOWN","lat":44.3637,"lng":11.6255,"regionId":"emilia_romagna","regionName":"Emilia-Romagna","regionEmoji":"🍝"},{"placeId":"trieste","name":"Trieste","nameIt":"Trieste","type":"CITY","lat":45.6495,"lng":13.7768,"regionId":"friuli","regionName":"Friuli-Venezia Giulia","regionEmoji":"🍷"},{"placeId":"udine","name":"Udine","nameIt":"Udine","type":"CITY","lat":46.0711,"lng":13.2347,"regionId":"friuli","regionName":"Friuli-Venezia Giulia","regionEmoji":"🍷"},{"placeId":"aquileia","name":"Aquileia","nameIt":"Aquileia","type":"LANDMARK","lat":45.7693,"lng":13.3698,"regionId":"friuli","regionName":"Friuli-Venezia Giulia","regionEmoji":"🍷"},{"placeId":"grado","name":"Grado","nameIt":"Grado","type":"COAST","lat":45.6783,"lng":13.3917,"regionId":"friuli","regionName":"Friuli-Venezia Giulia","regionEmoji":"🍷"},{"placeId":"tarvisio","name":"Tarvisio","nameIt":"Tarvisio","type":"MOUNTAIN","lat":46.506,"lng":13.5703,"regionId":"friuli","regionName":"Friuli-Venezia Giulia","regionEmoji":"🍷"},{"placeId":"cividale_del_friuli","name":"Cividale del Friuli","nameIt":"Cividale del Friuli","type":"TOWN","lat":46.0931,"lng":13.4317,"regionId":"friuli","regionName":"Friuli-Venezia Giulia","regionEmoji":"🍷"},{"placeId":"palmanova","name":"Palmanova","nameIt":"Palmanova","type":"TOWN","lat":45.9053,"lng":13.3119,"regionId":"friuli","regionName":"Friuli-Venezia Giulia","regionEmoji":"🍷"},{"placeId":"lignano_sabbiadoro","name":"Lignano Sabbiadoro","nameIt":"Lignano Sabbiadoro","type":"COAST","lat":45.6906,"lng":13.1456,"regionId":"friuli","regionName":"Friuli-Venezia Giulia","regionEmoji":"🍷"},{"placeId":"pordenone","name":"Pordenone","nameIt":"Pordenone","type":"CITY","lat":45.9564,"lng":12.6615,"regionId":"friuli","regionName":"Friuli-Venezia Giulia","regionEmoji":"🍷"},{"placeId":"san_daniele_del_friuli","name":"San Daniele del Friuli","nameIt":"San Daniele del Friuli","type":"TOWN","lat":46.1594,"lng":13.0106,"regionId":"friuli","regionName":"Friuli-Venezia Giulia","regionEmoji":"🍷"},{"placeId":"rome","name":"Rome","nameIt":"Roma","type":"CITY","lat":41.9028,"lng":12.4964,"regionId":"lazio","regionName":"Lazio","regionEmoji":"🏛️"},{"placeId":"tivoli","name":"Tivoli","nameIt":"Tivoli","type":"TOWN","lat":41.9632,"lng":12.7983,"regionId":"lazio","regionName":"Lazio","regionEmoji":"🏛️"},{"placeId":"lake_bracciano","name":"Lake Bracciano","nameIt":"Lago di Bracciano","type":"LAKE","lat":42.1167,"lng":12.2,"regionId":"lazio","regionName":"Lazio","regionEmoji":"🏛️"},{"placeId":"civita_di_bagnoregio","name":"Civita di Bagnoregio","nameIt":"Civita di Bagnoregio","type":"TOWN","lat":42.6278,"lng":12.1131,"regionId":"lazio","regionName":"Lazio","regionEmoji":"🏛️"},{"placeId":"sperlonga","name":"Sperlonga","nameIt":"Sperlonga","type":"COAST","lat":41.2567,"lng":13.4311,"regionId":"lazio","regionName":"Lazio","regionEmoji":"🏛️"},{"placeId":"ostia_antica","name":"Ostia Antica","nameIt":"Ostia Antica","type":"LANDMARK","lat":41.7561,"lng":12.2897,"regionId":"lazio","regionName":"Lazio","regionEmoji":"🏛️"},{"placeId":"viterbo","name":"Viterbo","nameIt":"Viterbo","type":"CITY","lat":42.4178,"lng":12.1047,"regionId":"lazio","regionName":"Lazio","regionEmoji":"🏛️"},{"placeId":"lake_bolsena","name":"Lake Bolsena","nameIt":"Lago di Bolsena","type":"LAKE","lat":42.6,"lng":11.9667,"regionId":"lazio","regionName":"Lazio","regionEmoji":"🏛️"},{"placeId":"palestrina","name":"Palestrina","nameIt":"Palestrina","type":"TOWN","lat":41.8395,"lng":12.8931,"regionId":"lazio","regionName":"Lazio","regionEmoji":"🏛️"},{"placeId":"sermoneta","name":"Sermoneta","nameIt":"Sermoneta","type":"TOWN","lat":41.5495,"lng":12.9878,"regionId":"lazio","regionName":"Lazio","regionEmoji":"🏛️"},{"placeId":"genoa","name":"Genoa","nameIt":"Genova","type":"CITY","lat":44.4056,"lng":8.9463,"regionId":"liguria","regionName":"Liguria","regionEmoji":"🫒"},{"placeId":"cinque_terre","name":"Cinque Terre","nameIt":"Cinque Terre","type":"COAST","lat":44.1461,"lng":9.6439,"regionId":"liguria","regionName":"Liguria","regionEmoji":"🫒"},{"placeId":"portofino","name":"Portofino","nameIt":"Portofino","type":"TOWN","lat":44.3025,"lng":9.2099,"regionId":"liguria","regionName":"Liguria","regionEmoji":"🫒"},{"placeId":"sanremo","name":"Sanremo","nameIt":"Sanremo","type":"CITY","lat":43.8159,"lng":7.7765,"regionId":"liguria","regionName":"Liguria","regionEmoji":"🫒"},{"placeId":"la_spezia","name":"La Spezia","nameIt":"La Spezia","type":"CITY","lat":44.1024,"lng":9.824,"regionId":"liguria","regionName":"Liguria","regionEmoji":"🫒"},{"placeId":"camogli","name":"Camogli","nameIt":"Camogli","type":"TOWN","lat":44.3442,"lng":9.1538,"regionId":"liguria","regionName":"Liguria","regionEmoji":"🫒"},{"placeId":"lerici","name":"Lerici","nameIt":"Lerici","type":"TOWN","lat":44.0754,"lng":9.91,"regionId":"liguria","regionName":"Liguria","regionEmoji":"🫒"},{"placeId":"albenga","name":"Albenga","nameIt":"Albenga","type":"CITY","lat":44.0504,"lng":8.2134,"regionId":"liguria","regionName":"Liguria","regionEmoji":"🫒"},{"placeId":"dolceacqua","name":"Dolceacqua","nameIt":"Dolceacqua","type":"TOWN","lat":43.8545,"lng":7.6265,"regionId":"liguria","regionName":"Liguria","regionEmoji":"🫒"},{"placeId":"finale_ligure","name":"Finale Ligure","nameIt":"Finale Ligure","type":"TOWN","lat":44.1693,"lng":8.3426,"regionId":"liguria","regionName":"Liguria","regionEmoji":"🫒"},{"placeId":"milan","name":"Milan","nameIt":"Milano","type":"CITY","lat":45.4654,"lng":9.1859,"regionId":"lombardy","regionName":"Lombardy","regionEmoji":"👔"},{"placeId":"lake_como","name":"Lake Como","nameIt":"Lago di Como","type":"LAKE","lat":45.9937,"lng":9.2565,"regionId":"lombardy","regionName":"Lombardy","regionEmoji":"👔"},{"placeId":"bergamo","name":"Bergamo","nameIt":"Bergamo","type":"TOWN","lat":45.6983,"lng":9.6773,"regionId":"lombardy","regionName":"Lombardy","regionEmoji":"👔"},{"placeId":"lake_garda_sirmione","name":"Sirmione, Lake Garda","nameIt":"Sirmione, Lago di Garda","type":"LAKE","lat":45.4958,"lng":10.6083,"regionId":"lombardy","regionName":"Lombardy","regionEmoji":"👔"},{"placeId":"mantua","name":"Mantua","nameIt":"Mantova","type":"TOWN","lat":45.1564,"lng":10.7914,"regionId":"lombardy","regionName":"Lombardy","regionEmoji":"👔"},{"placeId":"pavia","name":"Pavia","nameIt":"Pavia","type":"CITY","lat":45.1847,"lng":9.1582,"regionId":"lombardy","regionName":"Lombardy","regionEmoji":"👔"},{"placeId":"cremona","name":"Cremona","nameIt":"Cremona","type":"CITY","lat":45.1327,"lng":10.0227,"regionId":"lombardy","regionName":"Lombardy","regionEmoji":"👔"},{"placeId":"lake_iseo","name":"Lake Iseo","nameIt":"Lago d'Iseo","type":"LAKE","lat":45.6554,"lng":10.0686,"regionId":"lombardy","regionName":"Lombardy","regionEmoji":"👔"},{"placeId":"brescia","name":"Brescia","nameIt":"Brescia","type":"CITY","lat":45.5416,"lng":10.2118,"regionId":"lombardy","regionName":"Lombardy","regionEmoji":"👔"},{"placeId":"valchiavenna","name":"Chiavenna","nameIt":"Chiavenna","type":"TOWN","lat":46.3228,"lng":9.3969,"regionId":"lombardy","regionName":"Lombardy","regionEmoji":"👔"},{"placeId":"ancona","name":"Ancona","nameIt":"Ancona","type":"CITY","lat":43.6158,"lng":13.5189,"regionId":"marche","regionName":"Marche","regionEmoji":"🌊"},{"placeId":"urbino","name":"Urbino","nameIt":"Urbino","type":"TOWN","lat":43.7262,"lng":12.6367,"regionId":"marche","regionName":"Marche","regionEmoji":"🌊"},{"placeId":"ascoli_piceno","name":"Ascoli Piceno","nameIt":"Ascoli Piceno","type":"TOWN","lat":42.8535,"lng":13.5751,"regionId":"marche","regionName":"Marche","regionEmoji":"🌊"},{"placeId":"conero_riviera","name":"Conero Riviera","nameIt":"Riviera del Conero","type":"COAST","lat":43.55,"lng":13.61,"regionId":"marche","regionName":"Marche","regionEmoji":"🌊"},{"placeId":"monti_sibillini","name":"Monti Sibillini National Park","nameIt":"Parco Nazionale dei Monti Sibillini","type":"MOUNTAIN","lat":42.95,"lng":13.25,"regionId":"marche","regionName":"Marche","regionEmoji":"🌊"},{"placeId":"campobasso","name":"Campobasso","nameIt":"Campobasso","type":"CITY","lat":41.5603,"lng":14.6557,"regionId":"molise","regionName":"Molise","regionEmoji":"🌾"},{"placeId":"isernia","name":"Isernia","nameIt":"Isernia","type":"CITY","lat":41.5955,"lng":14.2329,"regionId":"molise","regionName":"Molise","regionEmoji":"🌾"},{"placeId":"agnone","name":"Agnone","nameIt":"Agnone","type":"TOWN","lat":41.8086,"lng":14.3693,"regionId":"molise","regionName":"Molise","regionEmoji":"🌾"},{"placeId":"termoli","name":"Termoli","nameIt":"Termoli","type":"COAST","lat":41.9926,"lng":14.9993,"regionId":"molise","regionName":"Molise","regionEmoji":"🌾"},{"placeId":"saepinum","name":"Saepinum Archaeological Site","nameIt":"Sepino - Altilia","type":"LANDMARK","lat":41.4142,"lng":14.6556,"regionId":"molise","regionName":"Molise","regionEmoji":"🌾"},{"placeId":"pietrabbondante","name":"Pietrabbondante","nameIt":"Pietrabbondante","type":"TOWN","lat":41.7453,"lng":14.3897,"regionId":"molise","regionName":"Molise","regionEmoji":"🌾"},{"placeId":"larino","name":"Larino","nameIt":"Larino","type":"TOWN","lat":41.8006,"lng":14.9119,"regionId":"molise","regionName":"Molise","regionEmoji":"🌾"},{"placeId":"bojano","name":"Bojano","nameIt":"Bojano","type":"TOWN","lat":41.4814,"lng":14.4722,"regionId":"molise","regionName":"Molise","regionEmoji":"🌾"},{"placeId":"venafro","name":"Venafro","nameIt":"Venafro","type":"TOWN","lat":41.4833,"lng":14.05,"regionId":"molise","regionName":"Molise","regionEmoji":"🌾"},{"placeId":"capracotta","name":"Capracotta","nameIt":"Capracotta","type":"MOUNTAIN","lat":41.8358,"lng":14.2686,"regionId":"molise","regionName":"Molise","regionEmoji":"🌾"},{"placeId":"turin","name":"Turin","nameIt":"Torino","type":"CITY","lat":45.0703,"lng":7.6869,"regionId":"piedmont","regionName":"Piedmont","regionEmoji":"🍫"},{"placeId":"alba","name":"Alba","nameIt":"Alba","type":"TOWN","lat":44.6985,"lng":8.0353,"regionId":"piedmont","regionName":"Piedmont","regionEmoji":"🍫"},{"placeId":"lake_orta","name":"Lake Orta","nameIt":"Lago d'Orta","type":"LAKE","lat":45.7986,"lng":8.4017,"regionId":"piedmont","regionName":"Piedmont","regionEmoji":"🍫"},{"placeId":"asti","name":"Asti","nameIt":"Asti","type":"TOWN","lat":44.9003,"lng":8.2064,"regionId":"piedmont","regionName":"Piedmont","regionEmoji":"🍫"},{"placeId":"sestriere","name":"Sestriere","nameIt":"Sestriere","type":"MOUNTAIN","lat":44.959,"lng":6.8769,"regionId":"piedmont","regionName":"Piedmont","regionEmoji":"🍫"},{"placeId":"casale_monferrato","name":"Casale Monferrato","nameIt":"Casale Monferrato","type":"TOWN","lat":45.1338,"lng":8.4508,"regionId":"piedmont","regionName":"Piedmont","regionEmoji":"🍫"},{"placeId":"verbania","name":"Verbania","nameIt":"Verbania","type":"TOWN","lat":45.9213,"lng":8.5517,"regionId":"piedmont","regionName":"Piedmont","regionEmoji":"🍫"},{"placeId":"sacra_san_michele","name":"Sacra di San Michele","nameIt":"Sacra di San Michele","type":"LANDMARK","lat":45.095,"lng":7.354,"regionId":"piedmont","regionName":"Piedmont","regionEmoji":"🍫"},{"placeId":"stresa","name":"Stresa","nameIt":"Stresa","type":"TOWN","lat":45.8837,"lng":8.5348,"regionId":"piedmont","regionName":"Piedmont","regionEmoji":"🍫"},{"placeId":"acqui_terme","name":"Acqui Terme","nameIt":"Acqui Terme","type":"TOWN","lat":44.6756,"lng":8.4679,"regionId":"piedmont","regionName":"Piedmont","regionEmoji":"🍫"},{"placeId":"bari","name":"Bari","nameIt":"Bari","type":"CITY","lat":41.1177,"lng":16.8719,"regionId":"puglia","regionName":"Puglia","regionEmoji":"🫙"},{"placeId":"lecce","name":"Lecce","nameIt":"Lecce","type":"CITY","lat":40.3519,"lng":18.175,"regionId":"puglia","regionName":"Puglia","regionEmoji":"🫙"},{"placeId":"alberobello","name":"Alberobello","nameIt":"Alberobello","type":"TOWN","lat":40.7842,"lng":17.2394,"regionId":"puglia","regionName":"Puglia","regionEmoji":"🫙"},{"placeId":"polignano_a_mare","name":"Polignano a Mare","nameIt":"Polignano a Mare","type":"COAST","lat":40.9956,"lng":17.2158,"regionId":"puglia","regionName":"Puglia","regionEmoji":"🫙"},{"placeId":"ostuni","name":"Ostuni","nameIt":"Ostuni","type":"TOWN","lat":40.7285,"lng":17.5784,"regionId":"puglia","regionName":"Puglia","regionEmoji":"🫙"},{"placeId":"otranto","name":"Otranto","nameIt":"Otranto","type":"TOWN","lat":40.1472,"lng":18.4936,"regionId":"puglia","regionName":"Puglia","regionEmoji":"🫙"},{"placeId":"matera_adjacent_castellaneta","name":"Castellana Grotte","nameIt":"Castellana Grotte","type":"TOWN","lat":40.8833,"lng":17.1667,"regionId":"puglia","regionName":"Puglia","regionEmoji":"🫙"},{"placeId":"vieste","name":"Vieste","nameIt":"Vieste","type":"TOWN","lat":41.8818,"lng":16.1752,"regionId":"puglia","regionName":"Puglia","regionEmoji":"🫙"},{"placeId":"trani","name":"Trani","nameIt":"Trani","type":"CITY","lat":41.2764,"lng":16.4152,"regionId":"puglia","regionName":"Puglia","regionEmoji":"🫙"},{"placeId":"locorotondo","name":"Locorotondo","nameIt":"Locorotondo","type":"TOWN","lat":40.7555,"lng":17.3261,"regionId":"puglia","regionName":"Puglia","regionEmoji":"🫙"},{"placeId":"cagliari","name":"Cagliari","nameIt":"Cagliari","type":"CITY","lat":39.2238,"lng":9.1217,"regionId":"sardinia","regionName":"Sardinia","regionEmoji":"🏖️"},{"placeId":"su_nuraxi_barumini","name":"Su Nuraxi of Barumini","nameIt":"Su Nuraxi di Barumini","type":"LANDMARK","lat":39.7008,"lng":9.0003,"regionId":"sardinia","regionName":"Sardinia","regionEmoji":"🏖️"},{"placeId":"costa_smeralda","name":"Costa Smeralda","nameIt":"Costa Smeralda","type":"COAST","lat":41.08,"lng":9.53,"regionId":"sardinia","regionName":"Sardinia","regionEmoji":"🏖️"},{"placeId":"orgosolo","name":"Orgosolo","nameIt":"Orgosolo","type":"TOWN","lat":40.1928,"lng":9.3539,"regionId":"sardinia","regionName":"Sardinia","regionEmoji":"🏖️"},{"placeId":"alghero","name":"Alghero","nameIt":"Alghero","type":"TOWN","lat":40.5594,"lng":8.3192,"regionId":"sardinia","regionName":"Sardinia","regionEmoji":"🏖️"},{"placeId":"bosa","name":"Bosa","nameIt":"Bosa","type":"TOWN","lat":40.2985,"lng":8.502,"regionId":"sardinia","regionName":"Sardinia","regionEmoji":"🏖️"},{"placeId":"maddalena_archipelago","name":"La Maddalena Archipelago","nameIt":"Arcipelago di La Maddalena","type":"COAST","lat":41.2133,"lng":9.405,"regionId":"sardinia","regionName":"Sardinia","regionEmoji":"🏖️"},{"placeId":"oristano","name":"Oristano","nameIt":"Oristano","type":"CITY","lat":39.9063,"lng":8.5916,"regionId":"sardinia","regionName":"Sardinia","regionEmoji":"🏖️"},{"placeId":"gennargentu","name":"Gennargentu Mountains","nameIt":"Massiccio del Gennargentu","type":"MOUNTAIN","lat":39.99,"lng":9.25,"regionId":"sardinia","regionName":"Sardinia","regionEmoji":"🏖️"},{"placeId":"castelsardo","name":"Castelsardo","nameIt":"Castelsardo","type":"TOWN","lat":40.9173,"lng":8.7124,"regionId":"sardinia","regionName":"Sardinia","regionEmoji":"🏖️"},{"placeId":"palermo","name":"Palermo","nameIt":"Palermo","type":"CITY","lat":38.1157,"lng":13.3615,"regionId":"sicily","regionName":"Sicily","regionEmoji":"🌋"},{"placeId":"agrigento","name":"Agrigento","nameIt":"Agrigento","type":"LANDMARK","lat":37.3111,"lng":13.5765,"regionId":"sicily","regionName":"Sicily","regionEmoji":"🌋"},{"placeId":"taormina","name":"Taormina","nameIt":"Taormina","type":"TOWN","lat":37.8526,"lng":15.2869,"regionId":"sicily","regionName":"Sicily","regionEmoji":"🌋"},{"placeId":"siracusa","name":"Syracuse","nameIt":"Siracusa","type":"CITY","lat":37.0755,"lng":15.2866,"regionId":"sicily","regionName":"Sicily","regionEmoji":"🌋"},{"placeId":"trapani","name":"Trapani","nameIt":"Trapani","type":"COAST","lat":38.0176,"lng":12.5136,"regionId":"sicily","regionName":"Sicily","regionEmoji":"🌋"},{"placeId":"cefalu","name":"Cefalù","nameIt":"Cefalù","type":"TOWN","lat":38.0392,"lng":14.0228,"regionId":"sicily","regionName":"Sicily","regionEmoji":"🌋"},{"placeId":"marsala","name":"Marsala","nameIt":"Marsala","type":"CITY","lat":37.7986,"lng":12.4353,"regionId":"sicily","regionName":"Sicily","regionEmoji":"🌋"},{"placeId":"etna","name":"Mount Etna","nameIt":"Monte Etna","type":"MOUNTAIN","lat":37.751,"lng":14.9934,"regionId":"sicily","regionName":"Sicily","regionEmoji":"🌋"},{"placeId":"ragusa","name":"Ragusa","nameIt":"Ragusa","type":"CITY","lat":36.927,"lng":14.7315,"regionId":"sicily","regionName":"Sicily","regionEmoji":"🌋"},{"placeId":"aeolian_islands","name":"Aeolian Islands","nameIt":"Isole Eolie","type":"COAST","lat":38.4918,"lng":14.9232,"regionId":"sicily","regionName":"Sicily","regionEmoji":"🌋"},{"placeId":"trento","name":"Trento","nameIt":"Trento","type":"CITY","lat":46.0748,"lng":11.1217,"regionId":"trentino","regionName":"Trentino-Alto Adige","regionEmoji":"⛷️"},{"placeId":"bolzano","name":"Bolzano","nameIt":"Bolzano / Bozen","type":"CITY","lat":46.4983,"lng":11.3548,"regionId":"trentino","regionName":"Trentino-Alto Adige","regionEmoji":"⛷️"},{"placeId":"lake_garda_riva","name":"Riva del Garda","nameIt":"Riva del Garda","type":"LAKE","lat":45.8857,"lng":10.8405,"regionId":"trentino","regionName":"Trentino-Alto Adige","regionEmoji":"⛷️"},{"placeId":"cortina_dolomites","name":"Canazei and the Sella Ronda","nameIt":"Canazei","type":"MOUNTAIN","lat":46.4769,"lng":11.7706,"regionId":"trentino","regionName":"Trentino-Alto Adige","regionEmoji":"⛷️"},{"placeId":"merano","name":"Merano","nameIt":"Merano / Meran","type":"TOWN","lat":46.6713,"lng":11.1597,"regionId":"trentino","regionName":"Trentino-Alto Adige","regionEmoji":"⛷️"},{"placeId":"florence","name":"Florence","nameIt":"Firenze","type":"CITY","lat":43.7696,"lng":11.2558,"regionId":"tuscany","regionName":"Tuscany","regionEmoji":"🌻"},{"placeId":"siena","name":"Siena","nameIt":"Siena","type":"CITY","lat":43.3186,"lng":11.3307,"regionId":"tuscany","regionName":"Tuscany","regionEmoji":"🌻"},{"placeId":"san_gimignano","name":"San Gimignano","nameIt":"San Gimignano","type":"TOWN","lat":43.4676,"lng":11.0431,"regionId":"tuscany","regionName":"Tuscany","regionEmoji":"🌻"},{"placeId":"val_dorcia","name":"Val d'Orcia","nameIt":"Val d'Orcia","type":"LANDMARK","lat":43.05,"lng":11.6,"regionId":"tuscany","regionName":"Tuscany","regionEmoji":"🌻"},{"placeId":"cinque_terre_coast_livorno","name":"Livorno","nameIt":"Livorno","type":"COAST","lat":43.5484,"lng":10.3106,"regionId":"tuscany","regionName":"Tuscany","regionEmoji":"🌻"},{"placeId":"lucca","name":"Lucca","nameIt":"Lucca","type":"CITY","lat":43.843,"lng":10.505,"regionId":"tuscany","regionName":"Tuscany","regionEmoji":"🌻"},{"placeId":"pisa","name":"Pisa","nameIt":"Pisa","type":"CITY","lat":43.7228,"lng":10.4017,"regionId":"tuscany","regionName":"Tuscany","regionEmoji":"🌻"},{"placeId":"montepulciano","name":"Montepulciano","nameIt":"Montepulciano","type":"TOWN","lat":43.0948,"lng":11.7866,"regionId":"tuscany","regionName":"Tuscany","regionEmoji":"🌻"},{"placeId":"elba_island","name":"Elba Island","nameIt":"Isola d'Elba","type":"COAST","lat":42.76,"lng":10.27,"regionId":"tuscany","regionName":"Tuscany","regionEmoji":"🌻"},{"placeId":"arezzo","name":"Arezzo","nameIt":"Arezzo","type":"CITY","lat":43.4633,"lng":11.88,"regionId":"tuscany","regionName":"Tuscany","regionEmoji":"🌻"},{"placeId":"perugia","name":"Perugia","nameIt":"Perugia","type":"CITY","lat":43.1107,"lng":12.3908,"regionId":"umbria","regionName":"Umbria","regionEmoji":"🫖"},{"placeId":"assisi","name":"Assisi","nameIt":"Assisi","type":"TOWN","lat":43.0707,"lng":12.6196,"regionId":"umbria","regionName":"Umbria","regionEmoji":"🫖"},{"placeId":"orvieto","name":"Orvieto","nameIt":"Orvieto","type":"TOWN","lat":42.7185,"lng":12.1078,"regionId":"umbria","regionName":"Umbria","regionEmoji":"🫖"},{"placeId":"spoleto","name":"Spoleto","nameIt":"Spoleto","type":"TOWN","lat":42.7342,"lng":12.7377,"regionId":"umbria","regionName":"Umbria","regionEmoji":"🫖"},{"placeId":"norcia","name":"Norcia","nameIt":"Norcia","type":"TOWN","lat":42.7944,"lng":13.0956,"regionId":"umbria","regionName":"Umbria","regionEmoji":"🫖"},{"placeId":"gubbio","name":"Gubbio","nameIt":"Gubbio","type":"TOWN","lat":43.3536,"lng":12.5755,"regionId":"umbria","regionName":"Umbria","regionEmoji":"🫖"},{"placeId":"todi","name":"Todi","nameIt":"Todi","type":"TOWN","lat":42.7827,"lng":12.4065,"regionId":"umbria","regionName":"Umbria","regionEmoji":"🫖"},{"placeId":"montefalco","name":"Montefalco","nameIt":"Montefalco","type":"TOWN","lat":42.8933,"lng":12.6514,"regionId":"umbria","regionName":"Umbria","regionEmoji":"🫖"},{"placeId":"castelluccio_di_norcia","name":"Castelluccio di Norcia","nameIt":"Castelluccio di Norcia","type":"MOUNTAIN","lat":42.8283,"lng":13.2118,"regionId":"umbria","regionName":"Umbria","regionEmoji":"🫖"},{"placeId":"citta_di_castello","name":"Città di Castello","nameIt":"Città di Castello","type":"CITY","lat":43.4561,"lng":12.2392,"regionId":"umbria","regionName":"Umbria","regionEmoji":"🫖"},{"placeId":"aosta","name":"Aosta","nameIt":"Aosta","type":"CITY","lat":45.7369,"lng":7.3153,"regionId":"vda","regionName":"Valle d'Aosta","regionEmoji":"🏔️"},{"placeId":"cervinia","name":"Cervinia","nameIt":"Breuil-Cervinia","type":"MOUNTAIN","lat":45.9341,"lng":7.6263,"regionId":"vda","regionName":"Valle d'Aosta","regionEmoji":"🏔️"},{"placeId":"courmayeur","name":"Courmayeur","nameIt":"Courmayeur","type":"MOUNTAIN","lat":45.7963,"lng":6.9706,"regionId":"vda","regionName":"Valle d'Aosta","regionEmoji":"🏔️"},{"placeId":"fenis_castle","name":"Fénis Castle","nameIt":"Castello di Fénis","type":"LANDMARK","lat":45.7478,"lng":7.4908,"regionId":"vda","regionName":"Valle d'Aosta","regionEmoji":"🏔️"},{"placeId":"gran_paradiso","name":"Gran Paradiso National Park","nameIt":"Parco Nazionale Gran Paradiso","type":"MOUNTAIN","lat":45.5167,"lng":7.2667,"regionId":"vda","regionName":"Valle d'Aosta","regionEmoji":"🏔️"},{"placeId":"saint_vincent","name":"Saint-Vincent","nameIt":"Saint-Vincent","type":"TOWN","lat":45.7511,"lng":7.6414,"regionId":"vda","regionName":"Valle d'Aosta","regionEmoji":"🏔️"},{"placeId":"bard_fortress","name":"Bard Fortress","nameIt":"Forte di Bard","type":"LANDMARK","lat":45.6083,"lng":7.7458,"regionId":"vda","regionName":"Valle d'Aosta","regionEmoji":"🏔️"},{"placeId":"cogne","name":"Cogne","nameIt":"Cogne","type":"TOWN","lat":45.6089,"lng":7.3578,"regionId":"vda","regionName":"Valle d'Aosta","regionEmoji":"🏔️"},{"placeId":"la_thuile","name":"La Thuile","nameIt":"La Thuile","type":"TOWN","lat":45.6697,"lng":6.9728,"regionId":"vda","regionName":"Valle d'Aosta","regionEmoji":"🏔️"},{"placeId":"issogne_castle","name":"Issogne Castle","nameIt":"Castello di Issogne","type":"LANDMARK","lat":45.6611,"lng":7.6872,"regionId":"vda","regionName":"Valle d'Aosta","regionEmoji":"🏔️"},{"placeId":"venice","name":"Venice","nameIt":"Venezia","type":"CITY","lat":45.4408,"lng":12.3155,"regionId":"veneto","regionName":"Veneto","regionEmoji":"🎭"},{"placeId":"verona","name":"Verona","nameIt":"Verona","type":"CITY","lat":45.4384,"lng":10.9916,"regionId":"veneto","regionName":"Veneto","regionEmoji":"🎭"},{"placeId":"dolomites_veneto","name":"Dolomites","nameIt":"Dolomiti","type":"MOUNTAIN","lat":46.4102,"lng":11.844,"regionId":"veneto","regionName":"Veneto","regionEmoji":"🎭"},{"placeId":"lake_garda_veneto","name":"Lake Garda","nameIt":"Lago di Garda","type":"LAKE","lat":45.6389,"lng":10.668,"regionId":"veneto","regionName":"Veneto","regionEmoji":"🎭"},{"placeId":"padua","name":"Padua","nameIt":"Padova","type":"CITY","lat":45.4064,"lng":11.8768,"regionId":"veneto","regionName":"Veneto","regionEmoji":"🎭"},{"placeId":"vicenza","name":"Vicenza","nameIt":"Vicenza","type":"CITY","lat":45.5455,"lng":11.5354,"regionId":"veneto","regionName":"Veneto","regionEmoji":"🎭"},{"placeId":"treviso","name":"Treviso","nameIt":"Treviso","type":"CITY","lat":45.6669,"lng":12.2433,"regionId":"veneto","regionName":"Veneto","regionEmoji":"🎭"},{"placeId":"euganean_hills","name":"Euganean Hills","nameIt":"Colli Euganei","type":"MOUNTAIN","lat":45.3167,"lng":11.7,"regionId":"veneto","regionName":"Veneto","regionEmoji":"🎭"},{"placeId":"bassano_del_grappa","name":"Bassano del Grappa","nameIt":"Bassano del Grappa","type":"TOWN","lat":45.7668,"lng":11.7346,"regionId":"veneto","regionName":"Veneto","regionEmoji":"🎭"},{"placeId":"conegliano","name":"Conegliano","nameIt":"Conegliano","type":"TOWN","lat":45.8887,"lng":12.2969,"regionId":"veneto","regionName":"Veneto","regionEmoji":"🎭"}]