[
  {
    "placeId": "palace_of_versailles",
    "name": "Palace of Versailles",
    "nameIt": "Château de Versailles",
    "type": "LANDMARK",
    "lat": 48.8047,
    "lng": 2.12,
    "regionId": "ile_de_france",
    "regionName": "Île-de-France",
    "regionEmoji": "🗼"
  },
  {
    "placeId": "paris",
    "name": "Paris",
    "nameIt": "Paris",
    "type": "CITY",
    "lat": 48.8566,
    "lng": 2.3522,
    "regionId": "ile_de_france",
    "regionName": "Île-de-France",
    "regionEmoji": "🗼"
  },
  {
    "placeId": "fontainebleau",
    "name": "Fontainebleau",
    "nameIt": "Fontainebleau",
    "type": "TOWN",
    "lat": 48.3977,
    "lng": 2.6965,
    "regionId": "ile_de_france",
    "regionName": "Île-de-France",
    "regionEmoji": "🗼"
  },
  {
    "placeId": "giverny",
    "name": "Giverny",
    "nameIt": "Giverny",
    "type": "VILLAGE",
    "lat": 49.074,
    "lng": 1.5495,
    "regionId": "ile_de_france",
    "regionName": "Île-de-France",
    "regionEmoji": "🗼"
  },
  {
    "placeId": "chartres",
    "name": "Chartres",
    "nameIt": "Chartres",
    "type": "CITY",
    "lat": 48.4471,
    "lng": 1.4934,
    "regionId": "ile_de_france",
    "regionName": "Île-de-France",
    "regionEmoji": "🗼"
  },
  {
    "placeId": "saint_germain_en_laye",
    "name": "Saint-Germain-en-Laye",
    "nameIt": "Saint-Germain-en-Laye",
    "type": "TOWN",
    "lat": 48.8958,
    "lng": 2.0938,
    "regionId": "ile_de_france",
    "regionName": "Île-de-France",
    "regionEmoji": "🗼"
  },
  {
    "placeId": "malmaison",
    "name": "Malmaison",
    "nameIt": "Malmaison",
    "type": "TOWN",
    "lat": 48.8723,
    "lng": 2.2868,
    "regionId": "ile_de_france",
    "regionName": "Île-de-France",
    "regionEmoji": "🗼"
  },
  {
    "placeId": "disneyland_paris",
    "name": "Disneyland Paris",
    "nameIt": "Disneyland Paris",
    "type": "LANDMARK",
    "lat": 48.8723,
    "lng": 2.7764,
    "regionId": "ile_de_france",
    "regionName": "Île-de-France",
    "regionEmoji": "🗼"
  },
  {
    "placeId": "rambouillet",
    "name": "Rambouillet",
    "nameIt": "Rambouillet",
    "type": "TOWN",
    "lat": 48.6411,
    "lng": 1.833,
    "regionId": "ile_de_france",
    "regionName": "Île-de-France",
    "regionEmoji": "🗼"
  },
  {
    "placeId": "monet_giverny_vernon",
    "name": "Vernon",
    "nameIt": "Vernon",
    "type": "TOWN",
    "lat": 49.089,
    "lng": 1.5534,
    "regionId": "ile_de_france",
    "regionName": "Île-de-France",
    "regionEmoji": "🗼"
  },
  {
    "placeId": "vaux_le_vicomte",
    "name": "Vaux-le-Vicomte",
    "nameIt": "Château de Vaux-le-Vicomte",
    "type": "LANDMARK",
    "lat": 48.5583,
    "lng": 2.5007,
    "regionId": "ile_de_france",
    "regionName": "Île-de-France",
    "regionEmoji": "🗼"
  },
  {
    "placeId": "ecouen",
    "name": "Écouen",
    "nameIt": "Écouen",
    "type": "TOWN",
    "lat": 48.9846,
    "lng": 2.2897,
    "regionId": "ile_de_france",
    "regionName": "Île-de-France",
    "regionEmoji": "🗼"
  },
  {
    "placeId": "brie_comte_robert",
    "name": "Brie-Comte-Robert",
    "nameIt": "Brie-Comte-Robert",
    "type": "TOWN",
    "lat": 48.7513,
    "lng": 2.6165,
    "regionId": "ile_de_france",
    "regionName": "Île-de-France",
    "regionEmoji": "🗼"
  },
  {
    "placeId": "meaux",
    "name": "Meaux",
    "nameIt": "Meaux",
    "type": "CITY",
    "lat": 48.9597,
    "lng": 2.8764,
    "regionId": "ile_de_france",
    "regionName": "Île-de-France",
    "regionEmoji": "🗼"
  },
  {
    "placeId": "nice",
    "name": "Nice",
    "nameIt": "Nice",
    "type": "COASTAL",
    "lat": 43.7102,
    "lng": 7.262,
    "regionId": "provence_alpes_cote_azur",
    "regionName": "Provence-Alpes-Côte d'Azur",
    "regionEmoji": "🌊"
  },
  {
    "placeId": "provence_lavender_fields",
    "name": "Lavender Fields of Provence",
    "nameIt": "Champs de Lavande de Provence",
    "type": "NATURE",
    "lat": 43.95,
    "lng": 5.75,
    "regionId": "provence_alpes_cote_azur",
    "regionName": "Provence-Alpes-Côte d'Azur",
    "regionEmoji": "🌊"
  },
  {
    "placeId": "avignon",
    "name": "Avignon",
    "nameIt": "Avignon",
    "type": "CITY",
    "lat": 43.9505,
    "lng": 4.8055,
    "regionId": "provence_alpes_cote_azur",
    "regionName": "Provence-Alpes-Côte d'Azur",
    "regionEmoji": "🌊"
  },
  {
    "placeId": "cannes",
    "name": "Cannes",
    "nameIt": "Cannes",
    "type": "COASTAL",
    "lat": 43.5528,
    "lng": 7.0176,
    "regionId": "provence_alpes_cote_azur",
    "regionName": "Provence-Alpes-Côte d'Azur",
    "regionEmoji": "🌊"
  },
  {
    "placeId": "antibes",
    "name": "Antibes",
    "nameIt": "Antibes",
    "type": "COASTAL",
    "lat": 43.548,
    "lng": 7.123,
    "regionId": "provence_alpes_cote_azur",
    "regionName": "Provence-Alpes-Côte d'Azur",
    "regionEmoji": "🌊"
  },
  {
    "placeId": "mont_ventoux",
    "name": "Mont Ventoux",
    "nameIt": "Mont Ventoux",
    "type": "NATURE",
    "lat": 44.1608,
    "lng": 5.2678,
    "regionId": "provence_alpes_cote_azur",
    "regionName": "Provence-Alpes-Côte d'Azur",
    "regionEmoji": "🌊"
  },
  {
    "placeId": "gorges_du_verdon",
    "name": "Gorges du Verdon",
    "nameIt": "Gorges du Verdon",
    "type": "NATURE",
    "lat": 43.75,
    "lng": 6.3333,
    "regionId": "provence_alpes_cote_azur",
    "regionName": "Provence-Alpes-Côte d'Azur",
    "regionEmoji": "🌊"
  },
  {
    "placeId": "aix_en_provence",
    "name": "Aix-en-Provence",
    "nameIt": "Aix-en-Provence",
    "type": "CITY",
    "lat": 43.5298,
    "lng": 5.4474,
    "regionId": "provence_alpes_cote_azur",
    "regionName": "Provence-Alpes-Côte d'Azur",
    "regionEmoji": "🌊"
  },
  {
    "placeId": "grasse",
    "name": "Grasse",
    "nameIt": "Grasse",
    "type": "TOWN",
    "lat": 43.6597,
    "lng": 6.627,
    "regionId": "provence_alpes_cote_azur",
    "regionName": "Provence-Alpes-Côte d'Azur",
    "regionEmoji": "🌊"
  },
  {
    "placeId": "isle_sur_la_sorgue",
    "name": "Isle-sur-la-Sorgue",
    "nameIt": "Isle-sur-la-Sorgue",
    "type": "TOWN",
    "lat": 43.9166,
    "lng": 5.0551,
    "regionId": "provence_alpes_cote_azur",
    "regionName": "Provence-Alpes-Côte d'Azur",
    "regionEmoji": "🌊"
  },
  {
    "placeId": "hyeres",
    "name": "Hyères",
    "nameIt": "Hyères",
    "type": "COASTAL",
    "lat": 43.119,
    "lng": 6.1314,
    "regionId": "provence_alpes_cote_azur",
    "regionName": "Provence-Alpes-Côte d'Azur",
    "regionEmoji": "🌊"
  },
  {
    "placeId": "roussillon",
    "name": "Roussillon",
    "nameIt": "Roussillon",
    "type": "VILLAGE",
    "lat": 43.9238,
    "lng": 5.2966,
    "regionId": "provence_alpes_cote_azur",
    "regionName": "Provence-Alpes-Côte d'Azur",
    "regionEmoji": "🌊"
  },
  {
    "placeId": "montelimar",
    "name": "Montélimar",
    "nameIt": "Montélimar",
    "type": "TOWN",
    "lat": 44.5622,
    "lng": 4.7459,
    "regionId": "provence_alpes_cote_azur",
    "regionName": "Provence-Alpes-Côte d'Azur",
    "regionEmoji": "🌊"
  },
  {
    "placeId": "saint_paul_de_vence",
    "name": "Saint-Paul-de-Vence",
    "nameIt": "Saint-Paul-de-Vence",
    "type": "VILLAGE",
    "lat": 43.6863,
    "lng": 7.1104,
    "regionId": "provence_alpes_cote_azur",
    "regionName": "Provence-Alpes-Côte d'Azur",
    "regionEmoji": "🌊"
  },
  {
    "placeId": "lyon",
    "name": "Lyon",
    "nameIt": "Lyon",
    "type": "CITY",
    "lat": 45.764,
    "lng": 4.8357,
    "regionId": "auvergne_rhone_alpes",
    "regionName": "Auvergne-Rhône-Alpes",
    "regionEmoji": "⛰️"
  },
  {
    "placeId": "mont_blanc",
    "name": "Mont Blanc",
    "nameIt": "Mont-Blanc",
    "type": "LANDMARK",
    "lat": 45.8325,
    "lng": 6.8652,
    "regionId": "auvergne_rhone_alpes",
    "regionName": "Auvergne-Rhône-Alpes",
    "regionEmoji": "⛰️"
  },
  {
    "placeId": "annecy",
    "name": "Annecy",
    "nameIt": "Annecy",
    "type": "TOWN",
    "lat": 45.8992,
    "lng": 6.1294,
    "regionId": "auvergne_rhone_alpes",
    "regionName": "Auvergne-Rhône-Alpes",
    "regionEmoji": "⛰️"
  },
  {
    "placeId": "clermont_ferrand",
    "name": "Clermont-Ferrand",
    "nameIt": "Clermont-Ferrand",
    "type": "CITY",
    "lat": 45.7772,
    "lng": 3.0862,
    "regionId": "auvergne_rhone_alpes",
    "regionName": "Auvergne-Rhône-Alpes",
    "regionEmoji": "⛰️"
  },
  {
    "placeId": "chamonix",
    "name": "Chamonix",
    "nameIt": "Chamonix-Mont-Blanc",
    "type": "TOWN",
    "lat": 45.9237,
    "lng": 6.8694,
    "regionId": "auvergne_rhone_alpes",
    "regionName": "Auvergne-Rhône-Alpes",
    "regionEmoji": "⛰️"
  },
  {
    "placeId": "puy_de_dome",
    "name": "Puy de Dôme",
    "nameIt": "Puy de Dôme",
    "type": "LANDMARK",
    "lat": 45.7731,
    "lng": 2.9658,
    "regionId": "auvergne_rhone_alpes",
    "regionName": "Auvergne-Rhône-Alpes",
    "regionEmoji": "⛰️"
  },
  {
    "placeId": "grenoble",
    "name": "Grenoble",
    "nameIt": "Grenoble",
    "type": "CITY",
    "lat": 45.1885,
    "lng": 5.7245,
    "regionId": "auvergne_rhone_alpes",
    "regionName": "Auvergne-Rhône-Alpes",
    "regionEmoji": "⛰️"
  },
  {
    "placeId": "le_puy_en_velay",
    "name": "Le Puy-en-Velay",
    "nameIt": "Le Puy-en-Velay",
    "type": "TOWN",
    "lat": 45.0461,
    "lng": 3.8884,
    "regionId": "auvergne_rhone_alpes",
    "regionName": "Auvergne-Rhône-Alpes",
    "regionEmoji": "⛰️"
  },
  {
    "placeId": "megeve",
    "name": "Megève",
    "nameIt": "Megève",
    "type": "TOWN",
    "lat": 45.8658,
    "lng": 6.6149,
    "regionId": "auvergne_rhone_alpes",
    "regionName": "Auvergne-Rhône-Alpes",
    "regionEmoji": "⛰️"
  },
  {
    "placeId": "vienne",
    "name": "Vienne",
    "nameIt": "Vienne",
    "type": "TOWN",
    "lat": 45.5286,
    "lng": 4.8752,
    "regionId": "auvergne_rhone_alpes",
    "regionName": "Auvergne-Rhône-Alpes",
    "regionEmoji": "⛰️"
  },
  {
    "placeId": "yvoire",
    "name": "Yvoire",
    "nameIt": "Yvoire",
    "type": "VILLAGE",
    "lat": 46.3659,
    "lng": 6.3709,
    "regionId": "auvergne_rhone_alpes",
    "regionName": "Auvergne-Rhône-Alpes",
    "regionEmoji": "⛰️"
  },
  {
    "placeId": "lyon_basilica_park",
    "name": "Parc de la Tête d'Or",
    "nameIt": "Parc de la Tête d'Or",
    "type": "NATURE",
    "lat": 45.7756,
    "lng": 4.8544,
    "regionId": "auvergne_rhone_alpes",
    "regionName": "Auvergne-Rhône-Alpes",
    "regionEmoji": "⛰️"
  },
  {
    "placeId": "brioude",
    "name": "Brioude",
    "nameIt": "Brioude",
    "type": "TOWN",
    "lat": 45.2964,
    "lng": 3.3876,
    "regionId": "auvergne_rhone_alpes",
    "regionName": "Auvergne-Rhône-Alpes",
    "regionEmoji": "⛰️"
  },
  {
    "placeId": "bordeaux",
    "name": "Bordeaux",
    "nameIt": "Bordeaux",
    "type": "CITY",
    "lat": 44.8378,
    "lng": -0.5792,
    "regionId": "nouvelle_aquitaine",
    "regionName": "New Aquitaine",
    "regionEmoji": "🍷"
  },
  {
    "placeId": "saint_emilion",
    "name": "Saint-Émilion",
    "nameIt": "Saint-Émilion",
    "type": "TOWN",
    "lat": 44.8924,
    "lng": -0.1547,
    "regionId": "nouvelle_aquitaine",
    "regionName": "New Aquitaine",
    "regionEmoji": "🍷"
  },
  {
    "placeId": "biarritz",
    "name": "Biarritz",
    "nameIt": "Biarritz",
    "type": "COASTAL",
    "lat": 43.4805,
    "lng": -1.5597,
    "regionId": "nouvelle_aquitaine",
    "regionName": "New Aquitaine",
    "regionEmoji": "🍷"
  },
  {
    "placeId": "san_sebastian",
    "name": "San Sebastián",
    "nameIt": "Donostia",
    "type": "CITY",
    "lat": 43.3183,
    "lng": -1.9758,
    "regionId": "nouvelle_aquitaine",
    "regionName": "New Aquitaine",
    "regionEmoji": "🍷"
  },
  {
    "placeId": "bayonne",
    "name": "Bayonne",
    "nameIt": "Baiona",
    "type": "CITY",
    "lat": 43.4895,
    "lng": -1.4743,
    "regionId": "nouvelle_aquitaine",
    "regionName": "New Aquitaine",
    "regionEmoji": "🍷"
  },
  {
    "placeId": "la_rochelle",
    "name": "La Rochelle",
    "nameIt": "La Rochelle",
    "type": "COASTAL",
    "lat": 46.1591,
    "lng": -1.1541,
    "regionId": "nouvelle_aquitaine",
    "regionName": "New Aquitaine",
    "regionEmoji": "🍷"
  },
  {
    "placeId": "royan",
    "name": "Royan",
    "nameIt": "Royan",
    "type": "COASTAL",
    "lat": 45.6347,
    "lng": -1.0283,
    "regionId": "nouvelle_aquitaine",
    "regionName": "New Aquitaine",
    "regionEmoji": "🍷"
  },
  {
    "placeId": "poitiers",
    "name": "Poitiers",
    "nameIt": "Poitiers",
    "type": "CITY",
    "lat": 46.5801,
    "lng": 0.3405,
    "regionId": "nouvelle_aquitaine",
    "regionName": "New Aquitaine",
    "regionEmoji": "🍷"
  },
  {
    "placeId": "cognac",
    "name": "Cognac",
    "nameIt": "Cognac",
    "type": "TOWN",
    "lat": 45.6933,
    "lng": -0.3225,
    "regionId": "nouvelle_aquitaine",
    "regionName": "New Aquitaine",
    "regionEmoji": "🍷"
  },
  {
    "placeId": "angouleme",
    "name": "Angoulême",
    "nameIt": "Angoulême",
    "type": "CITY",
    "lat": 45.6484,
    "lng": -0.1604,
    "regionId": "nouvelle_aquitaine",
    "regionName": "New Aquitaine",
    "regionEmoji": "🍷"
  },
  {
    "placeId": "ile_de_re",
    "name": "Île de Ré",
    "nameIt": "Île de Ré",
    "type": "ISLAND",
    "lat": 46.2344,
    "lng": -1.5469,
    "regionId": "nouvelle_aquitaine",
    "regionName": "New Aquitaine",
    "regionEmoji": "🍷"
  },
  {
    "placeId": "pauillac",
    "name": "Pauillac",
    "nameIt": "Pauillac",
    "type": "TOWN",
    "lat": 45.1909,
    "lng": -0.7575,
    "regionId": "nouvelle_aquitaine",
    "regionName": "New Aquitaine",
    "regionEmoji": "🍷"
  },
  {
    "placeId": "arcachon",
    "name": "Arcachon",
    "nameIt": "Arcachon",
    "type": "COASTAL",
    "lat": 44.6667,
    "lng": -1.1667,
    "regionId": "nouvelle_aquitaine",
    "regionName": "New Aquitaine",
    "regionEmoji": "🍷"
  },
  {
    "placeId": "rocamadour",
    "name": "Rocamadour",
    "nameIt": "Rocamadour",
    "type": "VILLAGE",
    "lat": 44.7956,
    "lng": 1.6187,
    "regionId": "nouvelle_aquitaine",
    "regionName": "New Aquitaine",
    "regionEmoji": "🍷"
  },
  {
    "placeId": "mont_saint_michel",
    "name": "Mont-Saint-Michel",
    "nameIt": "Mont-Saint-Michel",
    "type": "LANDMARK",
    "lat": 48.6361,
    "lng": -1.5115,
    "regionId": "bretagne",
    "regionName": "Brittany",
    "regionEmoji": "⛵"
  },
  {
    "placeId": "saint_malo",
    "name": "Saint-Malo",
    "nameIt": "Sant-Maloù",
    "type": "COASTAL",
    "lat": 48.6495,
    "lng": -2.0268,
    "regionId": "bretagne",
    "regionName": "Brittany",
    "regionEmoji": "⛵"
  },
  {
    "placeId": "quimper",
    "name": "Quimper",
    "nameIt": "Kemper",
    "type": "CITY",
    "lat": 47.9969,
    "lng": -4.0977,
    "regionId": "bretagne",
    "regionName": "Brittany",
    "regionEmoji": "⛵"
  },
  {
    "placeId": "belle_ile",
    "name": "Belle-Île",
    "nameIt": "Enez-Gwaz",
    "type": "ISLAND",
    "lat": 47.3042,
    "lng": -3.2681,
    "regionId": "bretagne",
    "regionName": "Brittany",
    "regionEmoji": "⛵"
  },
  {
    "placeId": "carnac",
    "name": "Carnac",
    "nameIt": "Karnag",
    "type": "COASTAL",
    "lat": 47.5884,
    "lng": -3.0714,
    "regionId": "bretagne",
    "regionName": "Brittany",
    "regionEmoji": "⛵"
  },
  {
    "placeId": "dinan",
    "name": "Dinan",
    "nameIt": "Dinann",
    "type": "TOWN",
    "lat": 48.4565,
    "lng": -2.0456,
    "regionId": "bretagne",
    "regionName": "Brittany",
    "regionEmoji": "⛵"
  },
  {
    "placeId": "concarneau",
    "name": "Concarneau",
    "nameIt": "Konkarnoe",
    "type": "COASTAL",
    "lat": 47.8727,
    "lng": -3.9197,
    "regionId": "bretagne",
    "regionName": "Brittany",
    "regionEmoji": "⛵"
  },
  {
    "placeId": "vannes",
    "name": "Vannes",
    "nameIt": "Gwened",
    "type": "CITY",
    "lat": 47.6426,
    "lng": -2.7597,
    "regionId": "bretagne",
    "regionName": "Brittany",
    "regionEmoji": "⛵"
  },
  {
    "placeId": "morlaix",
    "name": "Morlaix",
    "nameIt": "Montroulez",
    "type": "TOWN",
    "lat": 48.5759,
    "lng": -3.8291,
    "regionId": "bretagne",
    "regionName": "Brittany",
    "regionEmoji": "⛵"
  },
  {
    "placeId": "locronan",
    "name": "Locronan",
    "nameIt": "Lokronan",
    "type": "VILLAGE",
    "lat": 48.0747,
    "lng": -4.2152,
    "regionId": "bretagne",
    "regionName": "Brittany",
    "regionEmoji": "⛵"
  },
  {
    "placeId": "groix",
    "name": "Groix Island",
    "nameIt": "Enez-Groe",
    "type": "ISLAND",
    "lat": 47.6485,
    "lng": -3.4544,
    "regionId": "bretagne",
    "regionName": "Brittany",
    "regionEmoji": "⛵"
  },
  {
    "placeId": "pointe_du_raz",
    "name": "Pointe du Raz",
    "nameIt": "Penn ar Razi",
    "type": "NATURE",
    "lat": 48.0275,
    "lng": -4.7297,
    "regionId": "bretagne",
    "regionName": "Brittany",
    "regionEmoji": "⛵"
  },
  {
    "placeId": "rennes",
    "name": "Rennes",
    "nameIt": "Roazhon",
    "type": "CITY",
    "lat": 48.1113,
    "lng": -1.68,
    "regionId": "bretagne",
    "regionName": "Brittany",
    "regionEmoji": "⛵"
  },
  {
    "placeId": "hennebont",
    "name": "Hennebont",
    "nameIt": "Henbont",
    "type": "TOWN",
    "lat": 47.8038,
    "lng": -3.2789,
    "regionId": "bretagne",
    "regionName": "Brittany",
    "regionEmoji": "⛵"
  },
  {
    "placeId": "mont_saint_michel",
    "name": "Mont-Saint-Michel",
    "nameIt": "Mont-Saint-Michel",
    "type": "LANDMARK",
    "lat": 48.6361,
    "lng": -1.5115,
    "regionId": "normandie",
    "regionName": "Normandy",
    "regionEmoji": "🏖️"
  },
  {
    "placeId": "d_day_beaches",
    "name": "D-Day Beaches",
    "nameIt": "Plages du Débarquement",
    "type": "COASTAL",
    "lat": 49.355,
    "lng": -0.3136,
    "regionId": "normandie",
    "regionName": "Normandy",
    "regionEmoji": "🏖️"
  },
  {
    "placeId": "rouen",
    "name": "Rouen",
    "nameIt": "Rouen",
    "type": "CITY",
    "lat": 49.4432,
    "lng": 1.0993,
    "regionId": "normandie",
    "regionName": "Normandy",
    "regionEmoji": "🏖️"
  },
  {
    "placeId": "honfleur",
    "name": "Honfleur",
    "nameIt": "Honfleur",
    "type": "COASTAL",
    "lat": 49.4149,
    "lng": 0.2314,
    "regionId": "normandie",
    "regionName": "Normandy",
    "regionEmoji": "🏖️"
  },
  {
    "placeId": "bayeux",
    "name": "Bayeux",
    "nameIt": "Bayeux",
    "type": "TOWN",
    "lat": 49.2806,
    "lng": -0.6992,
    "regionId": "normandie",
    "regionName": "Normandy",
    "regionEmoji": "🏖️"
  },
  {
    "placeId": "etretat",
    "name": "Étretat",
    "nameIt": "Étretat",
    "type": "COASTAL",
    "lat": 49.7065,
    "lng": 0.2047,
    "regionId": "normandie",
    "regionName": "Normandy",
    "regionEmoji": "🏖️"
  },
  {
    "placeId": "dieppe",
    "name": "Dieppe",
    "nameIt": "Dieppe",
    "type": "COASTAL",
    "lat": 49.9271,
    "lng": 1.0758,
    "regionId": "normandie",
    "regionName": "Normandy",
    "regionEmoji": "🏖️"
  },
  {
    "placeId": "caen",
    "name": "Caen",
    "nameIt": "Caen",
    "type": "CITY",
    "lat": 49.1829,
    "lng": -0.3707,
    "regionId": "normandie",
    "regionName": "Normandy",
    "regionEmoji": "🏖️"
  },
  {
    "placeId": "deauville",
    "name": "Deauville",
    "nameIt": "Deauville",
    "type": "COASTAL",
    "lat": 49.3495,
    "lng": 0.1383,
    "regionId": "normandie",
    "regionName": "Normandy",
    "regionEmoji": "🏖️"
  },
  {
    "placeId": "trouville",
    "name": "Trouville-sur-Mer",
    "nameIt": "Trouville-sur-Mer",
    "type": "COASTAL",
    "lat": 49.3607,
    "lng": 0.0988,
    "regionId": "normandie",
    "regionName": "Normandy",
    "regionEmoji": "🏖️"
  },
  {
    "placeId": "giverny",
    "name": "Giverny",
    "nameIt": "Giverny",
    "type": "VILLAGE",
    "lat": 49.0721,
    "lng": 1.5424,
    "regionId": "normandie",
    "regionName": "Normandy",
    "regionEmoji": "🏖️"
  },
  {
    "placeId": "pont_audemer",
    "name": "Pont-Audemer",
    "nameIt": "Pont-Audemer",
    "type": "TOWN",
    "lat": 49.3673,
    "lng": 0.5061,
    "regionId": "normandie",
    "regionName": "Normandy",
    "regionEmoji": "🏖️"
  },
  {
    "placeId": "verneuil_avre",
    "name": "Verneuil-sur-Avre",
    "nameIt": "Verneuil-sur-Avre",
    "type": "TOWN",
    "lat": 48.7368,
    "lng": 0.9574,
    "regionId": "normandie",
    "regionName": "Normandy",
    "regionEmoji": "🏖️"
  },
  {
    "placeId": "sees",
    "name": "Séez",
    "nameIt": "Séez",
    "type": "TOWN",
    "lat": 48.5658,
    "lng": 0.1964,
    "regionId": "normandie",
    "regionName": "Normandy",
    "regionEmoji": "🏖️"
  },
  {
    "placeId": "coutances",
    "name": "Coutances",
    "nameIt": "Coutances",
    "type": "TOWN",
    "lat": 49.0396,
    "lng": -1.4439,
    "regionId": "normandie",
    "regionName": "Normandy",
    "regionEmoji": "🏖️"
  },
  {
    "placeId": "lille",
    "name": "Lille",
    "nameIt": "Lille",
    "type": "CITY",
    "lat": 50.6292,
    "lng": 3.0573,
    "regionId": "hauts_de_france",
    "regionName": "Hauts-de-France",
    "regionEmoji": "🏰"
  },
  {
    "placeId": "amiens",
    "name": "Amiens",
    "nameIt": "Amiens",
    "type": "CITY",
    "lat": 49.8941,
    "lng": 2.2959,
    "regionId": "hauts_de_france",
    "regionName": "Hauts-de-France",
    "regionEmoji": "🏰"
  },
  {
    "placeId": "arras",
    "name": "Arras",
    "nameIt": "Arras",
    "type": "CITY",
    "lat": 50.2895,
    "lng": 2.7735,
    "regionId": "hauts_de_france",
    "regionName": "Hauts-de-France",
    "regionEmoji": "🏰"
  },
  {
    "placeId": "boulogne_sur_mer",
    "name": "Boulogne-sur-Mer",
    "nameIt": "Boulogne-sur-Mer",
    "type": "COASTAL",
    "lat": 50.726,
    "lng": 1.6094,
    "regionId": "hauts_de_france",
    "regionName": "Hauts-de-France",
    "regionEmoji": "🏰"
  },
  {
    "placeId": "white_cliffs_deux_caps",
    "name": "White Cliffs of Deux-Caps",
    "nameIt": "Falaises des Deux-Caps",
    "type": "COASTAL",
    "lat": 50.8558,
    "lng": 1.5547,
    "regionId": "hauts_de_france",
    "regionName": "Hauts-de-France",
    "regionEmoji": "🏰"
  },
  {
    "placeId": "montreuil_sur_mer",
    "name": "Montreuil-sur-Mer",
    "nameIt": "Montreuil-sur-Mer",
    "type": "TOWN",
    "lat": 50.4446,
    "lng": 1.7394,
    "regionId": "hauts_de_france",
    "regionName": "Hauts-de-France",
    "regionEmoji": "🏰"
  },
  {
    "placeId": "saint_omer",
    "name": "Saint-Omer",
    "nameIt": "Saint-Omer",
    "type": "TOWN",
    "lat": 50.7458,
    "lng": 2.254,
    "regionId": "hauts_de_france",
    "regionName": "Hauts-de-France",
    "regionEmoji": "🏰"
  },
  {
    "placeId": "cambrai",
    "name": "Cambrai",
    "nameIt": "Cambrai",
    "type": "TOWN",
    "lat": 50.1745,
    "lng": 3.2367,
    "regionId": "hauts_de_france",
    "regionName": "Hauts-de-France",
    "regionEmoji": "🏰"
  },
  {
    "placeId": "compiegne",
    "name": "Compiègne",
    "nameIt": "Compiègne",
    "type": "CITY",
    "lat": 49.4144,
    "lng": 2.8261,
    "regionId": "hauts_de_france",
    "regionName": "Hauts-de-France",
    "regionEmoji": "🏰"
  },
  {
    "placeId": "laon",
    "name": "Laon",
    "nameIt": "Laon",
    "type": "TOWN",
    "lat": 49.5641,
    "lng": 3.6258,
    "regionId": "hauts_de_france",
    "regionName": "Hauts-de-France",
    "regionEmoji": "🏰"
  },
  {
    "placeId": "abbaye_saint_waast",
    "name": "Saint-Waast Abbey",
    "nameIt": "Abbaye Saint-Waast",
    "type": "LANDMARK",
    "lat": 50.2858,
    "lng": 2.7774,
    "regionId": "hauts_de_france",
    "regionName": "Hauts-de-France",
    "regionEmoji": "🏰"
  },
  {
    "placeId": "vallee_somme",
    "name": "Vallée de la Somme",
    "nameIt": "Vallée de la Somme",
    "type": "NATURE",
    "lat": 50,
    "lng": 2.3,
    "regionId": "hauts_de_france",
    "regionName": "Hauts-de-France",
    "regionEmoji": "🏰"
  },
  {
    "placeId": "rambouillet",
    "name": "Rambouillet",
    "nameIt": "Rambouillet",
    "type": "TOWN",
    "lat": 48.6317,
    "lng": 1.8247,
    "regionId": "hauts_de_france",
    "regionName": "Hauts-de-France",
    "regionEmoji": "🏰"
  },
  {
    "placeId": "toulouse",
    "name": "Toulouse",
    "nameIt": "Tolosa",
    "type": "CITY",
    "lat": 43.6047,
    "lng": 1.4442,
    "regionId": "occitanie",
    "regionName": "Occitania",
    "regionEmoji": "🏔️"
  },
  {
    "placeId": "carcassonne",
    "name": "Carcassonne",
    "nameIt": "Carcassona",
    "type": "TOWN",
    "lat": 43.2111,
    "lng": 2.3637,
    "regionId": "occitanie",
    "regionName": "Occitania",
    "regionEmoji": "🏔️"
  },
  {
    "placeId": "montpellier",
    "name": "Montpellier",
    "nameIt": "Montpelhièr",
    "type": "CITY",
    "lat": 43.6108,
    "lng": 3.8767,
    "regionId": "occitanie",
    "regionName": "Occitania",
    "regionEmoji": "🏔️"
  },
  {
    "placeId": "albi",
    "name": "Albi",
    "nameIt": "Albi",
    "type": "TOWN",
    "lat": 43.9273,
    "lng": 2.1439,
    "regionId": "occitanie",
    "regionName": "Occitania",
    "regionEmoji": "🏔️"
  },
  {
    "placeId": "peyrepertuse",
    "name": "Peyrepertuse",
    "nameIt": "Peyrepertusa",
    "type": "LANDMARK",
    "lat": 42.8686,
    "lng": 2.5511,
    "regionId": "occitanie",
    "regionName": "Occitania",
    "regionEmoji": "🏔️"
  },
  {
    "placeId": "beziers",
    "name": "Béziers",
    "nameIt": "Besièrs",
    "type": "CITY",
    "lat": 43.3441,
    "lng": 3.2181,
    "regionId": "occitanie",
    "regionName": "Occitania",
    "regionEmoji": "🏔️"
  },
  {
    "placeId": "pont_du_gard",
    "name": "Pont du Gard",
    "nameIt": "Pont du Gard",
    "type": "LANDMARK",
    "lat": 43.9476,
    "lng": 4.5341,
    "regionId": "occitanie",
    "regionName": "Occitania",
    "regionEmoji": "🏔️"
  },
  {
    "placeId": "nimes",
    "name": "Nîmes",
    "nameIt": "Nimes",
    "type": "CITY",
    "lat": 43.8345,
    "lng": 4.3601,
    "regionId": "occitanie",
    "regionName": "Occitania",
    "regionEmoji": "🏔️"
  },
  {
    "placeId": "sete",
    "name": "Sète",
    "nameIt": "Sèta",
    "type": "COASTAL",
    "lat": 43.3968,
    "lng": 3.6948,
    "regionId": "occitanie",
    "regionName": "Occitania",
    "regionEmoji": "🏔️"
  },
  {
    "placeId": "rocamadour",
    "name": "Rocamadour",
    "nameIt": "Rocamador",
    "type": "VILLAGE",
    "lat": 44.8061,
    "lng": 1.6173,
    "regionId": "occitanie",
    "regionName": "Occitania",
    "regionEmoji": "🏔️"
  },
  {
    "placeId": "cordes_sur_ciel",
    "name": "Cordes-sur-Ciel",
    "nameIt": "Còrdas",
    "type": "VILLAGE",
    "lat": 44.0569,
    "lng": 1.9494,
    "regionId": "occitanie",
    "regionName": "Occitania",
    "regionEmoji": "🏔️"
  },
  {
    "placeId": "collioure",
    "name": "Collioure",
    "nameIt": "Cotlliure",
    "type": "COASTAL",
    "lat": 42.5137,
    "lng": 3.081,
    "regionId": "occitanie",
    "regionName": "Occitania",
    "regionEmoji": "🏔️"
  },
  {
    "placeId": "avignon",
    "name": "Avignon",
    "nameIt": "Avinhon",
    "type": "CITY",
    "lat": 43.9475,
    "lng": 4.8061,
    "regionId": "occitanie",
    "regionName": "Occitania",
    "regionEmoji": "🏔️"
  },
  {
    "placeId": "conques",
    "name": "Conques",
    "nameIt": "Conca",
    "type": "VILLAGE",
    "lat": 44.4165,
    "lng": 2.4348,
    "regionId": "occitanie",
    "regionName": "Occitania",
    "regionEmoji": "🏔️"
  },
  {
    "placeId": "cevennes",
    "name": "Cévennes",
    "nameIt": "Cevenas",
    "type": "NATURE",
    "lat": 44.0893,
    "lng": 3.7299,
    "regionId": "occitanie",
    "regionName": "Occitania",
    "regionEmoji": "🏔️"
  },
  {
    "placeId": "dijon",
    "name": "Dijon",
    "nameIt": "Dijon",
    "type": "CITY",
    "lat": 47.322,
    "lng": 5.0404,
    "regionId": "bourgogne_franche_comte",
    "regionName": "Burgundy-Franche-Comté",
    "regionEmoji": "🍇"
  },
  {
    "placeId": "beaune",
    "name": "Beaune",
    "nameIt": "Beaune",
    "type": "TOWN",
    "lat": 47.0255,
    "lng": 4.8369,
    "regionId": "bourgogne_franche_comte",
    "regionName": "Burgundy-Franche-Comté",
    "regionEmoji": "🍇"
  },
  {
    "placeId": "vezelay",
    "name": "Vézelay",
    "nameIt": "Vézelay",
    "type": "VILLAGE",
    "lat": 47.4667,
    "lng": 3.7479,
    "regionId": "bourgogne_franche_comte",
    "regionName": "Burgundy-Franche-Comté",
    "regionEmoji": "🍇"
  },
  {
    "placeId": "chablis",
    "name": "Chablis",
    "nameIt": "Chablis",
    "type": "TOWN",
    "lat": 47.8132,
    "lng": 3.5793,
    "regionId": "bourgogne_franche_comte",
    "regionName": "Burgundy-Franche-Comté",
    "regionEmoji": "🍇"
  },
  {
    "placeId": "auxerre",
    "name": "Auxerre",
    "nameIt": "Auxerre",
    "type": "CITY",
    "lat": 47.798,
    "lng": 3.5703,
    "regionId": "bourgogne_franche_comte",
    "regionName": "Burgundy-Franche-Comté",
    "regionEmoji": "🍇"
  },
  {
    "placeId": "pontarlier",
    "name": "Pontarlier",
    "nameIt": "Pontarlier",
    "type": "TOWN",
    "lat": 46.9047,
    "lng": 6.3515,
    "regionId": "bourgogne_franche_comte",
    "regionName": "Burgundy-Franche-Comté",
    "regionEmoji": "🍇"
  },
  {
    "placeId": "arc_et_senans",
    "name": "Arc-et-Senans",
    "nameIt": "Arc-et-Senans",
    "type": "LANDMARK",
    "lat": 46.745,
    "lng": 5.7732,
    "regionId": "bourgogne_franche_comte",
    "regionName": "Burgundy-Franche-Comté",
    "regionEmoji": "🍇"
  },
  {
    "placeId": "besancon",
    "name": "Besançon",
    "nameIt": "Besançon",
    "type": "CITY",
    "lat": 47.2397,
    "lng": 6.0271,
    "regionId": "bourgogne_franche_comte",
    "regionName": "Burgundy-Franche-Comté",
    "regionEmoji": "🍇"
  },
  {
    "placeId": "morvan",
    "name": "Morvan",
    "nameIt": "Morvan",
    "type": "NATURE",
    "lat": 47.15,
    "lng": 4,
    "regionId": "bourgogne_franche_comte",
    "regionName": "Burgundy-Franche-Comté",
    "regionEmoji": "🍇"
  },
  {
    "placeId": "flavigny_sur_ozerain",
    "name": "Flavigny-sur-Ozerain",
    "nameIt": "Flavigny-sur-Ozerain",
    "type": "VILLAGE",
    "lat": 47.5667,
    "lng": 4.3179,
    "regionId": "bourgogne_franche_comte",
    "regionName": "Burgundy-Franche-Comté",
    "regionEmoji": "🍇"
  },
  {
    "placeId": "gevrey_chambertin",
    "name": "Gevrey-Chambertin",
    "nameIt": "Gevrey-Chambertin",
    "type": "TOWN",
    "lat": 47.5232,
    "lng": 4.9132,
    "regionId": "bourgogne_franche_comte",
    "regionName": "Burgundy-Franche-Comté",
    "regionEmoji": "🍇"
  },
  {
    "placeId": "montbard",
    "name": "Montbard",
    "nameIt": "Montbard",
    "type": "TOWN",
    "lat": 47.6144,
    "lng": 4.3539,
    "regionId": "bourgogne_franche_comte",
    "regionName": "Burgundy-Franche-Comté",
    "regionEmoji": "🍇"
  },
  {
    "placeId": "ornans",
    "name": "Ornans",
    "nameIt": "Ornans",
    "type": "TOWN",
    "lat": 46.895,
    "lng": 6.1433,
    "regionId": "bourgogne_franche_comte",
    "regionName": "Burgundy-Franche-Comté",
    "regionEmoji": "🍇"
  },
  {
    "placeId": "nuits_saint_georges",
    "name": "Nuits-Saint-Georges",
    "nameIt": "Nuits-Saint-Georges",
    "type": "TOWN",
    "lat": 47.1347,
    "lng": 4.7709,
    "regionId": "bourgogne_franche_comte",
    "regionName": "Burgundy-Franche-Comté",
    "regionEmoji": "🍇"
  },
  {
    "placeId": "cascades_du_herisson",
    "name": "Cascades du Hérisson",
    "nameIt": "Cascades du Hérisson",
    "type": "NATURE",
    "lat": 46.4667,
    "lng": 5.7167,
    "regionId": "bourgogne_franche_comte",
    "regionName": "Burgundy-Franche-Comté",
    "regionEmoji": "🍇"
  },
  {
    "placeId": "chateau_chambord",
    "name": "Château de Chambord",
    "nameIt": "Château de Chambord",
    "type": "LANDMARK",
    "lat": 47.6161,
    "lng": 1.5173,
    "regionId": "centre_val_de_loire",
    "regionName": "Centre-Val de Loire",
    "regionEmoji": "🏛️"
  },
  {
    "placeId": "chateau_chenonceau",
    "name": "Château de Chenonceau",
    "nameIt": "Château de Chenonceau",
    "type": "LANDMARK",
    "lat": 47.3261,
    "lng": 1.0727,
    "regionId": "centre_val_de_loire",
    "regionName": "Centre-Val de Loire",
    "regionEmoji": "🏛️"
  },
  {
    "placeId": "blois",
    "name": "Blois",
    "nameIt": "Blois",
    "type": "CITY",
    "lat": 47.5989,
    "lng": 1.3333,
    "regionId": "centre_val_de_loire",
    "regionName": "Centre-Val de Loire",
    "regionEmoji": "🏛️"
  },
  {
    "placeId": "tours",
    "name": "Tours",
    "nameIt": "Tours",
    "type": "CITY",
    "lat": 47.3941,
    "lng": 0.6848,
    "regionId": "centre_val_de_loire",
    "regionName": "Centre-Val de Loire",
    "regionEmoji": "🏛️"
  },
  {
    "placeId": "chateau_amboise",
    "name": "Château d'Amboise",
    "nameIt": "Château d'Amboise",
    "type": "LANDMARK",
    "lat": 47.4091,
    "lng": 0.9858,
    "regionId": "centre_val_de_loire",
    "regionName": "Centre-Val de Loire",
    "regionEmoji": "🏛️"
  },
  {
    "placeId": "amboise",
    "name": "Amboise",
    "nameIt": "Amboise",
    "type": "TOWN",
    "lat": 47.4091,
    "lng": 0.9858,
    "regionId": "centre_val_de_loire",
    "regionName": "Centre-Val de Loire",
    "regionEmoji": "🏛️"
  },
  {
    "placeId": "chateau_villandry",
    "name": "Château de Villandry",
    "nameIt": "Château de Villandry",
    "type": "LANDMARK",
    "lat": 47.3559,
    "lng": 0.8652,
    "regionId": "centre_val_de_loire",
    "regionName": "Centre-Val de Loire",
    "regionEmoji": "🏛️"
  },
  {
    "placeId": "orleans",
    "name": "Orléans",
    "nameIt": "Orléans",
    "type": "CITY",
    "lat": 47.9029,
    "lng": 1.9094,
    "regionId": "centre_val_de_loire",
    "regionName": "Centre-Val de Loire",
    "regionEmoji": "🏛️"
  },
  {
    "placeId": "chateau_loches",
    "name": "Citadel of Loches",
    "nameIt": "Forteresse de Loches",
    "type": "LANDMARK",
    "lat": 47.1281,
    "lng": 0.9966,
    "regionId": "centre_val_de_loire",
    "regionName": "Centre-Val de Loire",
    "regionEmoji": "🏛️"
  },
  {
    "placeId": "montrichard",
    "name": "Montrichard",
    "nameIt": "Montrichard",
    "type": "TOWN",
    "lat": 47.3547,
    "lng": 1.1717,
    "regionId": "centre_val_de_loire",
    "regionName": "Centre-Val de Loire",
    "regionEmoji": "🏛️"
  },
  {
    "placeId": "chateau_azay",
    "name": "Château d'Azay-le-Rideau",
    "nameIt": "Château d'Azay-le-Rideau",
    "type": "LANDMARK",
    "lat": 47.2632,
    "lng": 0.7604,
    "regionId": "centre_val_de_loire",
    "regionName": "Centre-Val de Loire",
    "regionEmoji": "🏛️"
  },
  {
    "placeId": "loches",
    "name": "Loches",
    "nameIt": "Loches",
    "type": "TOWN",
    "lat": 47.1281,
    "lng": 0.9966,
    "regionId": "centre_val_de_loire",
    "regionName": "Centre-Val de Loire",
    "regionEmoji": "🏛️"
  },
  {
    "placeId": "chateau_langeais",
    "name": "Château de Langeais",
    "nameIt": "Château de Langeais",
    "type": "LANDMARK",
    "lat": 47.1418,
    "lng": 0.4119,
    "regionId": "centre_val_de_loire",
    "regionName": "Centre-Val de Loire",
    "regionEmoji": "🏛️"
  },
  {
    "placeId": "son_et_lumiere",
    "name": "Loire Valley Châteaux",
    "nameIt": "Châteaux de la Loire",
    "type": "NATURE",
    "lat": 47.5,
    "lng": 1,
    "regionId": "centre_val_de_loire",
    "regionName": "Centre-Val de Loire",
    "regionEmoji": "🏛️"
  },
  {
    "placeId": "nantes",
    "name": "Nantes",
    "nameIt": "Nantes",
    "type": "CITY",
    "lat": 47.2184,
    "lng": -1.5536,
    "regionId": "pays_de_la_loire",
    "regionName": "Pays de la Loire",
    "regionEmoji": "🌳"
  },
  {
    "placeId": "angers",
    "name": "Angers",
    "nameIt": "Angers",
    "type": "CITY",
    "lat": 47.4711,
    "lng": -0.5534,
    "regionId": "pays_de_la_loire",
    "regionName": "Pays de la Loire",
    "regionEmoji": "🌳"
  },
  {
    "placeId": "saint_nazaire",
    "name": "Saint-Nazaire",
    "nameIt": "Saint-Nazaire",
    "type": "COASTAL",
    "lat": 47.2734,
    "lng": -2.2048,
    "regionId": "pays_de_la_loire",
    "regionName": "Pays de la Loire",
    "regionEmoji": "🌳"
  },
  {
    "placeId": "guerande",
    "name": "Guérande",
    "nameIt": "Guérande",
    "type": "TOWN",
    "lat": 47.3157,
    "lng": -2.4291,
    "regionId": "pays_de_la_loire",
    "regionName": "Pays de la Loire",
    "regionEmoji": "🌳"
  },
  {
    "placeId": "la_baule",
    "name": "La Baule",
    "nameIt": "La Baule-Escoublac",
    "type": "COASTAL",
    "lat": 47.2897,
    "lng": -2.3901,
    "regionId": "pays_de_la_loire",
    "regionName": "Pays de la Loire",
    "regionEmoji": "🌳"
  },
  {
    "placeId": "le_mans",
    "name": "Le Mans",
    "nameIt": "Le Mans",
    "type": "CITY",
    "lat": 48.0061,
    "lng": 0.1987,
    "regionId": "pays_de_la_loire",
    "regionName": "Pays de la Loire",
    "regionEmoji": "🌳"
  },
  {
    "placeId": "amboise_loire",
    "name": "Amboise",
    "nameIt": "Amboise",
    "type": "TOWN",
    "lat": 47.4037,
    "lng": 0.9854,
    "regionId": "pays_de_la_loire",
    "regionName": "Pays de la Loire",
    "regionEmoji": "🌳"
  },
  {
    "placeId": "saumur",
    "name": "Saumur",
    "nameIt": "Saumur",
    "type": "TOWN",
    "lat": 47.26,
    "lng": -0.0847,
    "regionId": "pays_de_la_loire",
    "regionName": "Pays de la Loire",
    "regionEmoji": "🌳"
  },
  {
    "placeId": "ancenis",
    "name": "Ancenis",
    "nameIt": "Ancenis-Saint-Géréon",
    "type": "TOWN",
    "lat": 47.3702,
    "lng": -1.1703,
    "regionId": "pays_de_la_loire",
    "regionName": "Pays de la Loire",
    "regionEmoji": "🌳"
  },
  {
    "placeId": "mont_saint_michel_bay",
    "name": "Mont-Saint-Michel Bay",
    "nameIt": "Baie du Mont-Saint-Michel",
    "type": "NATURE",
    "lat": 48.6361,
    "lng": -1.5115,
    "regionId": "pays_de_la_loire",
    "regionName": "Pays de la Loire",
    "regionEmoji": "🌳"
  },
  {
    "placeId": "pornic",
    "name": "Pornic",
    "nameIt": "Pornic",
    "type": "COASTAL",
    "lat": 47.1183,
    "lng": -2.1045,
    "regionId": "pays_de_la_loire",
    "regionName": "Pays de la Loire",
    "regionEmoji": "🌳"
  },
  {
    "placeId": "champtoceaux",
    "name": "Champtoceaux",
    "nameIt": "Champtoceaux",
    "type": "TOWN",
    "lat": 47.3925,
    "lng": -1.2547,
    "regionId": "pays_de_la_loire",
    "regionName": "Pays de la Loire",
    "regionEmoji": "🌳"
  },
  {
    "placeId": "strasbourg",
    "name": "Strasbourg",
    "nameIt": "Strasbourg",
    "type": "CITY",
    "lat": 48.5734,
    "lng": 7.7521,
    "regionId": "grand_est",
    "regionName": "Grand East",
    "regionEmoji": "🍾"
  },
  {
    "placeId": "colmar",
    "name": "Colmar",
    "nameIt": "Colmar",
    "type": "CITY",
    "lat": 48.0795,
    "lng": 7.3597,
    "regionId": "grand_est",
    "regionName": "Grand East",
    "regionEmoji": "🍾"
  },
  {
    "placeId": "reims",
    "name": "Reims",
    "nameIt": "Reims",
    "type": "CITY",
    "lat": 49.2578,
    "lng": 4.0251,
    "regionId": "grand_est",
    "regionName": "Grand East",
    "regionEmoji": "🍾"
  },
  {
    "placeId": "metz",
    "name": "Metz",
    "nameIt": "Metz",
    "type": "CITY",
    "lat": 49.1193,
    "lng": 6.1757,
    "regionId": "grand_est",
    "regionName": "Grand East",
    "regionEmoji": "🍾"
  },
  {
    "placeId": "champagne_route",
    "name": "Champagne Route",
    "nameIt": "Route Touristique du Champagne",
    "type": "NATURE",
    "lat": 49,
    "lng": 4,
    "regionId": "grand_est",
    "regionName": "Grand East",
    "regionEmoji": "🍾"
  },
  {
    "placeId": "troyes",
    "name": "Troyes",
    "nameIt": "Troyes",
    "type": "CITY",
    "lat": 48.2966,
    "lng": 4.074,
    "regionId": "grand_est",
    "regionName": "Grand East",
    "regionEmoji": "🍾"
  },
  {
    "placeId": "alsatian_wine_villages",
    "name": "Alsatian Wine Villages",
    "nameIt": "Villages du Vin d'Alsace",
    "type": "VILLAGE",
    "lat": 48.1,
    "lng": 7.3,
    "regionId": "grand_est",
    "regionName": "Grand East",
    "regionEmoji": "🍾"
  },
  {
    "placeId": "epernay",
    "name": "Épernay",
    "nameIt": "Épernay",
    "type": "CITY",
    "lat": 49.0297,
    "lng": 3.9625,
    "regionId": "grand_est",
    "regionName": "Grand East",
    "regionEmoji": "🍾"
  },
  {
    "placeId": "verdun",
    "name": "Verdun",
    "nameIt": "Verdun",
    "type": "CITY",
    "lat": 49.1608,
    "lng": 5.3864,
    "regionId": "grand_est",
    "regionName": "Grand East",
    "regionEmoji": "🍾"
  },
  {
    "placeId": "strasbourg_christmas",
    "name": "Strasbourg Christmas Markets",
    "nameIt": "Marchés de Noël de Strasbourg",
    "type": "LANDMARK",
    "lat": 48.5734,
    "lng": 7.7521,
    "regionId": "grand_est",
    "regionName": "Grand East",
    "regionEmoji": "🍾"
  },
  {
    "placeId": "nancy",
    "name": "Nancy",
    "nameIt": "Nancy",
    "type": "CITY",
    "lat": 48.6921,
    "lng": 6.1844,
    "regionId": "grand_est",
    "regionName": "Grand East",
    "regionEmoji": "🍾"
  },
  {
    "placeId": "ardenne_nature",
    "name": "Ardenne Forest",
    "nameIt": "Forêt des Ardennes",
    "type": "NATURE",
    "lat": 49.6,
    "lng": 4.6,
    "regionId": "grand_est",
    "regionName": "Grand East",
    "regionEmoji": "🍾"
  },
  {
    "placeId": "sainte_odile",
    "name": "Mont Sainte-Odile",
    "nameIt": "Mont Sainte-Odile",
    "type": "LANDMARK",
    "lat": 48.3558,
    "lng": 7.4289,
    "regionId": "grand_est",
    "regionName": "Grand East",
    "regionEmoji": "🍾"
  },
  {
    "placeId": "vosges_mountains",
    "name": "Vosges Mountains",
    "nameIt": "Massif des Vosges",
    "type": "NATURE",
    "lat": 48.3,
    "lng": 6.9,
    "regionId": "grand_est",
    "regionName": "Grand East",
    "regionEmoji": "🍾"
  },
  {
    "placeId": "ajaccio",
    "name": "Ajaccio",
    "nameIt": "Ajacciu",
    "type": "CITY",
    "lat": 41.9276,
    "lng": 8.7387,
    "regionId": "corsica",
    "regionName": "Corsica",
    "regionEmoji": "🏝️"
  },
  {
    "placeId": "bonifacio",
    "name": "Bonifacio",
    "nameIt": "Bunifaziu",
    "type": "TOWN",
    "lat": 41.3847,
    "lng": 9.1586,
    "regionId": "corsica",
    "regionName": "Corsica",
    "regionEmoji": "🏝️"
  },
  {
    "placeId": "bastia",
    "name": "Bastia",
    "nameIt": "Bastia",
    "type": "CITY",
    "lat": 42.7032,
    "lng": 9.4592,
    "regionId": "corsica",
    "regionName": "Corsica",
    "regionEmoji": "🏝️"
  },
  {
    "placeId": "calvi",
    "name": "Calvi",
    "nameIt": "Calvi",
    "type": "COASTAL",
    "lat": 42.5628,
    "lng": 8.7592,
    "regionId": "corsica",
    "regionName": "Corsica",
    "regionEmoji": "🏝️"
  },
  {
    "placeId": "porto_vecchio",
    "name": "Porto-Vecchio",
    "nameIt": "Portu Vechju",
    "type": "COASTAL",
    "lat": 41.5862,
    "lng": 9.2764,
    "regionId": "corsica",
    "regionName": "Corsica",
    "regionEmoji": "🏝️"
  },
  {
    "placeId": "scandola_nature_reserve",
    "name": "Scandola Nature Reserve",
    "nameIt": "Réserve Naturelle de Scandola",
    "type": "NATURE",
    "lat": 42.3156,
    "lng": 8.5394,
    "regionId": "corsica",
    "regionName": "Corsica",
    "regionEmoji": "🏝️"
  },
  {
    "placeId": "corte",
    "name": "Corte",
    "nameIt": "Corti",
    "type": "TOWN",
    "lat": 42.3041,
    "lng": 9.1511,
    "regionId": "corsica",
    "regionName": "Corsica",
    "regionEmoji": "🏝️"
  },
  {
    "placeId": "lac_de_melo",
    "name": "Lac de Melo",
    "nameIt": "Lac de Melu",
    "type": "NATURE",
    "lat": 42.3667,
    "lng": 9.2167,
    "regionId": "corsica",
    "regionName": "Corsica",
    "regionEmoji": "🏝️"
  },
  {
    "placeId": "capo_rosso",
    "name": "Capo Rosso",
    "nameIt": "Capu Rossu",
    "type": "LANDMARK",
    "lat": 42.3947,
    "lng": 8.5447,
    "regionId": "corsica",
    "regionName": "Corsica",
    "regionEmoji": "🏝️"
  },
  {
    "placeId": "sartene",
    "name": "Sartène",
    "nameIt": "Sartè",
    "type": "TOWN",
    "lat": 41.6167,
    "lng": 9.0333,
    "regionId": "corsica",
    "regionName": "Corsica",
    "regionEmoji": "🏝️"
  },
  {
    "placeId": "tafoni_boulders",
    "name": "Tafoni Rock Formations",
    "nameIt": "Tafoni",
    "type": "NATURE",
    "lat": 42.0667,
    "lng": 8.9167,
    "regionId": "corsica",
    "regionName": "Corsica",
    "regionEmoji": "🏝️"
  },
  {
    "placeId": "galeria",
    "name": "Galéria",
    "nameIt": "Galéria",
    "type": "VILLAGE",
    "lat": 42.4166,
    "lng": 8.6333,
    "regionId": "corsica",
    "regionName": "Corsica",
    "regionEmoji": "🏝️"
  },
  {
    "placeId": "ile_rousse",
    "name": "Île-Rousse",
    "nameIt": "Île-Rousse",
    "type": "COASTAL",
    "lat": 42.6331,
    "lng": 8.9272,
    "regionId": "corsica",
    "regionName": "Corsica",
    "regionEmoji": "🏝️"
  }
]