[{"placeId":"palace_of_versailles","name":"Palace of Versailles","nameIt":"Château de Versailles","type":"LANDMARK","lat":48.8047,"lng":2.12,"regionId":"ile_de_france","regionName":"Île-de-France","regionEmoji":"🗼","image":"https://images.unsplash.com/photo-1549895058-36748fa6c6a7?ixid=M3w5NTU4NjF8MHwxfHNlYXJjaHwxfHxQYWxhY2UlMjBvZiUyMFZlcnNhaWxsZXMlMjBIYWxsJTIwb2YlMjBNaXJyb3JzfGVufDF8MHx8fDE3ODMzMzQwMzJ8MA&ixlib=rb-4.1.0&crop=entropy&cs=tinysrgb&fit=max&fm=jpg&q=80&w=1080"},{"placeId":"paris","name":"Paris","nameIt":"Paris","type":"CITY","lat":48.8566,"lng":2.3522,"regionId":"ile_de_france","regionName":"Île-de-France","regionEmoji":"🗼","image":"https://images.unsplash.com/photo-1502602898657-3e91760cbb34?ixid=M3w5NTU4NjF8MHwxfHNlYXJjaHwxfHxFaWZmZWwlMjBUb3dlciUyMFBhcmlzfGVufDF8MHx8fDE3ODMzMzQwMzN8MA&ixlib=rb-4.1.0&crop=entropy&cs=tinysrgb&fit=max&fm=jpg&q=80&w=1080"},{"placeId":"fontainebleau","name":"Fontainebleau","nameIt":"Fontainebleau","type":"TOWN","lat":48.3977,"lng":2.6965,"regionId":"ile_de_france","regionName":"Île-de-France","regionEmoji":"🗼","image":"https://images.unsplash.com/photo-1526816229784-65d5d54ac8bc?ixid=M3w5NTU4NjF8MHwxfHNlYXJjaHwxfHxDaCVDMyVBMnRlYXUlMjBkZSUyMEZvbnRhaW5lYmxlYXUlMjBwYWxhY2V8ZW58MXwwfHx8MTc4MzMzNDAzNnww&ixlib=rb-4.1.0&crop=entropy&cs=tinysrgb&fit=max&fm=jpg&q=80&w=1080"},{"placeId":"giverny","name":"Giverny","nameIt":"Giverny","type":"VILLAGE","lat":49.074,"lng":1.5495,"regionId":"ile_de_france","regionName":"Île-de-France","regionEmoji":"🗼","image":"https://images.unsplash.com/photo-1763491905762-66f2d0bf57ac?ixid=M3w5NTU4NjF8MHwxfHNlYXJjaHwxfHxNb25ldCUyN3MlMjBHYXJkZW4lMjBHaXZlcm55JTIwd2F0ZXIlMjBsaWxpZXN8ZW58MXwwfHx8MTc4MzMzNDAzOHww&ixlib=rb-4.1.0&crop=entropy&cs=tinysrgb&fit=max&fm=jpg&q=80&w=1080"},{"placeId":"chartres","name":"Chartres","nameIt":"Chartres","type":"CITY","lat":48.4471,"lng":1.4934,"regionId":"ile_de_france","regionName":"Île-de-France","regionEmoji":"🗼","image":"https://images.unsplash.com/photo-1635473171860-2cb787258994?ixid=M3w5NTU4NjF8MHwxfHNlYXJjaHwxfHxDaGFydHJlcyUyMENhdGhlZHJhbCUyMEdvdGhpY3xlbnwxfDB8fHwxNzgzMzM0MDQwfDA&ixlib=rb-4.1.0&crop=entropy&cs=tinysrgb&fit=max&fm=jpg&q=80&w=1080"},{"placeId":"saint_germain_en_laye","name":"Saint-Germain-en-Laye","nameIt":"Saint-Germain-en-Laye","type":"TOWN","lat":48.8958,"lng":2.0938,"regionId":"ile_de_france","regionName":"Île-de-France","regionEmoji":"🗼","image":"https://images.unsplash.com/photo-1549224174-8c0e61705985?ixid=M3w5NTU4NjF8MHwxfHNlYXJjaHwxfHxTYWludC1HZXJtYWluLWVuLUxheWUlMjBDaCVDMyVBMnRlYXV8ZW58MXwwfHx8MTc4MzMzNDA0Mnww&ixlib=rb-4.1.0&crop=entropy&cs=tinysrgb&fit=max&fm=jpg&q=80&w=1080"},{"placeId":"malmaison","name":"Malmaison","nameIt":"Malmaison","type":"TOWN","lat":48.8723,"lng":2.2868,"regionId":"ile_de_france","regionName":"Île-de-France","regionEmoji":"🗼","image":"https://images.unsplash.com/photo-1665748262970-6e8bf67f9f5f?ixid=M3w5NTU4NjF8MHwxfHNlYXJjaHwxfHxDaCVDMyVBMnRlYXUlMjBkZSUyME1hbG1haXNvbiUyME5hcG9sZW9ufGVufDF8MHx8fDE3ODMzMzQwNDV8MA&ixlib=rb-4.1.0&crop=entropy&cs=tinysrgb&fit=max&fm=jpg&q=80&w=1080"},{"placeId":"disneyland_paris","name":"Disneyland Paris","nameIt":"Disneyland Paris","type":"LANDMARK","lat":48.8723,"lng":2.7764,"regionId":"ile_de_france","regionName":"Île-de-France","regionEmoji":"🗼","image":"https://images.unsplash.com/photo-1690097232120-a59669ee0989?ixid=M3w5NTU4NjF8MHwxfHNlYXJjaHwxfHxEaXNuZXlsYW5kJTIwUGFyaXMlMjBDaW5kZXJlbGxhJTIwQ2FzdGxlfGVufDF8MHx8fDE3ODMzMzQwNDd8MA&ixlib=rb-4.1.0&crop=entropy&cs=tinysrgb&fit=max&fm=jpg&q=80&w=1080"},{"placeId":"rambouillet","name":"Rambouillet","nameIt":"Rambouillet","type":"TOWN","lat":48.6411,"lng":1.833,"regionId":"ile_de_france","regionName":"Île-de-France","regionEmoji":"🗼","image":"https://images.unsplash.com/photo-1710363554409-861f7fbaa959?ixid=M3w5NTU4NjF8MHwxfHNlYXJjaHwxfHxDaCVDMyVBMnRlYXUlMjBkZSUyMFJhbWJvdWlsbGV0fGVufDF8MHx8fDE3ODMzMzQwNDl8MA&ixlib=rb-4.1.0&crop=entropy&cs=tinysrgb&fit=max&fm=jpg&q=80&w=1080"},{"placeId":"monet_giverny_vernon","name":"Vernon","nameIt":"Vernon","type":"TOWN","lat":49.089,"lng":1.5534,"regionId":"ile_de_france","regionName":"Île-de-France","regionEmoji":"🗼","image":"https://images.unsplash.com/photo-1627410566847-738061cb6995?ixid=M3w5NTU4NjF8MHwxfHNlYXJjaHwxfHxWZXJub24lMjBTZWluZSUyMHJpdmVyJTIwdG93bnxlbnwxfDB8fHwxNzgzMzM0MDUyfDA&ixlib=rb-4.1.0&crop=entropy&cs=tinysrgb&fit=max&fm=jpg&q=80&w=1080"},{"placeId":"vaux_le_vicomte","name":"Vaux-le-Vicomte","nameIt":"Château de Vaux-le-Vicomte","type":"LANDMARK","lat":48.5583,"lng":2.5007,"regionId":"ile_de_france","regionName":"Île-de-France","regionEmoji":"🗼","image":"https://images.unsplash.com/photo-1526816229784-65d5d54ac8bc?ixid=M3w5NTU4NjF8MHwxfHNlYXJjaHwxfHxWYXV4LWxlLVZpY29tdGUlMjBDaCVDMyVBMnRlYXV8ZW58MXwwfHx8MTc4MzMzNDA1NHww&ixlib=rb-4.1.0&crop=entropy&cs=tinysrgb&fit=max&fm=jpg&q=80&w=1080"},{"placeId":"ecouen","name":"Écouen","nameIt":"Écouen","type":"TOWN","lat":48.9846,"lng":2.2897,"regionId":"ile_de_france","regionName":"Île-de-France","regionEmoji":"🗼","image":"https://images.unsplash.com/photo-1526816229784-65d5d54ac8bc?ixid=M3w5NTU4NjF8MHwxfHNlYXJjaHwxfHxDaCVDMyVBMnRlYXUlMjBkJTI3JUMzJTg5Y291ZW4lMjBSZW5haXNzYW5jZXxlbnwxfDB8fHwxNzgzMzM0MDU2fDA&ixlib=rb-4.1.0&crop=entropy&cs=tinysrgb&fit=max&fm=jpg&q=80&w=1080"},{"placeId":"brie_comte_robert","name":"Brie-Comte-Robert","nameIt":"Brie-Comte-Robert","type":"TOWN","lat":48.7513,"lng":2.6165,"regionId":"ile_de_france","regionName":"Île-de-France","regionEmoji":"🗼","image":"https://images.unsplash.com/photo-1514539079130-25950c84af65?ixid=M3w5NTU4NjF8MHwxfHNlYXJjaHwxfHxCcmllLUNvbXRlLVJvYmVydCUyMGNhc3RsZSUyMHJhbXBhcnRzfGVufDF8MHx8fDE3ODQwMjIyNDJ8MA&ixlib=rb-4.1.0&crop=entropy&cs=tinysrgb&fit=max&fm=jpg&q=80&w=1080"},{"placeId":"meaux","name":"Meaux","nameIt":"Meaux","type":"CITY","lat":48.9597,"lng":2.8764,"regionId":"ile_de_france","regionName":"Île-de-France","regionEmoji":"🗼","image":"https://images.unsplash.com/photo-1548449235-4799053966c3?ixid=M3w5NTU4NjF8MHwxfHNlYXJjaHwxfHxNZWF1eCUyMENhdGhlZHJhbHxlbnwxfDB8fHwxNzg0MDIyMjQ0fDA&ixlib=rb-4.1.0&crop=entropy&cs=tinysrgb&fit=max&fm=jpg&q=80&w=1080"},{"placeId":"eiffel_tower_paris","name":"Eiffel Tower","type":"MONUMENT","lat":48.8584,"lng":2.2945,"regionId":"ile_de_france","regionName":"Île-de-France","regionEmoji":"🗼","image":"https://images.unsplash.com/photo-1502602898657-3e91760cbb34?ixid=M3w5NTU4NjF8MHwxfHNlYXJjaHwxfHxFaWZmZWwlMjBUb3dlciUyMEZyYW5jZXxlbnwxfDB8fHwxNzg0MDIyMjQ2fDA&ixlib=rb-4.1.0&crop=entropy&cs=tinysrgb&fit=max&fm=jpg&q=80&w=1080"},{"placeId":"louvre_museum_paris","name":"Louvre Museum","type":"MONUMENT","lat":48.8606,"lng":2.3352,"regionId":"ile_de_france","regionName":"Île-de-France","regionEmoji":"🗼","image":"https://images.unsplash.com/photo-1587648415693-4a5362b2ce41?ixid=M3w5NTU4NjF8MHwxfHNlYXJjaHwxfHxMb3V2cmUlMjBNdXNldW0lMjBGcmFuY2V8ZW58MXwwfHx8MTc4NDAyMjI0OHww&ixlib=rb-4.1.0&crop=entropy&cs=tinysrgb&fit=max&fm=jpg&q=80&w=1080"},{"placeId":"notre_dame_cathedral_paris","name":"Notre-Dame Cathedral","type":"MONUMENT","lat":48.853,"lng":2.3499,"regionId":"ile_de_france","regionName":"Île-de-France","regionEmoji":"🗼","image":"https://images.unsplash.com/photo-1644603100283-5f29160acc51?ixid=M3w5NTU4NjF8MHwxfHNlYXJjaHwxfHxOb3RyZS1EYW1lJTIwQ2F0aGVkcmFsJTIwRnJhbmNlfGVufDF8MHx8fDE3ODQwMjIyNTB8MA&ixlib=rb-4.1.0&crop=entropy&cs=tinysrgb&fit=max&fm=jpg&q=80&w=1080"},{"placeId":"nice","name":"Nice","nameIt":"Nice","type":"COASTAL","lat":43.7102,"lng":7.262,"regionId":"provence_alpes_cote_azur","regionName":"Provence-Alpes-Côte d'Azur","regionEmoji":"🌊","image":"https://images.unsplash.com/photo-1649623130067-b043d3268d98?ixid=M3w5NTU4NjF8MHwxfHNlYXJjaHwxfHxOaWNlJTIwUHJvbWVuYWRlJTIwZGVzJTIwQW5nbGFpcyUyMHN1bnNldHxlbnwxfDB8fHwxNzgzMzM5MTQ3fDA&ixlib=rb-4.1.0&crop=entropy&cs=tinysrgb&fit=max&fm=jpg&q=80&w=1080"},{"placeId":"provence_lavender_fields","name":"Lavender Fields of Provence","nameIt":"Champs de Lavande de Provence","type":"NATURE","lat":43.95,"lng":5.75,"regionId":"provence_alpes_cote_azur","regionName":"Provence-Alpes-Côte d'Azur","regionEmoji":"🌊","image":"https://images.unsplash.com/photo-1499002238440-d264edd596ec?ixid=M3w5NTU4NjF8MHwxfHNlYXJjaHwxfHxQcm92ZW5jZSUyMGxhdmVuZGVyJTIwZmllbGRzJTIwcHVycGxlfGVufDF8MHx8fDE3ODMzMzkxNTB8MA&ixlib=rb-4.1.0&crop=entropy&cs=tinysrgb&fit=max&fm=jpg&q=80&w=1080"},{"placeId":"avignon","name":"Avignon","nameIt":"Avignon","type":"CITY","lat":43.9505,"lng":4.8055,"regionId":"provence_alpes_cote_azur","regionName":"Provence-Alpes-Côte d'Azur","regionEmoji":"🌊","image":"https://images.unsplash.com/photo-1748382431226-0a32384d8c3b?ixid=M3w5NTU4NjF8MHwxfHNlYXJjaHwxfHxBdmlnbm9uJTIwUGFsYWlzJTIwZGVzJTIwUGFwZXN8ZW58MXwwfHx8MTc4MzMzOTE1Mnww&ixlib=rb-4.1.0&crop=entropy&cs=tinysrgb&fit=max&fm=jpg&q=80&w=1080"},{"placeId":"cannes","name":"Cannes","nameIt":"Cannes","type":"COASTAL","lat":43.5528,"lng":7.0176,"regionId":"provence_alpes_cote_azur","regionName":"Provence-Alpes-Côte d'Azur","regionEmoji":"🌊"},{"placeId":"antibes","name":"Antibes","nameIt":"Antibes","type":"COASTAL","lat":43.548,"lng":7.123,"regionId":"provence_alpes_cote_azur","regionName":"Provence-Alpes-Côte d'Azur","regionEmoji":"🌊"},{"placeId":"mont_ventoux","name":"Mont Ventoux","nameIt":"Mont Ventoux","type":"NATURE","lat":44.1608,"lng":5.2678,"regionId":"provence_alpes_cote_azur","regionName":"Provence-Alpes-Côte d'Azur","regionEmoji":"🌊","image":"https://images.unsplash.com/photo-1629624927838-3b39b7fdd33c?ixid=M3w5NTU4NjF8MHwxfHNlYXJjaHwxfHxNb250JTIwVmVudG91eCUyMHN1bW1pdCUyMHNub3d5fGVufDF8MHx8fDE3ODMzMzkxNTd8MA&ixlib=rb-4.1.0&crop=entropy&cs=tinysrgb&fit=max&fm=jpg&q=80&w=1080"},{"placeId":"gorges_du_verdon","name":"Gorges du Verdon","nameIt":"Gorges du Verdon","type":"NATURE","lat":43.75,"lng":6.3333,"regionId":"provence_alpes_cote_azur","regionName":"Provence-Alpes-Côte d'Azur","regionEmoji":"🌊","image":"https://images.unsplash.com/photo-1666959085854-1a01225b04fb?ixid=M3w5NTU4NjF8MHwxfHNlYXJjaHwxfHxHb3JnZXMlMjBkdSUyMFZlcmRvbiUyMHR1cnF1b2lzZSUyMHJpdmVyfGVufDF8MHx8fDE3ODMzMzkxNTl8MA&ixlib=rb-4.1.0&crop=entropy&cs=tinysrgb&fit=max&fm=jpg&q=80&w=1080"},{"placeId":"aix_en_provence","name":"Aix-en-Provence","nameIt":"Aix-en-Provence","type":"CITY","lat":43.5298,"lng":5.4474,"regionId":"provence_alpes_cote_azur","regionName":"Provence-Alpes-Côte d'Azur","regionEmoji":"🌊"},{"placeId":"grasse","name":"Grasse","nameIt":"Grasse","type":"TOWN","lat":43.6597,"lng":6.627,"regionId":"provence_alpes_cote_azur","regionName":"Provence-Alpes-Côte d'Azur","regionEmoji":"🌊","image":"https://images.unsplash.com/photo-1533414765079-4bb015a31395?ixid=M3w5NTU4NjF8MHwxfHNlYXJjaHwxfHxHcmFzc2UlMjBwZXJmdW1lJTIwYm90dGxlc3xlbnwxfDB8fHwxNzgzMzM5MTYzfDA&ixlib=rb-4.1.0&crop=entropy&cs=tinysrgb&fit=max&fm=jpg&q=80&w=1080"},{"placeId":"isle_sur_la_sorgue","name":"Isle-sur-la-Sorgue","nameIt":"Isle-sur-la-Sorgue","type":"TOWN","lat":43.9166,"lng":5.0551,"regionId":"provence_alpes_cote_azur","regionName":"Provence-Alpes-Côte d'Azur","regionEmoji":"🌊","image":"https://images.unsplash.com/photo-1652598631616-3f5f4d2cfbd5?ixid=M3w5NTU4NjF8MHwxfHNlYXJjaHwxfHxJc2xlLXN1ci1sYS1Tb3JndWUlMjBhbnRpcXVlJTIwbWFya2V0fGVufDF8MHx8fDE3ODMzMzkxNjV8MA&ixlib=rb-4.1.0&crop=entropy&cs=tinysrgb&fit=max&fm=jpg&q=80&w=1080"},{"placeId":"hyeres","name":"Hyères","nameIt":"Hyères","type":"COASTAL","lat":43.119,"lng":6.1314,"regionId":"provence_alpes_cote_azur","regionName":"Provence-Alpes-Côte d'Azur","regionEmoji":"🌊","image":"https://images.unsplash.com/photo-1638393224989-f8cc9bef4132?ixid=M3w5NTU4NjF8MHwxfHNlYXJjaHwxfHxIeSVDMyVBOHJlcyUyMG1lZGlldmFsJTIwb2xkJTIwdG93bnxlbnwxfDB8fHwxNzgzMzM5MTY3fDA&ixlib=rb-4.1.0&crop=entropy&cs=tinysrgb&fit=max&fm=jpg&q=80&w=1080"},{"placeId":"roussillon","name":"Roussillon","nameIt":"Roussillon","type":"VILLAGE","lat":43.9238,"lng":5.2966,"regionId":"provence_alpes_cote_azur","regionName":"Provence-Alpes-Côte d'Azur","regionEmoji":"🌊","image":"https://images.unsplash.com/photo-1782202394617-6a8adcb8242a?ixid=M3w5NTU4NjF8MHwxfHNlYXJjaHwxfHxSb3Vzc2lsbG9uJTIwb2NocmUlMjB2aWxsYWdlJTIwcmVkJTIwYnVpbGRpbmdzfGVufDF8MHx8fDE3ODMzMzkxNzB8MA&ixlib=rb-4.1.0&crop=entropy&cs=tinysrgb&fit=max&fm=jpg&q=80&w=1080"},{"placeId":"montelimar","name":"Montélimar","nameIt":"Montélimar","type":"TOWN","lat":44.5622,"lng":4.7459,"regionId":"provence_alpes_cote_azur","regionName":"Provence-Alpes-Côte d'Azur","regionEmoji":"🌊","image":"https://images.unsplash.com/photo-1741775667428-f66ac848d5fd?ixid=M3w5NTU4NjF8MHwxfHNlYXJjaHwxfHxNb250JUMzJUE5bGltYXIlMjBub3VnYXQlMjBjYW5keXxlbnwxfDB8fHwxNzgzMzM5MTcyfDA&ixlib=rb-4.1.0&crop=entropy&cs=tinysrgb&fit=max&fm=jpg&q=80&w=1080"},{"placeId":"saint_paul_de_vence","name":"Saint-Paul-de-Vence","nameIt":"Saint-Paul-de-Vence","type":"VILLAGE","lat":43.6863,"lng":7.1104,"regionId":"provence_alpes_cote_azur","regionName":"Provence-Alpes-Côte d'Azur","regionEmoji":"🌊","image":"https://images.unsplash.com/photo-1469547919255-9638e94237e4?ixid=M3w5NTU4NjF8MHwxfHNlYXJjaHwxfHxTYWludC1QYXVsLWRlLVZlbmNlJTIwbWVkaWV2YWwlMjB2aWxsYWdlfGVufDF8MHx8fDE3ODMzMzkxNzV8MA&ixlib=rb-4.1.0&crop=entropy&cs=tinysrgb&fit=max&fm=jpg&q=80&w=1080"},{"placeId":"south_coast_french_riviera","name":"French Riviera","type":"SITE","lat":43.589,"lng":7.076,"regionId":"provence_alpes_cote_azur","regionName":"Provence-Alpes-Côte d'Azur","regionEmoji":"🌊","image":"https://images.unsplash.com/photo-1703152792682-a1fe5f3dedb4?ixid=M3w5NTU4NjF8MHwxfHNlYXJjaHwxfHxGcmVuY2glMjBSaXZpZXJhJTIwRnJhbmNlfGVufDF8MHx8fDE3ODQwMjIyNzh8MA&ixlib=rb-4.1.0&crop=entropy&cs=tinysrgb&fit=max&fm=jpg&q=80&w=1080"},{"placeId":"lyon","name":"Lyon","nameIt":"Lyon","type":"CITY","lat":45.764,"lng":4.8357,"regionId":"auvergne_rhone_alpes","regionName":"Auvergne-Rhône-Alpes","regionEmoji":"⛰️","image":"https://images.unsplash.com/photo-1677389931416-9832636048ff?ixid=M3w5NTU4NjF8MHwxfHNlYXJjaHwxfHxMeW9uJTIwRm91cnZpJUMzJUE4cmUlMjBCYXNpbGljYXxlbnwxfDB8fHwxNzgzMzM5MTg1fDA&ixlib=rb-4.1.0&crop=entropy&cs=tinysrgb&fit=max&fm=jpg&q=80&w=1080"},{"placeId":"mont_blanc","name":"Mont Blanc","nameIt":"Mont-Blanc","type":"LANDMARK","lat":45.8325,"lng":6.8652,"regionId":"auvergne_rhone_alpes","regionName":"Auvergne-Rhône-Alpes","regionEmoji":"⛰️","image":"https://images.unsplash.com/photo-1572491671313-e2bb1bf15e76?ixid=M3w5NTU4NjF8MHwxfHNlYXJjaHwxfHxNb250JTIwQmxhbmMlMjBBbHBzfGVufDF8MHx8fDE3ODMzMzkxODd8MA&ixlib=rb-4.1.0&crop=entropy&cs=tinysrgb&fit=max&fm=jpg&q=80&w=1080"},{"placeId":"annecy","name":"Annecy","nameIt":"Annecy","type":"TOWN","lat":45.8992,"lng":6.1294,"regionId":"auvergne_rhone_alpes","regionName":"Auvergne-Rhône-Alpes","regionEmoji":"⛰️","image":"https://images.unsplash.com/photo-1719262065576-0104febfddcd?ixid=M3w5NTU4NjF8MHwxfHNlYXJjaHwxfHxBbm5lY3klMjBMYWtlJTIwb2xkJTIwdG93bnxlbnwxfDB8fHwxNzgzMzM5MTg5fDA&ixlib=rb-4.1.0&crop=entropy&cs=tinysrgb&fit=max&fm=jpg&q=80&w=1080"},{"placeId":"clermont_ferrand","name":"Clermont-Ferrand","nameIt":"Clermont-Ferrand","type":"CITY","lat":45.7772,"lng":3.0862,"regionId":"auvergne_rhone_alpes","regionName":"Auvergne-Rhône-Alpes","regionEmoji":"⛰️"},{"placeId":"chamonix","name":"Chamonix","nameIt":"Chamonix-Mont-Blanc","type":"TOWN","lat":45.9237,"lng":6.8694,"regionId":"auvergne_rhone_alpes","regionName":"Auvergne-Rhône-Alpes","regionEmoji":"⛰️","image":"https://images.unsplash.com/photo-1599661520791-8aabee470d55?ixid=M3w5NTU4NjF8MHwxfHNlYXJjaHwxfHxDaGFtb25peCUyME1vbnQlMjBCbGFuY3xlbnwxfDB8fHwxNzgzMzM5MTkzfDA&ixlib=rb-4.1.0&crop=entropy&cs=tinysrgb&fit=max&fm=jpg&q=80&w=1080"},{"placeId":"puy_de_dome","name":"Puy de Dôme","nameIt":"Puy de Dôme","type":"LANDMARK","lat":45.7731,"lng":2.9658,"regionId":"auvergne_rhone_alpes","regionName":"Auvergne-Rhône-Alpes","regionEmoji":"⛰️"},{"placeId":"grenoble","name":"Grenoble","nameIt":"Grenoble","type":"CITY","lat":45.1885,"lng":5.7245,"regionId":"auvergne_rhone_alpes","regionName":"Auvergne-Rhône-Alpes","regionEmoji":"⛰️","image":"https://images.unsplash.com/photo-1676705175262-9974e261db8d?ixid=M3w5NTU4NjF8MHwxfHNlYXJjaHwxfHxHcmVub2JsZSUyMEJhc3RpbGxlJTIwQWxwc3xlbnwxfDB8fHwxNzgzMzM5MTk2fDA&ixlib=rb-4.1.0&crop=entropy&cs=tinysrgb&fit=max&fm=jpg&q=80&w=1080"},{"placeId":"le_puy_en_velay","name":"Le Puy-en-Velay","nameIt":"Le Puy-en-Velay","type":"TOWN","lat":45.0461,"lng":3.8884,"regionId":"auvergne_rhone_alpes","regionName":"Auvergne-Rhône-Alpes","regionEmoji":"⛰️"},{"placeId":"megeve","name":"Megève","nameIt":"Megève","type":"TOWN","lat":45.8658,"lng":6.6149,"regionId":"auvergne_rhone_alpes","regionName":"Auvergne-Rhône-Alpes","regionEmoji":"⛰️"},{"placeId":"vienne","name":"Vienne","nameIt":"Vienne","type":"TOWN","lat":45.5286,"lng":4.8752,"regionId":"auvergne_rhone_alpes","regionName":"Auvergne-Rhône-Alpes","regionEmoji":"⛰️","image":"https://images.unsplash.com/photo-1699177386103-a7bfadf2b341?ixid=M3w5NTU4NjF8MHwxfHNlYXJjaHwxfHxWaWVubmUlMjBSb21hbiUyMHJ1aW5zfGVufDF8MHx8fDE3ODMzMzkyMDB8MA&ixlib=rb-4.1.0&crop=entropy&cs=tinysrgb&fit=max&fm=jpg&q=80&w=1080"},{"placeId":"yvoire","name":"Yvoire","nameIt":"Yvoire","type":"VILLAGE","lat":46.3659,"lng":6.3709,"regionId":"auvergne_rhone_alpes","regionName":"Auvergne-Rhône-Alpes","regionEmoji":"⛰️","image":"https://images.unsplash.com/photo-1755252128673-631df735cf7b?ixid=M3w5NTU4NjF8MHwxfHNlYXJjaHwxfHxZdm9pcmUlMjBMYWtlJTIwR2VuZXZhJTIwbWVkaWV2YWx8ZW58MXwwfHx8MTc4MzMzOTIwM3ww&ixlib=rb-4.1.0&crop=entropy&cs=tinysrgb&fit=max&fm=jpg&q=80&w=1080"},{"placeId":"lyon_basilica_park","name":"Parc de la Tête d'Or","nameIt":"Parc de la Tête d'Or","type":"NATURE","lat":45.7756,"lng":4.8544,"regionId":"auvergne_rhone_alpes","regionName":"Auvergne-Rhône-Alpes","regionEmoji":"⛰️","image":"https://images.unsplash.com/photo-1672044790330-f18992f3dd45?ixid=M3w5NTU4NjF8MHwxfHNlYXJjaHwxfHxQYXJjJTIwVCVDMyVBQXRlJTIwZCUyN09yJTIwTGFrZSUyMEx5b258ZW58MXwwfHx8MTc4MzMzOTIwNXww&ixlib=rb-4.1.0&crop=entropy&cs=tinysrgb&fit=max&fm=jpg&q=80&w=1080"},{"placeId":"brioude","name":"Brioude","nameIt":"Brioude","type":"TOWN","lat":45.2964,"lng":3.3876,"regionId":"auvergne_rhone_alpes","regionName":"Auvergne-Rhône-Alpes","regionEmoji":"⛰️"},{"placeId":"bordeaux","name":"Bordeaux","nameIt":"Bordeaux","type":"CITY","lat":44.8378,"lng":-0.5792,"regionId":"nouvelle_aquitaine","regionName":"New Aquitaine","regionEmoji":"🍷","image":"https://images.unsplash.com/photo-1493564738392-d148cfbd6eda?ixid=M3w5NTU4NjF8MHwxfHNlYXJjaHwxfHxCb3JkZWF1eCUyMFBsYWNlJTIwZGUlMjBsYSUyMEJvdXJzZSUyMHdhdGVyJTIwbWlycm9yfGVufDF8MHx8fDE3ODMzMzkyMTl8MA&ixlib=rb-4.1.0&crop=entropy&cs=tinysrgb&fit=max&fm=jpg&q=80&w=1080"},{"placeId":"saint_emilion","name":"Saint-Émilion","nameIt":"Saint-Émilion","type":"TOWN","lat":44.8924,"lng":-0.1547,"regionId":"nouvelle_aquitaine","regionName":"New Aquitaine","regionEmoji":"🍷","image":"https://images.unsplash.com/photo-1559940650-a084c36483f3?ixid=M3w5NTU4NjF8MHwxfHNlYXJjaHwxfHxTYWludC0lQzMlODltaWxpb24lMjBtZWRpZXZhbCUyMHZpbGxhZ2UlMjB2aW5leWFyZHN8ZW58MXwwfHx8MTc4MzMzOTIyMXww&ixlib=rb-4.1.0&crop=entropy&cs=tinysrgb&fit=max&fm=jpg&q=80&w=1080"},{"placeId":"biarritz","name":"Biarritz","nameIt":"Biarritz","type":"COASTAL","lat":43.4805,"lng":-1.5597,"regionId":"nouvelle_aquitaine","regionName":"New Aquitaine","regionEmoji":"🍷","image":"https://images.unsplash.com/photo-1636480228885-144d728fc27a?ixid=M3w5NTU4NjF8MHwxfHNlYXJjaHwxfHxCaWFycml0eiUyMEdyYW5kJTIwUGxhZ2UlMjBiZWFjaHxlbnwxfDB8fHwxNzgzMzM5MjIzfDA&ixlib=rb-4.1.0&crop=entropy&cs=tinysrgb&fit=max&fm=jpg&q=80&w=1080"},{"placeId":"san_sebastian","name":"San Sebastián","nameIt":"Donostia","type":"CITY","lat":43.3183,"lng":-1.9758,"regionId":"nouvelle_aquitaine","regionName":"New Aquitaine","regionEmoji":"🍷","image":"https://images.unsplash.com/photo-1708165089709-072907b10638?ixid=M3w5NTU4NjF8MHwxfHNlYXJjaHwxfHxTYW4lMjBTZWJhc3RpJUMzJUExbiUyMENvbmNoYSUyMGJlYWNoJTIwRG9ub3N0aWF8ZW58MXwwfHx8MTc4MzMzOTIyNnww&ixlib=rb-4.1.0&crop=entropy&cs=tinysrgb&fit=max&fm=jpg&q=80&w=1080"},{"placeId":"bayonne","name":"Bayonne","nameIt":"Baiona","type":"CITY","lat":43.4895,"lng":-1.4743,"regionId":"nouvelle_aquitaine","regionName":"New Aquitaine","regionEmoji":"🍷","image":"https://images.unsplash.com/photo-1779747697431-5c33f28b4250?ixid=M3w5NTU4NjF8MHwxfHNlYXJjaHwxfHxCYXlvbm5lJTIwQmFzcXVlJTIwb2xkJTIwdG93biUyMGNhdGhlZHJhbHxlbnwxfDB8fHwxNzgzMzM5MjI4fDA&ixlib=rb-4.1.0&crop=entropy&cs=tinysrgb&fit=max&fm=jpg&q=80&w=1080"},{"placeId":"la_rochelle","name":"La Rochelle","nameIt":"La Rochelle","type":"COASTAL","lat":46.1591,"lng":-1.1541,"regionId":"nouvelle_aquitaine","regionName":"New Aquitaine","regionEmoji":"🍷","image":"https://images.unsplash.com/photo-1617111641010-39cc2d207f4b?ixid=M3w5NTU4NjF8MHwxfHNlYXJjaHwxfHxMYSUyMFJvY2hlbGxlJTIwdG93ZXJzJTIwaGFyYm9yfGVufDF8MHx8fDE3ODMzMzkyMzB8MA&ixlib=rb-4.1.0&crop=entropy&cs=tinysrgb&fit=max&fm=jpg&q=80&w=1080"},{"placeId":"royan","name":"Royan","nameIt":"Royan","type":"COASTAL","lat":45.6347,"lng":-1.0283,"regionId":"nouvelle_aquitaine","regionName":"New Aquitaine","regionEmoji":"🍷","image":"https://images.unsplash.com/photo-1560367478-d3ee81274ba5?ixid=M3w5NTU4NjF8MHwxfHNlYXJjaHwxfHxSb3lhbiUyMGJlYWNoJTIwRnJhbmNlfGVufDF8MHx8fDE3ODMzMzkyMzN8MA&ixlib=rb-4.1.0&crop=entropy&cs=tinysrgb&fit=max&fm=jpg&q=80&w=1080"},{"placeId":"poitiers","name":"Poitiers","nameIt":"Poitiers","type":"CITY","lat":46.5801,"lng":0.3405,"regionId":"nouvelle_aquitaine","regionName":"New Aquitaine","regionEmoji":"🍷","image":"https://images.unsplash.com/photo-1644603100283-5f29160acc51?ixid=M3w5NTU4NjF8MHwxfHNlYXJjaHwxfHxQb2l0aWVycyUyME5vdHJlLURhbWUtbGEtR3JhbmRlJTIwY2h1cmNofGVufDF8MHx8fDE3ODMzMzkyMzZ8MA&ixlib=rb-4.1.0&crop=entropy&cs=tinysrgb&fit=max&fm=jpg&q=80&w=1080"},{"placeId":"cognac","name":"Cognac","nameIt":"Cognac","type":"TOWN","lat":45.6933,"lng":-0.3225,"regionId":"nouvelle_aquitaine","regionName":"New Aquitaine","regionEmoji":"🍷","image":"https://images.unsplash.com/photo-1669711517630-7596bfc47351?ixid=M3w5NTU4NjF8MHwxfHNlYXJjaHwxfHxDb2duYWMlMjBkaXN0aWxsZXJ5JTIwQ2hhcmVudGV8ZW58MXwwfHx8MTc4MzMzOTIzOHww&ixlib=rb-4.1.0&crop=entropy&cs=tinysrgb&fit=max&fm=jpg&q=80&w=1080"},{"placeId":"angouleme","name":"Angoulême","nameIt":"Angoulême","type":"CITY","lat":45.6484,"lng":-0.1604,"regionId":"nouvelle_aquitaine","regionName":"New Aquitaine","regionEmoji":"🍷"},{"placeId":"ile_de_re","name":"Île de Ré","nameIt":"Île de Ré","type":"ISLAND","lat":46.2344,"lng":-1.5469,"regionId":"nouvelle_aquitaine","regionName":"New Aquitaine","regionEmoji":"🍷"},{"placeId":"pauillac","name":"Pauillac","nameIt":"Pauillac","type":"TOWN","lat":45.1909,"lng":-0.7575,"regionId":"nouvelle_aquitaine","regionName":"New Aquitaine","regionEmoji":"🍷"},{"placeId":"arcachon","name":"Arcachon","nameIt":"Arcachon","type":"COASTAL","lat":44.6667,"lng":-1.1667,"regionId":"nouvelle_aquitaine","regionName":"New Aquitaine","regionEmoji":"🍷","image":"https://images.unsplash.com/photo-1589967127698-03987ca17cb0?ixid=M3w5NTU4NjF8MHwxfHNlYXJjaHwxfHxBcmNhY2hvbiUyMEJheSUyMG95c3RlcnN8ZW58MXwwfHx8MTc4MzMzOTI0NHww&ixlib=rb-4.1.0&crop=entropy&cs=tinysrgb&fit=max&fm=jpg&q=80&w=1080"},{"placeId":"rocamadour","name":"Rocamadour","nameIt":"Rocamadour","type":"VILLAGE","lat":44.7956,"lng":1.6187,"regionId":"nouvelle_aquitaine","regionName":"New Aquitaine","regionEmoji":"🍷","image":"https://images.unsplash.com/photo-1675369124788-821c14c533ec?ixid=M3w5NTU4NjF8MHwxfHNlYXJjaHwxfHxSb2NhbWFkb3VyJTIwY2xpZmZzaWRlJTIwc2FuY3R1YXJ5fGVufDF8MHx8fDE3ODMzMzkyNDh8MA&ixlib=rb-4.1.0&crop=entropy&cs=tinysrgb&fit=max&fm=jpg&q=80&w=1080"},{"placeId":"mont_saint_michel","name":"Mont-Saint-Michel","nameIt":"Mont-Saint-Michel","type":"LANDMARK","lat":48.6361,"lng":-1.5115,"regionId":"bretagne","regionName":"Brittany","regionEmoji":"⛵","image":"https://images.unsplash.com/photo-1577716906973-7e1aa2fd3d15?ixid=M3w5NTU4NjF8MHwxfHNlYXJjaHwxfHxNb250LVNhaW50LU1pY2hlbCUyMGFiYmV5JTIwaXNsYW5kfGVufDF8MHx8fDE3ODMzMzkyNTl8MA&ixlib=rb-4.1.0&crop=entropy&cs=tinysrgb&fit=max&fm=jpg&q=80&w=1080"},{"placeId":"saint_malo","name":"Saint-Malo","nameIt":"Sant-Maloù","type":"COASTAL","lat":48.6495,"lng":-2.0268,"regionId":"bretagne","regionName":"Brittany","regionEmoji":"⛵","image":"https://images.unsplash.com/photo-1685391874936-0d74501bdfe1?ixid=M3w5NTU4NjF8MHwxfHNlYXJjaHwxfHxTYWludC1NYWxvJTIwd2FsbGVkJTIwY2l0eSUyMHJhbXBhcnRzfGVufDF8MHx8fDE3ODMzMzkyNjF8MA&ixlib=rb-4.1.0&crop=entropy&cs=tinysrgb&fit=max&fm=jpg&q=80&w=1080"},{"placeId":"quimper","name":"Quimper","nameIt":"Kemper","type":"CITY","lat":47.9969,"lng":-4.0977,"regionId":"bretagne","regionName":"Brittany","regionEmoji":"⛵"},{"placeId":"belle_ile","name":"Belle-Île","nameIt":"Enez-Gwaz","type":"ISLAND","lat":47.3042,"lng":-3.2681,"regionId":"bretagne","regionName":"Brittany","regionEmoji":"⛵","image":"https://images.unsplash.com/photo-1730233460082-f10672a5d9e0?ixid=M3w5NTU4NjF8MHwxfHNlYXJjaHwxfHxCZWxsZS0lQzMlOEVsZSUyMGlzbGFuZCUyMGNsaWZmcyUyMEJyaXR0YW55fGVufDF8MHx8fDE3ODMzMzkyNjV8MA&ixlib=rb-4.1.0&crop=entropy&cs=tinysrgb&fit=max&fm=jpg&q=80&w=1080"},{"placeId":"carnac","name":"Carnac","nameIt":"Karnag","type":"COASTAL","lat":47.5884,"lng":-3.0714,"regionId":"bretagne","regionName":"Brittany","regionEmoji":"⛵","image":"https://images.unsplash.com/photo-1684251328964-f7ddc6bfe23c?ixid=M3w5NTU4NjF8MHwxfHNlYXJjaHwxfHxDYXJuYWMlMjBtZW5oaXIlMjBzdGFuZGluZyUyMHN0b25lc3xlbnwxfDB8fHwxNzgzMzM5MjY3fDA&ixlib=rb-4.1.0&crop=entropy&cs=tinysrgb&fit=max&fm=jpg&q=80&w=1080"},{"placeId":"dinan","name":"Dinan","nameIt":"Dinann","type":"TOWN","lat":48.4565,"lng":-2.0456,"regionId":"bretagne","regionName":"Brittany","regionEmoji":"⛵","image":"https://images.unsplash.com/photo-1473951574080-01fe45ec8643?ixid=M3w5NTU4NjF8MHwxfHNlYXJjaHwxfHxEaW5hbiUyMG1lZGlldmFsJTIwdG93biUyMHJhbXBhcnRzfGVufDF8MHx8fDE3ODMzMzkyNjl8MA&ixlib=rb-4.1.0&crop=entropy&cs=tinysrgb&fit=max&fm=jpg&q=80&w=1080"},{"placeId":"concarneau","name":"Concarneau","nameIt":"Konkarnoe","type":"COASTAL","lat":47.8727,"lng":-3.9197,"regionId":"bretagne","regionName":"Brittany","regionEmoji":"⛵"},{"placeId":"vannes","name":"Vannes","nameIt":"Gwened","type":"CITY","lat":47.6426,"lng":-2.7597,"regionId":"bretagne","regionName":"Brittany","regionEmoji":"⛵","image":"https://images.unsplash.com/photo-1759314668416-2f46979f7438?ixid=M3w5NTU4NjF8MHwxfHNlYXJjaHwxfHxWYW5uZXMlMjByYW1wYXJ0cyUyMG1lZGlldmFsJTIwY2l0eXxlbnwxfDB8fHwxNzgzMzM5MjczfDA&ixlib=rb-4.1.0&crop=entropy&cs=tinysrgb&fit=max&fm=jpg&q=80&w=1080"},{"placeId":"morlaix","name":"Morlaix","nameIt":"Montroulez","type":"TOWN","lat":48.5759,"lng":-3.8291,"regionId":"bretagne","regionName":"Brittany","regionEmoji":"⛵","image":"https://images.unsplash.com/photo-1623612038103-d3193c65ee0a?ixid=M3w5NTU4NjF8MHwxfHNlYXJjaHwxfHxNb3JsYWl4JTIwdmlhZHVjdCUyMEJyaXR0YW55fGVufDF8MHx8fDE3ODMzMzkyNzV8MA&ixlib=rb-4.1.0&crop=entropy&cs=tinysrgb&fit=max&fm=jpg&q=80&w=1080"},{"placeId":"locronan","name":"Locronan","nameIt":"Lokronan","type":"VILLAGE","lat":48.0747,"lng":-4.2152,"regionId":"bretagne","regionName":"Brittany","regionEmoji":"⛵"},{"placeId":"groix","name":"Groix Island","nameIt":"Enez-Groe","type":"ISLAND","lat":47.6485,"lng":-3.4544,"regionId":"bretagne","regionName":"Brittany","regionEmoji":"⛵","image":"https://images.unsplash.com/photo-1730233460082-f10672a5d9e0?ixid=M3w5NTU4NjF8MHwxfHNlYXJjaHwxfHxHcm9peCUyMGlzbGFuZCUyMGNsaWZmcyUyMEJyaXR0YW55fGVufDF8MHx8fDE3ODMzMzkyNzl8MA&ixlib=rb-4.1.0&crop=entropy&cs=tinysrgb&fit=max&fm=jpg&q=80&w=1080"},{"placeId":"pointe_du_raz","name":"Pointe du Raz","nameIt":"Penn ar Razi","type":"NATURE","lat":48.0275,"lng":-4.7297,"regionId":"bretagne","regionName":"Brittany","regionEmoji":"⛵","image":"https://images.unsplash.com/photo-1513608827986-eb374a75fa5e?ixid=M3w5NTU4NjF8MHwxfHNlYXJjaHwxfHxQb2ludGUlMjBkdSUyMFJheiUyMGNsaWZmcyUyMGxpZ2h0aG91c2V8ZW58MXwwfHx8MTc4MzMzOTI4MXww&ixlib=rb-4.1.0&crop=entropy&cs=tinysrgb&fit=max&fm=jpg&q=80&w=1080"},{"placeId":"rennes","name":"Rennes","nameIt":"Roazhon","type":"CITY","lat":48.1113,"lng":-1.68,"regionId":"bretagne","regionName":"Brittany","regionEmoji":"⛵"},{"placeId":"hennebont","name":"Hennebont","nameIt":"Henbont","type":"TOWN","lat":47.8038,"lng":-3.2789,"regionId":"bretagne","regionName":"Brittany","regionEmoji":"⛵","image":"https://images.unsplash.com/photo-1781035973273-b9a09da320f8?ixid=M3w5NTU4NjF8MHwxfHNlYXJjaHwxfHxIZW5uZWJvbnQlMjByYW1wYXJ0cyUyMG1lZGlldmFsJTIwdG93bnxlbnwxfDB8fHwxNzgzMzM5Mjg1fDA&ixlib=rb-4.1.0&crop=entropy&cs=tinysrgb&fit=max&fm=jpg&q=80&w=1080"},{"placeId":"d_day_beaches","name":"D-Day Beaches","nameIt":"Plages du Débarquement","type":"COASTAL","lat":49.355,"lng":-0.3136,"regionId":"normandie","regionName":"Normandy","regionEmoji":"🏖️","image":"https://images.unsplash.com/photo-1668090492885-1d647172b124?ixid=M3w5NTU4NjF8MHwxfHNlYXJjaHwxfHxELURheSUyMGJlYWNoZXMlMjBOb3JtYW5keXxlbnwxfDB8fHwxNzgzMzM5Mjk2fDA&ixlib=rb-4.1.0&crop=entropy&cs=tinysrgb&fit=max&fm=jpg&q=80&w=1080"},{"placeId":"rouen","name":"Rouen","nameIt":"Rouen","type":"CITY","lat":49.4432,"lng":1.0993,"regionId":"normandie","regionName":"Normandy","regionEmoji":"🏖️","image":"https://images.unsplash.com/photo-1761818101488-2eea702d79ee?ixid=M3w5NTU4NjF8MHwxfHNlYXJjaHwxfHxSb3VlbiUyMENhdGhlZHJhbCUyMEdvdGhpY3xlbnwxfDB8fHwxNzgzMzM5Mjk4fDA&ixlib=rb-4.1.0&crop=entropy&cs=tinysrgb&fit=max&fm=jpg&q=80&w=1080"},{"placeId":"honfleur","name":"Honfleur","nameIt":"Honfleur","type":"COASTAL","lat":49.4149,"lng":0.2314,"regionId":"normandie","regionName":"Normandy","regionEmoji":"🏖️","image":"https://images.unsplash.com/photo-1659640861468-5a2308c31ddf?ixid=M3w5NTU4NjF8MHwxfHNlYXJjaHwxfHxIb25mbGV1ciUyMGhhcmJvciUyMHBvcnQlMjBGcmFuY2V8ZW58MXwwfHx8MTc4MzMzOTMwMHww&ixlib=rb-4.1.0&crop=entropy&cs=tinysrgb&fit=max&fm=jpg&q=80&w=1080"},{"placeId":"bayeux","name":"Bayeux","nameIt":"Bayeux","type":"TOWN","lat":49.2806,"lng":-0.6992,"regionId":"normandie","regionName":"Normandy","regionEmoji":"🏖️"},{"placeId":"etretat","name":"Étretat","nameIt":"Étretat","type":"COASTAL","lat":49.7065,"lng":0.2047,"regionId":"normandie","regionName":"Normandy","regionEmoji":"🏖️","image":"https://images.unsplash.com/photo-1778445765709-7572b301ec5e?ixid=M3w5NTU4NjF8MHwxfHNlYXJjaHwxfHwlQzMlODl0cmV0YXQlMjBjbGlmZnMlMjBhcmNoZXN8ZW58MXwwfHx8MTc4MzMzOTMwNHww&ixlib=rb-4.1.0&crop=entropy&cs=tinysrgb&fit=max&fm=jpg&q=80&w=1080"},{"placeId":"dieppe","name":"Dieppe","nameIt":"Dieppe","type":"COASTAL","lat":49.9271,"lng":1.0758,"regionId":"normandie","regionName":"Normandy","regionEmoji":"🏖️"},{"placeId":"caen","name":"Caen","nameIt":"Caen","type":"CITY","lat":49.1829,"lng":-0.3707,"regionId":"normandie","regionName":"Normandy","regionEmoji":"🏖️"},{"placeId":"deauville","name":"Deauville","nameIt":"Deauville","type":"COASTAL","lat":49.3495,"lng":0.1383,"regionId":"normandie","regionName":"Normandy","regionEmoji":"🏖️"},{"placeId":"trouville","name":"Trouville-sur-Mer","nameIt":"Trouville-sur-Mer","type":"COASTAL","lat":49.3607,"lng":0.0988,"regionId":"normandie","regionName":"Normandy","regionEmoji":"🏖️","image":"https://images.unsplash.com/photo-1693753880087-c89c78c0b16d?ixid=M3w5NTU4NjF8MHwxfHNlYXJjaHwxfHxUcm91dmlsbGUtc3VyLU1lciUyMGJlYWNoJTIwaGFyYm9yfGVufDF8MHx8fDE3ODMzMzkzMDl8MA&ixlib=rb-4.1.0&crop=entropy&cs=tinysrgb&fit=max&fm=jpg&q=80&w=1080"},{"placeId":"pont_audemer","name":"Pont-Audemer","nameIt":"Pont-Audemer","type":"TOWN","lat":49.3673,"lng":0.5061,"regionId":"normandie","regionName":"Normandy","regionEmoji":"🏖️","image":"https://images.unsplash.com/photo-1612260290217-dd6d7375a283?ixid=M3w5NTU4NjF8MHwxfHNlYXJjaHwxfHxQb250LUF1ZGVtZXIlMjBicmlkZ2VzJTIwbWVkaWV2YWx8ZW58MXwwfHx8MTc4MzMzOTMxNHww&ixlib=rb-4.1.0&crop=entropy&cs=tinysrgb&fit=max&fm=jpg&q=80&w=1080"},{"placeId":"verneuil_avre","name":"Verneuil-sur-Avre","nameIt":"Verneuil-sur-Avre","type":"TOWN","lat":48.7368,"lng":0.9574,"regionId":"normandie","regionName":"Normandy","regionEmoji":"🏖️","image":"https://images.unsplash.com/photo-1623009051873-d60f8fa6da1a?ixid=M3w5NTU4NjF8MHwxfHNlYXJjaHwxfHxWZXJuZXVpbC1zdXItQXZyZSUyMHRvd2VyfGVufDF8MHx8fDE3ODMzMzkzMTd8MA&ixlib=rb-4.1.0&crop=entropy&cs=tinysrgb&fit=max&fm=jpg&q=80&w=1080"},{"placeId":"sees","name":"Séez","nameIt":"Séez","type":"TOWN","lat":48.5658,"lng":0.1964,"regionId":"normandie","regionName":"Normandy","regionEmoji":"🏖️","image":"https://images.unsplash.com/photo-1643447727844-1e2e31544237?ixid=M3w5NTU4NjF8MHwxfHNlYXJjaHwxfHxTJUMzJUE5ZXolMjBDYXRoZWRyYWwlMjBHb3RoaWN8ZW58MXwwfHx8MTc4MzMzOTMxOXww&ixlib=rb-4.1.0&crop=entropy&cs=tinysrgb&fit=max&fm=jpg&q=80&w=1080"},{"placeId":"coutances","name":"Coutances","nameIt":"Coutances","type":"TOWN","lat":49.0396,"lng":-1.4439,"regionId":"normandie","regionName":"Normandy","regionEmoji":"🏖️","image":"https://images.unsplash.com/photo-1745183698367-544097498354?ixid=M3w5NTU4NjF8MHwxfHNlYXJjaHwxfHxDb3V0YW5jZXMlMjBDYXRoZWRyYWwlMjB0d2luJTIwc3BpcmVzfGVufDF8MHx8fDE3ODMzMzkzMjJ8MA&ixlib=rb-4.1.0&crop=entropy&cs=tinysrgb&fit=max&fm=jpg&q=80&w=1080"},{"placeId":"lille","name":"Lille","nameIt":"Lille","type":"CITY","lat":50.6292,"lng":3.0573,"regionId":"hauts_de_france","regionName":"Hauts-de-France","regionEmoji":"🏰","image":"https://images.unsplash.com/photo-1764671708519-447591cd8179?ixid=M3w5NTU4NjF8MHwxfHNlYXJjaHwxfHxMaWxsZSUyMEdyYW5kJTIwUGxhY2UlMjBhcmNoaXRlY3R1cmV8ZW58MXwwfHx8MTc4MzMzOTMzNHww&ixlib=rb-4.1.0&crop=entropy&cs=tinysrgb&fit=max&fm=jpg&q=80&w=1080"},{"placeId":"amiens","name":"Amiens","nameIt":"Amiens","type":"CITY","lat":49.8941,"lng":2.2959,"regionId":"hauts_de_france","regionName":"Hauts-de-France","regionEmoji":"🏰","image":"https://images.unsplash.com/photo-1755504037483-d8f8d4bef647?ixid=M3w5NTU4NjF8MHwxfHNlYXJjaHwxfHxBbWllbnMlMjBDYXRoZWRyYWwlMjBHb3RoaWN8ZW58MXwwfHx8MTc4MzMzOTMzNnww&ixlib=rb-4.1.0&crop=entropy&cs=tinysrgb&fit=max&fm=jpg&q=80&w=1080"},{"placeId":"arras","name":"Arras","nameIt":"Arras","type":"CITY","lat":50.2895,"lng":2.7735,"regionId":"hauts_de_france","regionName":"Hauts-de-France","regionEmoji":"🏰"},{"placeId":"boulogne_sur_mer","name":"Boulogne-sur-Mer","nameIt":"Boulogne-sur-Mer","type":"COASTAL","lat":50.726,"lng":1.6094,"regionId":"hauts_de_france","regionName":"Hauts-de-France","regionEmoji":"🏰","image":"https://images.unsplash.com/photo-1727945573019-91104128f0b1?ixid=M3w5NTU4NjF8MHwxfHNlYXJjaHwxfHxCb3Vsb2duZS1zdXItTWVyJTIwaGFyYm9yfGVufDF8MHx8fDE3ODMzMzkzNDB8MA&ixlib=rb-4.1.0&crop=entropy&cs=tinysrgb&fit=max&fm=jpg&q=80&w=1080"},{"placeId":"white_cliffs_deux_caps","name":"White Cliffs of Deux-Caps","nameIt":"Falaises des Deux-Caps","type":"COASTAL","lat":50.8558,"lng":1.5547,"regionId":"hauts_de_france","regionName":"Hauts-de-France","regionEmoji":"🏰","image":"https://images.unsplash.com/photo-1684710160359-6fa6a38f71f9?ixid=M3w5NTU4NjF8MHwxfHNlYXJjaHwxfHxEZXV4LUNhcHMlMjB3aGl0ZSUyMGNsaWZmc3xlbnwxfDB8fHwxNzgzMzQzNDc0fDA&ixlib=rb-4.1.0&crop=entropy&cs=tinysrgb&fit=max&fm=jpg&q=80&w=1080"},{"placeId":"montreuil_sur_mer","name":"Montreuil-sur-Mer","nameIt":"Montreuil-sur-Mer","type":"TOWN","lat":50.4446,"lng":1.7394,"regionId":"hauts_de_france","regionName":"Hauts-de-France","regionEmoji":"🏰","image":"https://images.unsplash.com/photo-1679925288389-b889bf155ebf?ixid=M3w5NTU4NjF8MHwxfHNlYXJjaHwxfHxNb250cmV1aWwtc3VyLU1lciUyMHJhbXBhcnRzfGVufDF8MHx8fDE3ODMzNDM0Nzd8MA&ixlib=rb-4.1.0&crop=entropy&cs=tinysrgb&fit=max&fm=jpg&q=80&w=1080"},{"placeId":"saint_omer","name":"Saint-Omer","nameIt":"Saint-Omer","type":"TOWN","lat":50.7458,"lng":2.254,"regionId":"hauts_de_france","regionName":"Hauts-de-France","regionEmoji":"🏰"},{"placeId":"cambrai","name":"Cambrai","nameIt":"Cambrai","type":"TOWN","lat":50.1745,"lng":3.2367,"regionId":"hauts_de_france","regionName":"Hauts-de-France","regionEmoji":"🏰"},{"placeId":"compiegne","name":"Compiègne","nameIt":"Compiègne","type":"CITY","lat":49.4144,"lng":2.8261,"regionId":"hauts_de_france","regionName":"Hauts-de-France","regionEmoji":"🏰","image":"https://images.unsplash.com/photo-1716530507322-e676235110eb?ixid=M3w5NTU4NjF8MHwxfHNlYXJjaHwxfHxDb21waSVDMyVBOGduZSUyMFBhbGFjZSUyMHJveWFsfGVufDF8MHx8fDE3ODMzNDM0ODN8MA&ixlib=rb-4.1.0&crop=entropy&cs=tinysrgb&fit=max&fm=jpg&q=80&w=1080"},{"placeId":"laon","name":"Laon","nameIt":"Laon","type":"TOWN","lat":49.5641,"lng":3.6258,"regionId":"hauts_de_france","regionName":"Hauts-de-France","regionEmoji":"🏰"},{"placeId":"abbaye_saint_waast","name":"Saint-Waast Abbey","nameIt":"Abbaye Saint-Waast","type":"LANDMARK","lat":50.2858,"lng":2.7774,"regionId":"hauts_de_france","regionName":"Hauts-de-France","regionEmoji":"🏰","image":"https://images.unsplash.com/photo-1746860071054-10c51804b304?ixid=M3w5NTU4NjF8MHwxfHNlYXJjaHwxfHxTYWludC1XYWFzdCUyMEFiYmV5JTIwQXJyYXN8ZW58MXwwfHx8MTc4MzM0MzQ4N3ww&ixlib=rb-4.1.0&crop=entropy&cs=tinysrgb&fit=max&fm=jpg&q=80&w=1080"},{"placeId":"vallee_somme","name":"Vallée de la Somme","nameIt":"Vallée de la Somme","type":"NATURE","lat":50,"lng":2.3,"regionId":"hauts_de_france","regionName":"Hauts-de-France","regionEmoji":"🏰"},{"placeId":"toulouse","name":"Toulouse","nameIt":"Tolosa","type":"CITY","lat":43.6047,"lng":1.4442,"regionId":"occitanie","regionName":"Occitania","regionEmoji":"🏔️"},{"placeId":"carcassonne","name":"Carcassonne","nameIt":"Carcassona","type":"TOWN","lat":43.2111,"lng":2.3637,"regionId":"occitanie","regionName":"Occitania","regionEmoji":"🏔️","image":"https://images.unsplash.com/photo-1753709697924-3f30695a50d7?ixid=M3w5NTU4NjF8MHwxfHNlYXJjaHwxfHxDYXJjYXNzb25uZSUyMGZvcnRyZXNzJTIwd2FsbHMlMjBzdW5zZXR8ZW58MXwwfHx8MTc4MzM0MzUwOHww&ixlib=rb-4.1.0&crop=entropy&cs=tinysrgb&fit=max&fm=jpg&q=80&w=1080"},{"placeId":"montpellier","name":"Montpellier","nameIt":"Montpelhièr","type":"CITY","lat":43.6108,"lng":3.8767,"regionId":"occitanie","regionName":"Occitania","regionEmoji":"🏔️","image":"https://images.unsplash.com/photo-1577477792155-2d4b04eea38c?ixid=M3w5NTU4NjF8MHwxfHNlYXJjaHwxfHxNb250cGVsbGllciUyMFByb21lbmFkZSUyMGR1JTIwUGV5cm91fGVufDF8MHx8fDE3ODMzNDM1MTF8MA&ixlib=rb-4.1.0&crop=entropy&cs=tinysrgb&fit=max&fm=jpg&q=80&w=1080"},{"placeId":"albi","name":"Albi","nameIt":"Albi","type":"TOWN","lat":43.9273,"lng":2.1439,"regionId":"occitanie","regionName":"Occitania","regionEmoji":"🏔️","image":"https://images.unsplash.com/photo-1752445280072-bfe309f003ea?ixid=M3w5NTU4NjF8MHwxfHNlYXJjaHwxfHxBbGJpJTIwQ2F0aCVDMyVBOWRyYWxlJTIwU2FpbnRlLUMlQzMlQTljaWxlfGVufDF8MHx8fDE3ODMzNDM1MTZ8MA&ixlib=rb-4.1.0&crop=entropy&cs=tinysrgb&fit=max&fm=jpg&q=80&w=1080"},{"placeId":"peyrepertuse","name":"Peyrepertuse","nameIt":"Peyrepertusa","type":"LANDMARK","lat":42.8686,"lng":2.5511,"regionId":"occitanie","regionName":"Occitania","regionEmoji":"🏔️","image":"https://images.unsplash.com/photo-1509010008-a77006ce0b63?ixid=M3w5NTU4NjF8MHwxfHNlYXJjaHwxfHxQZXlyZXBlcnR1c2UlMjBjYXN0bGUlMjBjbGlmZnRvcHxlbnwxfDB8fHwxNzgzMzQzNTE5fDA&ixlib=rb-4.1.0&crop=entropy&cs=tinysrgb&fit=max&fm=jpg&q=80&w=1080"},{"placeId":"beziers","name":"Béziers","nameIt":"Besièrs","type":"CITY","lat":43.3441,"lng":3.2181,"regionId":"occitanie","regionName":"Occitania","regionEmoji":"🏔️","image":"https://images.unsplash.com/photo-1739630833697-e529b0b3f20a?ixid=M3w5NTU4NjF8MHwxfHNlYXJjaHwxfHxCJUMzJUE5emllcnMlMjBjYXRoZWRyYWwlMjBvdmVybG9va2luZyUyMHRvd258ZW58MXwwfHx8MTc4MzM0MzUyM3ww&ixlib=rb-4.1.0&crop=entropy&cs=tinysrgb&fit=max&fm=jpg&q=80&w=1080"},{"placeId":"pont_du_gard","name":"Pont du Gard","nameIt":"Pont du Gard","type":"LANDMARK","lat":43.9476,"lng":4.5341,"regionId":"occitanie","regionName":"Occitania","regionEmoji":"🏔️","image":"https://images.unsplash.com/photo-1596458162315-4804c385b531?ixid=M3w5NTU4NjF8MHwxfHNlYXJjaHwxfHxQb250JTIwZHUlMjBHYXJkJTIwUm9tYW4lMjBhcXVlZHVjdHxlbnwxfDB8fHwxNzgzMzQzNTI2fDA&ixlib=rb-4.1.0&crop=entropy&cs=tinysrgb&fit=max&fm=jpg&q=80&w=1080"},{"placeId":"nimes","name":"Nîmes","nameIt":"Nimes","type":"CITY","lat":43.8345,"lng":4.3601,"regionId":"occitanie","regionName":"Occitania","regionEmoji":"🏔️"},{"placeId":"sete","name":"Sète","nameIt":"Sèta","type":"COASTAL","lat":43.3968,"lng":3.6948,"regionId":"occitanie","regionName":"Occitania","regionEmoji":"🏔️"},{"placeId":"cordes_sur_ciel","name":"Cordes-sur-Ciel","nameIt":"Còrdas","type":"VILLAGE","lat":44.0569,"lng":1.9494,"regionId":"occitanie","regionName":"Occitania","regionEmoji":"🏔️","image":"https://images.unsplash.com/photo-1695327687103-fc2b7209c16a?ixid=M3w5NTU4NjF8MHwxfHNlYXJjaHwxfHxDb3JkZXMtc3VyLUNpZWwlMjBoaWxsdG9wJTIwdmlsbGFnZXxlbnwxfDB8fHwxNzgzMzQzNTM1fDA&ixlib=rb-4.1.0&crop=entropy&cs=tinysrgb&fit=max&fm=jpg&q=80&w=1080"},{"placeId":"collioure","name":"Collioure","nameIt":"Cotlliure","type":"COASTAL","lat":42.5137,"lng":3.081,"regionId":"occitanie","regionName":"Occitania","regionEmoji":"🏔️","image":"https://images.unsplash.com/photo-1660745469422-e21dd1fa4d5f?ixid=M3w5NTU4NjF8MHwxfHNlYXJjaHwxfHxDb2xsaW91cmUlMjBoYXJib3IlMjBjb2xvcmZ1bCUyMGJvYXRzfGVufDF8MHx8fDE3ODMzNDM1Mzh8MA&ixlib=rb-4.1.0&crop=entropy&cs=tinysrgb&fit=max&fm=jpg&q=80&w=1080"},{"placeId":"conques","name":"Conques","nameIt":"Conca","type":"VILLAGE","lat":44.4165,"lng":2.4348,"regionId":"occitanie","regionName":"Occitania","regionEmoji":"🏔️"},{"placeId":"cevennes","name":"Cévennes","nameIt":"Cevenas","type":"NATURE","lat":44.0893,"lng":3.7299,"regionId":"occitanie","regionName":"Occitania","regionEmoji":"🏔️","image":"https://images.unsplash.com/photo-1605270160644-d52c6515c141?ixid=M3w5NTU4NjF8MHwxfHNlYXJjaHwxfHxDJUMzJUE5dmVubmVzJTIwZ29yZ2UlMjBtb3VudGFpbiUyMGxhbmRzY2FwZXxlbnwxfDB8fHwxNzgzMzQzNTQ2fDA&ixlib=rb-4.1.0&crop=entropy&cs=tinysrgb&fit=max&fm=jpg&q=80&w=1080"},{"placeId":"dijon","name":"Dijon","nameIt":"Dijon","type":"CITY","lat":47.322,"lng":5.0404,"regionId":"bourgogne_franche_comte","regionName":"Burgundy-Franche-Comté","regionEmoji":"🍇","image":"https://images.unsplash.com/photo-1663053389848-36383355a11b?ixid=M3w5NTU4NjF8MHwxfHNlYXJjaHwxfHxEaWpvbiUyMFBhbGFjZSUyMG9mJTIwdGhlJTIwRHVrZXN8ZW58MXwwfHx8MTc4MzM0MzU2MHww&ixlib=rb-4.1.0&crop=entropy&cs=tinysrgb&fit=max&fm=jpg&q=80&w=1080"},{"placeId":"beaune","name":"Beaune","nameIt":"Beaune","type":"TOWN","lat":47.0255,"lng":4.8369,"regionId":"bourgogne_franche_comte","regionName":"Burgundy-Franche-Comté","regionEmoji":"🍇","image":"https://images.unsplash.com/photo-1760371908150-dfb9b9d7e409?ixid=M3w5NTU4NjF8MHwxfHNlYXJjaHwxfHxIb3NwaWNlcyUyMGRlJTIwQmVhdW5lJTIwcm9vZnxlbnwxfDB8fHwxNzgzMzQzNTYzfDA&ixlib=rb-4.1.0&crop=entropy&cs=tinysrgb&fit=max&fm=jpg&q=80&w=1080"},{"placeId":"vezelay","name":"Vézelay","nameIt":"Vézelay","type":"VILLAGE","lat":47.4667,"lng":3.7479,"regionId":"bourgogne_franche_comte","regionName":"Burgundy-Franche-Comté","regionEmoji":"🍇","image":"https://images.unsplash.com/photo-1668934533661-76b591883ce0?ixid=M3w5NTU4NjF8MHwxfHNlYXJjaHwxfHxWJUMzJUE5emVsYXklMjBCYXNpbGljYSUyMFJvbWFuZXNxdWV8ZW58MXwwfHx8MTc4MzM0MzU2Nnww&ixlib=rb-4.1.0&crop=entropy&cs=tinysrgb&fit=max&fm=jpg&q=80&w=1080"},{"placeId":"chablis","name":"Chablis","nameIt":"Chablis","type":"TOWN","lat":47.8132,"lng":3.5793,"regionId":"bourgogne_franche_comte","regionName":"Burgundy-Franche-Comté","regionEmoji":"🍇"},{"placeId":"auxerre","name":"Auxerre","nameIt":"Auxerre","type":"CITY","lat":47.798,"lng":3.5703,"regionId":"bourgogne_franche_comte","regionName":"Burgundy-Franche-Comté","regionEmoji":"🍇","image":"https://images.unsplash.com/photo-1668934533661-76b591883ce0?ixid=M3w5NTU4NjF8MHwxfHNlYXJjaHwxfHxBdXhlcnJlJTIwY2F0aGVkcmFsJTIwWW9ubmV8ZW58MXwwfHx8MTc4MzM0MzU3MHww&ixlib=rb-4.1.0&crop=entropy&cs=tinysrgb&fit=max&fm=jpg&q=80&w=1080"},{"placeId":"pontarlier","name":"Pontarlier","nameIt":"Pontarlier","type":"TOWN","lat":46.9047,"lng":6.3515,"regionId":"bourgogne_franche_comte","regionName":"Burgundy-Franche-Comté","regionEmoji":"🍇"},{"placeId":"arc_et_senans","name":"Arc-et-Senans","nameIt":"Arc-et-Senans","type":"LANDMARK","lat":46.745,"lng":5.7732,"regionId":"bourgogne_franche_comte","regionName":"Burgundy-Franche-Comté","regionEmoji":"🍇"},{"placeId":"besancon","name":"Besançon","nameIt":"Besançon","type":"CITY","lat":47.2397,"lng":6.0271,"regionId":"bourgogne_franche_comte","regionName":"Burgundy-Franche-Comté","regionEmoji":"🍇"},{"placeId":"morvan","name":"Morvan","nameIt":"Morvan","type":"NATURE","lat":47.15,"lng":4,"regionId":"bourgogne_franche_comte","regionName":"Burgundy-Franche-Comté","regionEmoji":"🍇"},{"placeId":"flavigny_sur_ozerain","name":"Flavigny-sur-Ozerain","nameIt":"Flavigny-sur-Ozerain","type":"VILLAGE","lat":47.5667,"lng":4.3179,"regionId":"bourgogne_franche_comte","regionName":"Burgundy-Franche-Comté","regionEmoji":"🍇","image":"https://images.unsplash.com/photo-1585577280872-8a9fb571fece?ixid=M3w5NTU4NjF8MHwxfHNlYXJjaHwxfHxGbGF2aWdueS1zdXItT3plcmFpbiUyMENob2NvbGF0JTIwdmlsbGFnZXxlbnwxfDB8fHwxNzgzMzQzNTc3fDA&ixlib=rb-4.1.0&crop=entropy&cs=tinysrgb&fit=max&fm=jpg&q=80&w=1080"},{"placeId":"gevrey_chambertin","name":"Gevrey-Chambertin","nameIt":"Gevrey-Chambertin","type":"TOWN","lat":47.5232,"lng":4.9132,"regionId":"bourgogne_franche_comte","regionName":"Burgundy-Franche-Comté","regionEmoji":"🍇"},{"placeId":"montbard","name":"Montbard","nameIt":"Montbard","type":"TOWN","lat":47.6144,"lng":4.3539,"regionId":"bourgogne_franche_comte","regionName":"Burgundy-Franche-Comté","regionEmoji":"🍇"},{"placeId":"ornans","name":"Ornans","nameIt":"Ornans","type":"TOWN","lat":46.895,"lng":6.1433,"regionId":"bourgogne_franche_comte","regionName":"Burgundy-Franche-Comté","regionEmoji":"🍇","image":"https://images.unsplash.com/photo-1765019132267-1c8d30cf8c88?ixid=M3w5NTU4NjF8MHwxfHNlYXJjaHwxfHxPcm5hbnMlMjBEb3VicyUyMHJpdmVyJTIwQ291cmJldHxlbnwxfDB8fHwxNzgzMzQzNTgzfDA&ixlib=rb-4.1.0&crop=entropy&cs=tinysrgb&fit=max&fm=jpg&q=80&w=1080"},{"placeId":"nuits_saint_georges","name":"Nuits-Saint-Georges","nameIt":"Nuits-Saint-Georges","type":"TOWN","lat":47.1347,"lng":4.7709,"regionId":"bourgogne_franche_comte","regionName":"Burgundy-Franche-Comté","regionEmoji":"🍇","image":"https://images.unsplash.com/photo-1556442281-77c90134c61f?ixid=M3w5NTU4NjF8MHwxfHNlYXJjaHwxfHxOdWl0cy1TYWludC1HZW9yZ2VzJTIwd2luZSUyMGF1Y3Rpb258ZW58MXwwfHx8MTc4MzM0MzU4Nnww&ixlib=rb-4.1.0&crop=entropy&cs=tinysrgb&fit=max&fm=jpg&q=80&w=1080"},{"placeId":"cascades_du_herisson","name":"Cascades du Hérisson","nameIt":"Cascades du Hérisson","type":"NATURE","lat":46.4667,"lng":5.7167,"regionId":"bourgogne_franche_comte","regionName":"Burgundy-Franche-Comté","regionEmoji":"🍇"},{"placeId":"chateau_chambord","name":"Château de Chambord","nameIt":"Château de Chambord","type":"LANDMARK","lat":47.6161,"lng":1.5173,"regionId":"centre_val_de_loire","regionName":"Centre-Val de Loire","regionEmoji":"🏛️","image":"https://images.unsplash.com/photo-1571301092535-61a418b457dd?ixid=M3w5NTU4NjF8MHwxfHNlYXJjaHwxfHxDaCVDMyVBMnRlYXUlMjBkZSUyMENoYW1ib3JkJTIwUmVuYWlzc2FuY2UlMjBjYXN0bGV8ZW58MXwwfHx8MTc4MzM0MzYwNnww&ixlib=rb-4.1.0&crop=entropy&cs=tinysrgb&fit=max&fm=jpg&q=80&w=1080"},{"placeId":"chateau_chenonceau","name":"Château de Chenonceau","nameIt":"Château de Chenonceau","type":"LANDMARK","lat":47.3261,"lng":1.0727,"regionId":"centre_val_de_loire","regionName":"Centre-Val de Loire","regionEmoji":"🏛️","image":"https://images.unsplash.com/photo-1586714027153-b014fb5f4d90?ixid=M3w5NTU4NjF8MHwxfHNlYXJjaHwxfHxDaCVDMyVBMnRlYXUlMjBkZSUyMENoZW5vbmNlYXUlMjByaXZlciUyMGJyaWRnZXxlbnwxfDB8fHwxNzgzMzQzNjA5fDA&ixlib=rb-4.1.0&crop=entropy&cs=tinysrgb&fit=max&fm=jpg&q=80&w=1080"},{"placeId":"blois","name":"Blois","nameIt":"Blois","type":"CITY","lat":47.5989,"lng":1.3333,"regionId":"centre_val_de_loire","regionName":"Centre-Val de Loire","regionEmoji":"🏛️","image":"https://images.unsplash.com/photo-1634683389807-e783948913a6?ixid=M3w5NTU4NjF8MHwxfHNlYXJjaHwxfHxCbG9pcyUyMENoJUMzJUEydGVhdSUyMGRlJTIwQmxvaXMlMjBjaXR5fGVufDF8MHx8fDE3ODMzNDM2MTF8MA&ixlib=rb-4.1.0&crop=entropy&cs=tinysrgb&fit=max&fm=jpg&q=80&w=1080"},{"placeId":"tours","name":"Tours","nameIt":"Tours","type":"CITY","lat":47.3941,"lng":0.6848,"regionId":"centre_val_de_loire","regionName":"Centre-Val de Loire","regionEmoji":"🏛️"},{"placeId":"chateau_amboise","name":"Château d'Amboise","nameIt":"Château d'Amboise","type":"LANDMARK","lat":47.4091,"lng":0.9858,"regionId":"centre_val_de_loire","regionName":"Centre-Val de Loire","regionEmoji":"🏛️","image":"https://images.unsplash.com/photo-1705591929900-6e5d17df99be?ixid=M3w5NTU4NjF8MHwxfHNlYXJjaHwxfHxDaCVDMyVBMnRlYXUlMjBkJTI3QW1ib2lzZSUyMGZvcnRyZXNzJTIwTG9pcmUlMjBSaXZlcnxlbnwxfDB8fHwxNzgzMzQzNjE1fDA&ixlib=rb-4.1.0&crop=entropy&cs=tinysrgb&fit=max&fm=jpg&q=80&w=1080"},{"placeId":"chateau_villandry","name":"Château de Villandry","nameIt":"Château de Villandry","type":"LANDMARK","lat":47.3559,"lng":0.8652,"regionId":"centre_val_de_loire","regionName":"Centre-Val de Loire","regionEmoji":"🏛️","image":"https://images.unsplash.com/photo-1699303088143-b04d23643bd9?ixid=M3w5NTU4NjF8MHwxfHNlYXJjaHwxfHxDaCVDMyVBMnRlYXUlMjBkZSUyMFZpbGxhbmRyeSUyMGdhcmRlbnMlMjBhZXJpYWwlMjB2aWV3fGVufDF8MHx8fDE3ODMzNDM2MTl8MA&ixlib=rb-4.1.0&crop=entropy&cs=tinysrgb&fit=max&fm=jpg&q=80&w=1080"},{"placeId":"orleans","name":"Orléans","nameIt":"Orléans","type":"CITY","lat":47.9029,"lng":1.9094,"regionId":"centre_val_de_loire","regionName":"Centre-Val de Loire","regionEmoji":"🏛️"},{"placeId":"chateau_loches","name":"Citadel of Loches","nameIt":"Forteresse de Loches","type":"LANDMARK","lat":47.1281,"lng":0.9966,"regionId":"centre_val_de_loire","regionName":"Centre-Val de Loire","regionEmoji":"🏛️","image":"https://images.unsplash.com/photo-1703193695563-8e6fcfb65e91?ixid=M3w5NTU4NjF8MHwxfHNlYXJjaHwxfHxMb2NoZXMlMjBmb3J0cmVzcyUyMG1lZGlldmFsJTIwdG93ZXJzfGVufDF8MHx8fDE3ODMzNDM2MjN8MA&ixlib=rb-4.1.0&crop=entropy&cs=tinysrgb&fit=max&fm=jpg&q=80&w=1080"},{"placeId":"montrichard","name":"Montrichard","nameIt":"Montrichard","type":"TOWN","lat":47.3547,"lng":1.1717,"regionId":"centre_val_de_loire","regionName":"Centre-Val de Loire","regionEmoji":"🏛️"},{"placeId":"chateau_azay","name":"Château d'Azay-le-Rideau","nameIt":"Château d'Azay-le-Rideau","type":"LANDMARK","lat":47.2632,"lng":0.7604,"regionId":"centre_val_de_loire","regionName":"Centre-Val de Loire","regionEmoji":"🏛️","image":"https://images.unsplash.com/photo-1595913777166-478c58fae1bf?ixid=M3w5NTU4NjF8MHwxfHNlYXJjaHwxfHxDaCVDMyVBMnRlYXUlMjBkJTI3QXpheS1sZS1SaWRlYXUlMjBtb2F0JTIwcmVmbGVjdGlvbnxlbnwxfDB8fHwxNzgzMzQzNjI4fDA&ixlib=rb-4.1.0&crop=entropy&cs=tinysrgb&fit=max&fm=jpg&q=80&w=1080"},{"placeId":"loches","name":"Loches","nameIt":"Loches","type":"TOWN","lat":47.1281,"lng":0.9966,"regionId":"centre_val_de_loire","regionName":"Centre-Val de Loire","regionEmoji":"🏛️"},{"placeId":"chateau_langeais","name":"Château de Langeais","nameIt":"Château de Langeais","type":"LANDMARK","lat":47.1418,"lng":0.4119,"regionId":"centre_val_de_loire","regionName":"Centre-Val de Loire","regionEmoji":"🏛️","image":"https://images.unsplash.com/photo-1584528904246-66767484ffa6?ixid=M3w5NTU4NjF8MHwxfHNlYXJjaHwxfHxDaCVDMyVBMnRlYXUlMjBkZSUyMExhbmdlYWlzJTIwbWVkaWV2YWwlMjBmb3J0cmVzc3xlbnwxfDB8fHwxNzgzMzQ3OTU3fDA&ixlib=rb-4.1.0&crop=entropy&cs=tinysrgb&fit=max&fm=jpg&q=80&w=1080"},{"placeId":"son_et_lumiere","name":"Loire Valley Châteaux","nameIt":"Châteaux de la Loire","type":"NATURE","lat":47.5,"lng":1,"regionId":"centre_val_de_loire","regionName":"Centre-Val de Loire","regionEmoji":"🏛️","image":"https://images.unsplash.com/photo-1654191137589-33bd4b5d1105?ixid=M3w5NTU4NjF8MHwxfHNlYXJjaHwxfHxMb2lyZSUyMFZhbGxleSUyMGNoJUMzJUEydGVhdXglMjBsYW5kc2NhcGV8ZW58MXwwfHx8MTc4MzM0Nzk2M3ww&ixlib=rb-4.1.0&crop=entropy&cs=tinysrgb&fit=max&fm=jpg&q=80&w=1080"},{"placeId":"nantes","name":"Nantes","nameIt":"Nantes","type":"CITY","lat":47.2184,"lng":-1.5536,"regionId":"pays_de_la_loire","regionName":"Pays de la Loire","regionEmoji":"🌳","image":"https://images.unsplash.com/photo-1750024975711-47879c31a355?ixid=M3w5NTU4NjF8MHwxfHNlYXJjaHwxfHxOYW50ZXMlMjBNYWNoaW5lcyUyMElzbGUlMjBjYXJvdXNlbHxlbnwxfDB8fHwxNzgzMzQ3OTc2fDA&ixlib=rb-4.1.0&crop=entropy&cs=tinysrgb&fit=max&fm=jpg&q=80&w=1080"},{"placeId":"angers","name":"Angers","nameIt":"Angers","type":"CITY","lat":47.4711,"lng":-0.5534,"regionId":"pays_de_la_loire","regionName":"Pays de la Loire","regionEmoji":"🌳"},{"placeId":"saint_nazaire","name":"Saint-Nazaire","nameIt":"Saint-Nazaire","type":"COASTAL","lat":47.2734,"lng":-2.2048,"regionId":"pays_de_la_loire","regionName":"Pays de la Loire","regionEmoji":"🌳"},{"placeId":"guerande","name":"Guérande","nameIt":"Guérande","type":"TOWN","lat":47.3157,"lng":-2.4291,"regionId":"pays_de_la_loire","regionName":"Pays de la Loire","regionEmoji":"🌳"},{"placeId":"la_baule","name":"La Baule","nameIt":"La Baule-Escoublac","type":"COASTAL","lat":47.2897,"lng":-2.3901,"regionId":"pays_de_la_loire","regionName":"Pays de la Loire","regionEmoji":"🌳","image":"https://images.unsplash.com/photo-1664378173682-fd29f17112ba?ixid=M3w5NTU4NjF8MHwxfHNlYXJjaHwxfHxMYSUyMEJhdWxlJTIwYmVhY2glMjBjcmVzY2VudHxlbnwxfDB8fHwxNzgzMzQ3OTgzfDA&ixlib=rb-4.1.0&crop=entropy&cs=tinysrgb&fit=max&fm=jpg&q=80&w=1080"},{"placeId":"le_mans","name":"Le Mans","nameIt":"Le Mans","type":"CITY","lat":48.0061,"lng":0.1987,"regionId":"pays_de_la_loire","regionName":"Pays de la Loire","regionEmoji":"🌳","image":"https://images.unsplash.com/photo-1629661414984-7ff107f80b1e?ixid=M3w5NTU4NjF8MHwxfHNlYXJjaHwxfHxMZSUyME1hbnMlMjAyNCUyMGhvdXJzJTIwcmFjZSUyMGNpcmN1aXR8ZW58MXwwfHx8MTc4MzM0Nzk4Nnww&ixlib=rb-4.1.0&crop=entropy&cs=tinysrgb&fit=max&fm=jpg&q=80&w=1080"},{"placeId":"amboise_loire","name":"Amboise","nameIt":"Amboise","type":"TOWN","lat":47.4037,"lng":0.9854,"regionId":"pays_de_la_loire","regionName":"Pays de la Loire","regionEmoji":"🌳","image":"https://images.unsplash.com/photo-1526816229784-65d5d54ac8bc?ixid=M3w5NTU4NjF8MHwxfHNlYXJjaHwxfHxBbWJvaXNlJTIwY2FzdGxlJTIwTG9pcmUlMjBWYWxsZXl8ZW58MXwwfHx8MTc4MzM0Nzk4OHww&ixlib=rb-4.1.0&crop=entropy&cs=tinysrgb&fit=max&fm=jpg&q=80&w=1080"},{"placeId":"saumur","name":"Saumur","nameIt":"Saumur","type":"TOWN","lat":47.26,"lng":-0.0847,"regionId":"pays_de_la_loire","regionName":"Pays de la Loire","regionEmoji":"🌳"},{"placeId":"ancenis","name":"Ancenis","nameIt":"Ancenis-Saint-Géréon","type":"TOWN","lat":47.3702,"lng":-1.1703,"regionId":"pays_de_la_loire","regionName":"Pays de la Loire","regionEmoji":"🌳","image":"https://images.unsplash.com/photo-1526816229784-65d5d54ac8bc?ixid=M3w5NTU4NjF8MHwxfHNlYXJjaHwxfHxBbmNlbmlzJTIwY2FzdGxlJTIwTG9pcmV8ZW58MXwwfHx8MTc4MzM0Nzk5Mnww&ixlib=rb-4.1.0&crop=entropy&cs=tinysrgb&fit=max&fm=jpg&q=80&w=1080"},{"placeId":"mont_saint_michel_bay","name":"Mont-Saint-Michel Bay","nameIt":"Baie du Mont-Saint-Michel","type":"NATURE","lat":48.6361,"lng":-1.5115,"regionId":"pays_de_la_loire","regionName":"Pays de la Loire","regionEmoji":"🌳","image":"https://images.unsplash.com/photo-1727081146406-bfe31e15149f?ixid=M3w5NTU4NjF8MHwxfHNlYXJjaHwxfHxNb250LVNhaW50LU1pY2hlbCUyMGJheSUyMHRpZGVzfGVufDF8MHx8fDE3ODMzNDc5OTV8MA&ixlib=rb-4.1.0&crop=entropy&cs=tinysrgb&fit=max&fm=jpg&q=80&w=1080"},{"placeId":"pornic","name":"Pornic","nameIt":"Pornic","type":"COASTAL","lat":47.1183,"lng":-2.1045,"regionId":"pays_de_la_loire","regionName":"Pays de la Loire","regionEmoji":"🌳","image":"https://images.unsplash.com/photo-1578240747034-5ba1efe22426?ixid=M3w5NTU4NjF8MHwxfHNlYXJjaHwxfHxQb3JuaWMlMjBjYXN0bGUlMjBydWlucyUyMGNvYXN0fGVufDF8MHx8fDE3ODMzNDc5OTh8MA&ixlib=rb-4.1.0&crop=entropy&cs=tinysrgb&fit=max&fm=jpg&q=80&w=1080"},{"placeId":"champtoceaux","name":"Champtoceaux","nameIt":"Champtoceaux","type":"TOWN","lat":47.3925,"lng":-1.2547,"regionId":"pays_de_la_loire","regionName":"Pays de la Loire","regionEmoji":"🌳","image":"https://images.unsplash.com/photo-1589360408556-fa309e69f98e?ixid=M3w5NTU4NjF8MHwxfHNlYXJjaHwxfHxDaGFtcHRvY2VhdXglMjBjYXN0bGUlMjBydWlucyUyMExvaXJlfGVufDF8MHx8fDE3ODMzNDgwMDF8MA&ixlib=rb-4.1.0&crop=entropy&cs=tinysrgb&fit=max&fm=jpg&q=80&w=1080"},{"placeId":"strasbourg","name":"Strasbourg","nameIt":"Strasbourg","type":"CITY","lat":48.5734,"lng":7.7521,"regionId":"grand_est","regionName":"Grand East","regionEmoji":"🍾","image":"https://images.unsplash.com/photo-1691166693784-48cce13f367e?ixid=M3w5NTU4NjF8MHwxfHNlYXJjaHwxfHxTdHJhc2JvdXJnJTIwY2F0aGVkcmFsJTIwb2xkJTIwdG93bnxlbnwxfDB8fHwxNzgzMzQ4MDE0fDA&ixlib=rb-4.1.0&crop=entropy&cs=tinysrgb&fit=max&fm=jpg&q=80&w=1080"},{"placeId":"colmar","name":"Colmar","nameIt":"Colmar","type":"CITY","lat":48.0795,"lng":7.3597,"regionId":"grand_est","regionName":"Grand East","regionEmoji":"🍾","image":"https://images.unsplash.com/photo-1761300053895-f09fa37ef5ff?ixid=M3w5NTU4NjF8MHwxfHNlYXJjaHwxfHxDb2xtYXIlMjBvbGQlMjB0b3duJTIwY2FuYWxzfGVufDF8MHx8fDE3ODMzNDgwMTd8MA&ixlib=rb-4.1.0&crop=entropy&cs=tinysrgb&fit=max&fm=jpg&q=80&w=1080"},{"placeId":"reims","name":"Reims","nameIt":"Reims","type":"CITY","lat":49.2578,"lng":4.0251,"regionId":"grand_est","regionName":"Grand East","regionEmoji":"🍾","image":"https://images.unsplash.com/photo-1581211653431-310ba15ff9bf?ixid=M3w5NTU4NjF8MHwxfHNlYXJjaHwxfHxSZWltcyUyMENhdGhlZHJhbHxlbnwxfDB8fHwxNzgzMzQ4MDIwfDA&ixlib=rb-4.1.0&crop=entropy&cs=tinysrgb&fit=max&fm=jpg&q=80&w=1080"},{"placeId":"metz","name":"Metz","nameIt":"Metz","type":"CITY","lat":49.1193,"lng":6.1757,"regionId":"grand_est","regionName":"Grand East","regionEmoji":"🍾","image":"https://images.unsplash.com/photo-1578171267709-7205168ffcc6?ixid=M3w5NTU4NjF8MHwxfHNlYXJjaHwxfHxNZXR6JTIwQ2F0aGVkcmFsfGVufDF8MHx8fDE3ODMzNDgwMjN8MA&ixlib=rb-4.1.0&crop=entropy&cs=tinysrgb&fit=max&fm=jpg&q=80&w=1080"},{"placeId":"champagne_route","name":"Champagne Route","nameIt":"Route Touristique du Champagne","type":"NATURE","lat":49,"lng":4,"regionId":"grand_est","regionName":"Grand East","regionEmoji":"🍾","image":"https://images.unsplash.com/photo-1563514227147-6d2ff665a6a0?ixid=M3w5NTU4NjF8MHwxfHNlYXJjaHwxfHxDaGFtcGFnbmUlMjB2aW5leWFyZCUyMHJvdXRlJTIwbGFuZHNjYXBlfGVufDF8MHx8fDE3ODMzNDgwMjd8MA&ixlib=rb-4.1.0&crop=entropy&cs=tinysrgb&fit=max&fm=jpg&q=80&w=1080"},{"placeId":"troyes","name":"Troyes","nameIt":"Troyes","type":"CITY","lat":48.2966,"lng":4.074,"regionId":"grand_est","regionName":"Grand East","regionEmoji":"🍾"},{"placeId":"alsatian_wine_villages","name":"Alsatian Wine Villages","nameIt":"Villages du Vin d'Alsace","type":"VILLAGE","lat":48.1,"lng":7.3,"regionId":"grand_est","regionName":"Grand East","regionEmoji":"🍾","image":"https://images.unsplash.com/photo-1704300815432-76952c1e3562?ixid=M3w5NTU4NjF8MHwxfHNlYXJjaHwxfHxBbHNhdGlhbiUyMHdpbmUlMjB2aWxsYWdlJTIwUmlxdWV3aWhyfGVufDF8MHx8fDE3ODMzNDgwMzF8MA&ixlib=rb-4.1.0&crop=entropy&cs=tinysrgb&fit=max&fm=jpg&q=80&w=1080"},{"placeId":"epernay","name":"Épernay","nameIt":"Épernay","type":"CITY","lat":49.0297,"lng":3.9625,"regionId":"grand_est","regionName":"Grand East","regionEmoji":"🍾","image":"https://images.unsplash.com/photo-1636540258500-0f9b081c8314?ixid=M3w5NTU4NjF8MHwxfHNlYXJjaHwxfHwlQzMlODlwZXJuYXklMjBBdmVudWUlMjBkZSUyMENoYW1wYWduZXxlbnwxfDB8fHwxNzgzMzQ4MDM0fDA&ixlib=rb-4.1.0&crop=entropy&cs=tinysrgb&fit=max&fm=jpg&q=80&w=1080"},{"placeId":"verdun","name":"Verdun","nameIt":"Verdun","type":"CITY","lat":49.1608,"lng":5.3864,"regionId":"grand_est","regionName":"Grand East","regionEmoji":"🍾","image":"https://images.unsplash.com/photo-1593517633112-cb742be2a686?ixid=M3w5NTU4NjF8MHwxfHNlYXJjaHwxfHxWZXJkdW4lMjBiYXR0bGVmaWVsZCUyMFdXSSUyMG1lbW9yaWFsfGVufDF8MHx8fDE3ODMzNDgwMzZ8MA&ixlib=rb-4.1.0&crop=entropy&cs=tinysrgb&fit=max&fm=jpg&q=80&w=1080"},{"placeId":"strasbourg_christmas","name":"Strasbourg Christmas Markets","nameIt":"Marchés de Noël de Strasbourg","type":"LANDMARK","lat":48.5734,"lng":7.7521,"regionId":"grand_est","regionName":"Grand East","regionEmoji":"🍾","image":"https://images.unsplash.com/photo-1654110314115-3800872f2134?ixid=M3w5NTU4NjF8MHwxfHNlYXJjaHwxfHxTdHJhc2JvdXJnJTIwQ2hyaXN0bWFzJTIwbWFya2V0c3xlbnwxfDB8fHwxNzgzMzQ4MDM5fDA&ixlib=rb-4.1.0&crop=entropy&cs=tinysrgb&fit=max&fm=jpg&q=80&w=1080"},{"placeId":"nancy","name":"Nancy","nameIt":"Nancy","type":"CITY","lat":48.6921,"lng":6.1844,"regionId":"grand_est","regionName":"Grand East","regionEmoji":"🍾","image":"https://images.unsplash.com/photo-1614891202431-e4ba6b3d9edb?ixid=M3w5NTU4NjF8MHwxfHNlYXJjaHwxfHxOYW5jeSUyMFBsYWNlJTIwU3RhbmlzbGFzfGVufDF8MHx8fDE3ODMzNDgwNDJ8MA&ixlib=rb-4.1.0&crop=entropy&cs=tinysrgb&fit=max&fm=jpg&q=80&w=1080"},{"placeId":"ardenne_nature","name":"Ardenne Forest","nameIt":"Forêt des Ardennes","type":"NATURE","lat":49.6,"lng":4.6,"regionId":"grand_est","regionName":"Grand East","regionEmoji":"🍾","image":"https://images.unsplash.com/photo-1629743097439-f1e8718a908e?ixid=M3w5NTU4NjF8MHwxfHNlYXJjaHwxfHxBcmRlbm5lJTIwZm9yZXN0JTIwaGlraW5nJTIwbGFuZHNjYXBlfGVufDF8MHx8fDE3ODMzNDgwNDR8MA&ixlib=rb-4.1.0&crop=entropy&cs=tinysrgb&fit=max&fm=jpg&q=80&w=1080"},{"placeId":"sainte_odile","name":"Mont Sainte-Odile","nameIt":"Mont Sainte-Odile","type":"LANDMARK","lat":48.3558,"lng":7.4289,"regionId":"grand_est","regionName":"Grand East","regionEmoji":"🍾"},{"placeId":"vosges_mountains","name":"Vosges Mountains","nameIt":"Massif des Vosges","type":"NATURE","lat":48.3,"lng":6.9,"regionId":"grand_est","regionName":"Grand East","regionEmoji":"🍾","image":"https://images.unsplash.com/photo-1604223190546-a43e4c7f29d7?ixid=M3w5NTU4NjF8MHwxfHNlYXJjaHwxfHxWb3NnZXMlMjBtb3VudGFpbnMlMjBoaWtpbmclMjBsYW5kc2NhcGV8ZW58MXwwfHx8MTc4MzM0ODA0OHww&ixlib=rb-4.1.0&crop=entropy&cs=tinysrgb&fit=max&fm=jpg&q=80&w=1080"},{"placeId":"ajaccio","name":"Ajaccio","nameIt":"Ajacciu","type":"CITY","lat":41.9276,"lng":8.7387,"regionId":"corsica","regionName":"Corsica","regionEmoji":"🏝️","image":"https://images.unsplash.com/photo-1605704304411-afbaac5f2433?ixid=M3w5NTU4NjF8MHwxfHNlYXJjaHwxfHxBamFjY2lvJTIwaGFyYm9yJTIwY2l0YWRlbHxlbnwxfDB8fHwxNzgzMzQ4MDYyfDA&ixlib=rb-4.1.0&crop=entropy&cs=tinysrgb&fit=max&fm=jpg&q=80&w=1080"},{"placeId":"bonifacio","name":"Bonifacio","nameIt":"Bunifaziu","type":"TOWN","lat":41.3847,"lng":9.1586,"regionId":"corsica","regionName":"Corsica","regionEmoji":"🏝️","image":"https://images.unsplash.com/photo-1551866265-f7ded2277666?ixid=M3w5NTU4NjF8MHwxfHNlYXJjaHwxfHxCb25pZmFjaW8lMjBjbGlmZnMlMjB3aGl0ZSUyMGxpbWVzdG9uZXxlbnwxfDB8fHwxNzgzMzQ4MDY0fDA&ixlib=rb-4.1.0&crop=entropy&cs=tinysrgb&fit=max&fm=jpg&q=80&w=1080"},{"placeId":"bastia","name":"Bastia","nameIt":"Bastia","type":"CITY","lat":42.7032,"lng":9.4592,"regionId":"corsica","regionName":"Corsica","regionEmoji":"🏝️","image":"https://images.unsplash.com/photo-1677849133284-d07a373b8253?ixid=M3w5NTU4NjF8MHwxfHNlYXJjaHwxfHxCYXN0aWElMjBoYXJib3IlMjBWaWV1eCUyMFBvcnR8ZW58MXwwfHx8MTc4MzM0ODA2N3ww&ixlib=rb-4.1.0&crop=entropy&cs=tinysrgb&fit=max&fm=jpg&q=80&w=1080"},{"placeId":"calvi","name":"Calvi","nameIt":"Calvi","type":"COASTAL","lat":42.5628,"lng":8.7592,"regionId":"corsica","regionName":"Corsica","regionEmoji":"🏝️"},{"placeId":"porto_vecchio","name":"Porto-Vecchio","nameIt":"Portu Vechju","type":"COASTAL","lat":41.5862,"lng":9.2764,"regionId":"corsica","regionName":"Corsica","regionEmoji":"🏝️","image":"https://images.unsplash.com/photo-1596305234100-233c298dedc5?ixid=M3w5NTU4NjF8MHwxfHNlYXJjaHwxfHxQb3J0by1WZWNjaGlvJTIwYmVhY2glMjB0dXJxdW9pc2UlMjB3YXRlcnxlbnwxfDB8fHwxNzgzMzQ4MDcxfDA&ixlib=rb-4.1.0&crop=entropy&cs=tinysrgb&fit=max&fm=jpg&q=80&w=1080"},{"placeId":"scandola_nature_reserve","name":"Scandola Nature Reserve","nameIt":"Réserve Naturelle de Scandola","type":"NATURE","lat":42.3156,"lng":8.5394,"regionId":"corsica","regionName":"Corsica","regionEmoji":"🏝️"},{"placeId":"corte","name":"Corte","nameIt":"Corti","type":"TOWN","lat":42.3041,"lng":9.1511,"regionId":"corsica","regionName":"Corsica","regionEmoji":"🏝️","image":"https://images.unsplash.com/photo-1621432667047-edcb75619ba4?ixid=M3w5NTU4NjF8MHwxfHNlYXJjaHwxfHxDb3J0ZSUyMGNpdGFkZWwlMjBtb3VudGFpbnN8ZW58MXwwfHx8MTc4MzM0ODA3NXww&ixlib=rb-4.1.0&crop=entropy&cs=tinysrgb&fit=max&fm=jpg&q=80&w=1080"},{"placeId":"lac_de_melo","name":"Lac de Melo","nameIt":"Lac de Melu","type":"NATURE","lat":42.3667,"lng":9.2167,"regionId":"corsica","regionName":"Corsica","regionEmoji":"🏝️","image":"https://images.unsplash.com/photo-1559310589-2673bfe16970?ixid=M3w5NTU4NjF8MHwxfHNlYXJjaHwxfHxMYWMlMjBkZSUyME1lbG8lMjBhbHBpbmUlMjBsYWtlJTIwbW91bnRhaW5zfGVufDF8MHx8fDE3ODMzNDgwNzh8MA&ixlib=rb-4.1.0&crop=entropy&cs=tinysrgb&fit=max&fm=jpg&q=80&w=1080"},{"placeId":"capo_rosso","name":"Capo Rosso","nameIt":"Capu Rossu","type":"LANDMARK","lat":42.3947,"lng":8.5447,"regionId":"corsica","regionName":"Corsica","regionEmoji":"🏝️"},{"placeId":"sartene","name":"Sartène","nameIt":"Sartè","type":"TOWN","lat":41.6167,"lng":9.0333,"regionId":"corsica","regionName":"Corsica","regionEmoji":"🏝️"},{"placeId":"tafoni_boulders","name":"Tafoni Rock Formations","nameIt":"Tafoni","type":"NATURE","lat":42.0667,"lng":8.9167,"regionId":"corsica","regionName":"Corsica","regionEmoji":"🏝️"},{"placeId":"galeria","name":"Galéria","nameIt":"Galéria","type":"VILLAGE","lat":42.4166,"lng":8.6333,"regionId":"corsica","regionName":"Corsica","regionEmoji":"🏝️","image":"https://images.unsplash.com/photo-1770409083476-ae750da2eb27?ixid=M3w5NTU4NjF8MHwxfHNlYXJjaHwxfHxHYWxlcmlhJTIwdmlsbGFnZSUyMENvcnNpY2ElMjBiZWFjaHxlbnwxfDB8fHwxNzgzMzQ4MDg0fDA&ixlib=rb-4.1.0&crop=entropy&cs=tinysrgb&fit=max&fm=jpg&q=80&w=1080"},{"placeId":"ile_rousse","name":"Île-Rousse","nameIt":"Île-Rousse","type":"COASTAL","lat":42.6331,"lng":8.9272,"regionId":"corsica","regionName":"Corsica","regionEmoji":"🏝️"}]