[{"placeId":"helsinki","name":"Helsinki","nameIt":"Helsinki","type":"CITY","lat":60.1695,"lng":24.9354,"regionId":"uusimaa","regionName":"Uusimaa","regionEmoji":"🏛️","image":"https://images.unsplash.com/photo-1544096714-18ad573ad07e?ixid=M3w5NTU4NjF8MHwxfHNlYXJjaHwxfHxIZWxzaW5raSUyMENhdGhlZHJhbCUyMEZpbmxhbmR8ZW58MXwwfHx8MTc4MzcxNjE4NHww&ixlib=rb-4.1.0&crop=entropy&cs=tinysrgb&fit=max&fm=jpg&q=80&w=1080"},{"placeId":"porvoo","name":"Porvoo","nameIt":"Porvoo","type":"TOWN","lat":60.3947,"lng":25.6558,"regionId":"uusimaa","regionName":"Uusimaa","regionEmoji":"🏛️","image":"https://images.unsplash.com/photo-1681151362765-f89cbc0be41a?ixid=M3w5NTU4NjF8MHwxfHNlYXJjaHwxfHxQb3J2b28lMjBvbGQlMjB0b3duJTIwd29vZGVuJTIwaG91c2VzfGVufDF8MHx8fDE3ODM3MTYxODZ8MA&ixlib=rb-4.1.0&crop=entropy&cs=tinysrgb&fit=max&fm=jpg&q=80&w=1080"},{"placeId":"espoo","name":"Espoo","nameIt":"Espoo","type":"CITY","lat":60.2049,"lng":24.6558,"regionId":"uusimaa","regionName":"Uusimaa","regionEmoji":"🏛️","image":"https://images.unsplash.com/photo-1596711994856-41d136813a67?ixid=M3w5NTU4NjF8MHwxfHNlYXJjaHwxfHxFc3BvbyUyMEZpbmxhbmQlMjBjaXR5fGVufDF8MHx8fDE3ODM3MTYxODh8MA&ixlib=rb-4.1.0&crop=entropy&cs=tinysrgb&fit=max&fm=jpg&q=80&w=1080"},{"placeId":"tallinn_boat","name":"Tallinn Day Trip","nameIt":"Tallinn","type":"COASTAL","lat":59.437,"lng":24.7536,"regionId":"uusimaa","regionName":"Uusimaa","regionEmoji":"🏛️","image":"https://images.unsplash.com/photo-1734886580422-3dcbe576e20f?ixid=M3w5NTU4NjF8MHwxfHNlYXJjaHwxfHxUYWxsaW5uJTIwbWVkaWV2YWwlMjBvbGQlMjB0b3dufGVufDF8MHx8fDE3ODM3MTYxOTF8MA&ixlib=rb-4.1.0&crop=entropy&cs=tinysrgb&fit=max&fm=jpg&q=80&w=1080"},{"placeId":"turku","name":"Turku","nameIt":"Turku","type":"CITY","lat":60.4518,"lng":22.2666,"regionId":"uusimaa","regionName":"Uusimaa","regionEmoji":"🏛️","image":"https://images.unsplash.com/photo-1671366660419-ac19856a6ebf?ixid=M3w5NTU4NjF8MHwxfHNlYXJjaHwxfHxUdXJrdSUyMENhc3RsZSUyMEZpbmxhbmR8ZW58MXwwfHx8MTc4MzcxNjE5M3ww&ixlib=rb-4.1.0&crop=entropy&cs=tinysrgb&fit=max&fm=jpg&q=80&w=1080"},{"placeId":"vantaa","name":"Vantaa","nameIt":"Vantaa","type":"CITY","lat":60.2969,"lng":25.2048,"regionId":"uusimaa","regionName":"Uusimaa","regionEmoji":"🏛️","image":"https://images.unsplash.com/photo-1689580775266-c2e5c1efb77d?ixid=M3w5NTU4NjF8MHwxfHNlYXJjaHwxfHxWYW50YWElMjBGaW5sYW5kfGVufDF8MHx8fDE3ODM3MTYxOTV8MA&ixlib=rb-4.1.0&crop=entropy&cs=tinysrgb&fit=max&fm=jpg&q=80&w=1080"},{"placeId":"seurasaari","name":"Seurasaari Island","nameIt":"Seurasaari","type":"ISLAND","lat":60.1844,"lng":24.8967,"regionId":"uusimaa","regionName":"Uusimaa","regionEmoji":"🏛️","image":"https://images.unsplash.com/photo-1758565204738-cfc90b1098be?ixid=M3w5NTU4NjF8MHwxfHNlYXJjaHwxfHxTZXVyYXNhYXJpJTIwb3BlbiUyMGFpciUyMG11c2V1bXxlbnwxfDB8fHwxNzgzNzE2MTk3fDA&ixlib=rb-4.1.0&crop=entropy&cs=tinysrgb&fit=max&fm=jpg&q=80&w=1080"},{"placeId":"korkeasaari","name":"Korkeasaari Zoo","nameIt":"Korkeasaari","type":"ISLAND","lat":60.1758,"lng":24.9858,"regionId":"uusimaa","regionName":"Uusimaa","regionEmoji":"🏛️","image":"https://images.unsplash.com/photo-1701036506845-d0ab48efea7e?ixid=M3w5NTU4NjF8MHwxfHNlYXJjaHwxfHxLb3JrZWFzYWFyaSUyMFpvbyUyMEhlbHNpbmtpfGVufDF8MHx8fDE3ODM3MTYxOTl8MA&ixlib=rb-4.1.0&crop=entropy&cs=tinysrgb&fit=max&fm=jpg&q=80&w=1080"},{"placeId":"nuuksio","name":"Nuuksio National Park","nameIt":"Nuuksio","type":"NATURE","lat":60.2417,"lng":24.555,"regionId":"uusimaa","regionName":"Uusimaa","regionEmoji":"🏛️","image":"https://images.unsplash.com/photo-1632430318640-c827bb97acf4?ixid=M3w5NTU4NjF8MHwxfHNlYXJjaHwxfHxOdXVrc2lvJTIwTmF0aW9uYWwlMjBQYXJrJTIwRmlubGFuZHxlbnwxfDB8fHwxNzgzNzE2MjAxfDA&ixlib=rb-4.1.0&crop=entropy&cs=tinysrgb&fit=max&fm=jpg&q=80&w=1080"},{"placeId":"ekenas","name":"Ekenäs","nameIt":"Ekenäs","type":"COASTAL","lat":59.9686,"lng":23.5592,"regionId":"uusimaa","regionName":"Uusimaa","regionEmoji":"🏛️","image":"https://images.unsplash.com/photo-1600713814370-60e0cf7ca32e?ixid=M3w5NTU4NjF8MHwxfHNlYXJjaHwxfHxFa2VuJUMzJUE0cyUyMEZpbmxhbmQlMjBoYXJib3J8ZW58MXwwfHx8MTc4MzcxNjIwM3ww&ixlib=rb-4.1.0&crop=entropy&cs=tinysrgb&fit=max&fm=jpg&q=80&w=1080"},{"placeId":"suomenlinna","name":"Suomenlinna Fortress","nameIt":"Suomenlinna","type":"ISLAND","lat":60.2845,"lng":24.9881,"regionId":"uusimaa","regionName":"Uusimaa","regionEmoji":"🏛️","image":"https://images.unsplash.com/photo-1626698522872-94b0cfe5ebcc?ixid=M3w5NTU4NjF8MHwxfHNlYXJjaHwxfHxTdW9tZW5saW5uYSUyMGZvcnRyZXNzJTIwSGVsc2lua2l8ZW58MXwwfHx8MTc4MzcxNjIwNnww&ixlib=rb-4.1.0&crop=entropy&cs=tinysrgb&fit=max&fm=jpg&q=80&w=1080"},{"placeId":"lovisa","name":"Loviisa","nameIt":"Loviisa","type":"COASTAL","lat":60.4567,"lng":25.7089,"regionId":"uusimaa","regionName":"Uusimaa","regionEmoji":"🏛️","image":"https://images.unsplash.com/photo-1578054320988-a2ac16f42591?ixid=M3w5NTU4NjF8MHwxfHNlYXJjaHwxfHxMb3ZpaXNhJTIwRmlubGFuZCUyMHRvd258ZW58MXwwfHx8MTc4MzcxNjIwOHww&ixlib=rb-4.1.0&crop=entropy&cs=tinysrgb&fit=max&fm=jpg&q=80&w=1080"},{"placeId":"turku","name":"Turku","nameIt":"Turku","type":"CITY","lat":60.4518,"lng":22.2666,"regionId":"varsinais_suomi","regionName":"Southwest Finland","regionEmoji":"🏰","image":"https://images.unsplash.com/photo-1671366660419-ac19856a6ebf?ixid=M3w5NTU4NjF8MHwxfHNlYXJjaHwxfHxUdXJrdSUyMENhc3RsZSUyMEZpbmxhbmR8ZW58MXwwfHx8MTc4MzcxNjE5M3ww&ixlib=rb-4.1.0&crop=entropy&cs=tinysrgb&fit=max&fm=jpg&q=80&w=1080"},{"placeId":"naantali","name":"Naantali","nameIt":"Naantali","type":"COASTAL","lat":60.4667,"lng":22.0167,"regionId":"varsinais_suomi","regionName":"Southwest Finland","regionEmoji":"🏰","image":"https://images.unsplash.com/photo-1704279558207-806f74f3f2e5?ixid=M3w5NTU4NjF8MHwxfHNlYXJjaHwxfHxOYWFudGFsaSUyME9sZCUyMFRvd24lMjBGaW5sYW5kfGVufDF8MHx8fDE3ODM3MTYyNjd8MA&ixlib=rb-4.1.0&crop=entropy&cs=tinysrgb&fit=max&fm=jpg&q=80&w=1080"},{"placeId":"aland_islands","name":"Åland Islands","nameIt":"Ahvenanmaa","type":"ISLAND","lat":60.1333,"lng":20.1333,"regionId":"varsinais_suomi","regionName":"Southwest Finland","regionEmoji":"🏰"},{"placeId":"mariehamn","name":"Mariehamn","nameIt":"Maarianhamina","type":"CITY","lat":60.097,"lng":19.9488,"regionId":"varsinais_suomi","regionName":"Southwest Finland","regionEmoji":"🏰"},{"placeId":"uusikaupunki","name":"Uusikaupunki","nameIt":"Uusikaupunki","type":"COASTAL","lat":60.8167,"lng":21.65,"regionId":"varsinais_suomi","regionName":"Southwest Finland","regionEmoji":"🏰"},{"placeId":"pori","name":"Pori","nameIt":"Pori","type":"CITY","lat":61.4849,"lng":21.793,"regionId":"varsinais_suomi","regionName":"Southwest Finland","regionEmoji":"🏰","image":"https://images.unsplash.com/photo-1596706247385-c349c7466f85?ixid=M3w5NTU4NjF8MHwxfHNlYXJjaHwxfHxQb3JpJTIwSmF6eiUyMEZlc3RpdmFsfGVufDF8MHx8fDE3ODM3MTYyNzR8MA&ixlib=rb-4.1.0&crop=entropy&cs=tinysrgb&fit=max&fm=jpg&q=80&w=1080"},{"placeId":"turku_archipelago","name":"Turku Archipelago","nameIt":"Turun saaristo","type":"NATURE","lat":60.2333,"lng":21.5,"regionId":"varsinais_suomi","regionName":"Southwest Finland","regionEmoji":"🏰"},{"placeId":"moninais_island","name":"Moninais Island","nameIt":"Moninais","type":"ISLAND","lat":60.15,"lng":21.4833,"regionId":"varsinais_suomi","regionName":"Southwest Finland","regionEmoji":"🏰","image":"https://images.unsplash.com/photo-1558001001-791557d4acad?ixid=M3w5NTU4NjF8MHwxfHNlYXJjaHwxfHxNb25pbmFpcyUyMGlzbGFuZCUyMFR1cmt1JTIwYXJjaGlwZWxhZ298ZW58MXwwfHx8MTc4MzcxNjI3Nnww&ixlib=rb-4.1.0&crop=entropy&cs=tinysrgb&fit=max&fm=jpg&q=80&w=1080"},{"placeId":"laitila","name":"Laitila","nameIt":"Laitila","type":"TOWN","lat":60.85,"lng":21.3333,"regionId":"varsinais_suomi","regionName":"Southwest Finland","regionEmoji":"🏰"},{"placeId":"kustavi","name":"Kustavi","nameIt":"Kustavi","type":"COASTAL","lat":60.3667,"lng":21.3833,"regionId":"varsinais_suomi","regionName":"Southwest Finland","regionEmoji":"🏰"},{"placeId":"rauma","name":"Rauma","nameIt":"Rauma","type":"CITY","lat":61.1282,"lng":21.5095,"regionId":"varsinais_suomi","regionName":"Southwest Finland","regionEmoji":"🏰","image":"https://images.unsplash.com/photo-1780676421825-c7be9c50f635?ixid=M3w5NTU4NjF8MHwxfHNlYXJjaHwxfHxSYXVtYSUyMG9sZCUyMHRvd24lMjB3b29kZW58ZW58MXwwfHx8MTc4MzcxNjI4MHww&ixlib=rb-4.1.0&crop=entropy&cs=tinysrgb&fit=max&fm=jpg&q=80&w=1080"},{"placeId":"salmi_strait","name":"Salmi Strait National Park","nameIt":"Salmin kansallispuisto","type":"NATURE","lat":60.85,"lng":21.15,"regionId":"varsinais_suomi","regionName":"Southwest Finland","regionEmoji":"🏰"},{"placeId":"pori","name":"Pori","nameIt":"Pori","type":"CITY","lat":61.505,"lng":21.7961,"regionId":"satakunta","regionName":"Satakunta","regionEmoji":"🎵","image":"https://images.unsplash.com/photo-1568008842610-6642e5afe517?ixid=M3w5NTU4NjF8MHwxfHNlYXJjaHwxfHxQb3JpJTIwRmlubGFuZCUyMGNpdHl8ZW58MXwwfHx8MTc4MzcxNjI3MHww&ixlib=rb-4.1.0&crop=entropy&cs=tinysrgb&fit=max&fm=jpg&q=80&w=1080"},{"placeId":"rauma","name":"Rauma","nameIt":"Rauma","type":"COASTAL","lat":61.1281,"lng":21.5007,"regionId":"satakunta","regionName":"Satakunta","regionEmoji":"🎵","image":"https://images.unsplash.com/photo-1780676421825-c7be9c50f635?ixid=M3w5NTU4NjF8MHwxfHNlYXJjaHwxfHxSYXVtYSUyMG9sZCUyMHRvd24lMjBGaW5sYW5kfGVufDF8MHx8fDE3ODM3MTYyNzJ8MA&ixlib=rb-4.1.0&crop=entropy&cs=tinysrgb&fit=max&fm=jpg&q=80&w=1080"},{"placeId":"eurajoki","name":"Eurajoki","nameIt":"Eurajoki","type":"TOWN","lat":61.5944,"lng":21.5461,"regionId":"satakunta","regionName":"Satakunta","regionEmoji":"🎵","image":"https://images.unsplash.com/photo-1584902964941-a0c3b89b0e6c?ixid=M3w5NTU4NjF8MHwxfHNlYXJjaHwxfHxFdXJham9raSUyMEZpbmxhbmQlMjByaXZlcnxlbnwxfDB8fHwxNzgzNzE2Mjc0fDA&ixlib=rb-4.1.0&crop=entropy&cs=tinysrgb&fit=max&fm=jpg&q=80&w=1080"},{"placeId":"harjavalta","name":"Harjavalta","nameIt":"Harjavalta","type":"TOWN","lat":61.6528,"lng":22.7369,"regionId":"satakunta","regionName":"Satakunta","regionEmoji":"🎵"},{"placeId":"kokemaki","name":"Kokemäki","nameIt":"Kokemäki","type":"TOWN","lat":61.3236,"lng":22.0286,"regionId":"satakunta","regionName":"Satakunta","regionEmoji":"🎵"},{"placeId":"sakyla","name":"Säkylä","nameIt":"Säkylä","type":"TOWN","lat":61.1886,"lng":22.0664,"regionId":"satakunta","regionName":"Satakunta","regionEmoji":"🎵","image":"https://images.unsplash.com/photo-1597686512950-fd9e47e920b1?ixid=M3w5NTU4NjF8MHwxfHNlYXJjaHwxfHxTJUMzJUE0a3lsJUMzJUE0JTIwRmlubGFuZCUyMGxha2V8ZW58MXwwfHx8MTc4MzcxNjI3N3ww&ixlib=rb-4.1.0&crop=entropy&cs=tinysrgb&fit=max&fm=jpg&q=80&w=1080"},{"placeId":"merikarvia","name":"Merikarvia","nameIt":"Merikarvia","type":"COASTAL","lat":61.9733,"lng":21.5144,"regionId":"satakunta","regionName":"Satakunta","regionEmoji":"🎵"},{"placeId":"vampula","name":"Vampula","nameIt":"Vampula","type":"VILLAGE","lat":61.0342,"lng":22.4022,"regionId":"satakunta","regionName":"Satakunta","regionEmoji":"🎵"},{"placeId":"karvia","name":"Karvia","nameIt":"Karvia","type":"TOWN","lat":61.6458,"lng":21.2458,"regionId":"satakunta","regionName":"Satakunta","regionEmoji":"🎵","image":"https://images.unsplash.com/photo-1578054320988-a2ac16f42591?ixid=M3w5NTU4NjF8MHwxfHNlYXJjaHwxfHxLYXJ2aWElMjBGaW5sYW5kJTIwdG93bnxlbnwxfDB8fHwxNzgzNzE2MjgxfDA&ixlib=rb-4.1.0&crop=entropy&cs=tinysrgb&fit=max&fm=jpg&q=80&w=1080"},{"placeId":"kiukainen","name":"Kiukainen","nameIt":"Kiukainen","type":"TOWN","lat":61.4397,"lng":22.4958,"regionId":"satakunta","regionName":"Satakunta","regionEmoji":"🎵"},{"placeId":"hameenlinna","name":"Hämeenlinna","nameIt":"Hämeenlinna","type":"CITY","lat":61.0001,"lng":24.7628,"regionId":"kanta_hame","regionName":"Kanta-Häme","regionEmoji":"🏛️"},{"placeId":"hame_castle","name":"Häme Castle","nameIt":"Hämeenlinna","type":"LANDMARK","lat":61.0004,"lng":24.7552,"regionId":"kanta_hame","regionName":"Kanta-Häme","regionEmoji":"🏛️"},{"placeId":"sibelius_birthplace","name":"Sibelius Birthplace","nameIt":"Sibelius syntymäkoti","type":"LANDMARK","lat":60.9752,"lng":24.7833,"regionId":"kanta_hame","regionName":"Kanta-Häme","regionEmoji":"🏛️"},{"placeId":"vanajavesi_lake","name":"Lake Vanajavesi","nameIt":"Vanajavesi","type":"NATURE","lat":61.05,"lng":24.8,"regionId":"kanta_hame","regionName":"Kanta-Häme","regionEmoji":"🏛️"},{"placeId":"riihimaki","name":"Riihimäki","nameIt":"Riihimäki","type":"CITY","lat":60.8169,"lng":25.0481,"regionId":"kanta_hame","regionName":"Kanta-Häme","regionEmoji":"🏛️"},{"placeId":"glass_museum","name":"Glass Museum Riihimäki","nameIt":"Lasi-museo","type":"LANDMARK","lat":60.8169,"lng":25.0481,"regionId":"kanta_hame","regionName":"Kanta-Häme","regionEmoji":"🏛️"},{"placeId":"janakkala","name":"Janakkala","nameIt":"Janakkala","type":"TOWN","lat":60.9333,"lng":24.5667,"regionId":"kanta_hame","regionName":"Kanta-Häme","regionEmoji":"🏛️","image":"https://images.unsplash.com/photo-1602272428657-90dc42acc013?ixid=M3w5NTU4NjF8MHwxfHNlYXJjaHwxfHxKYW5ha2thbGElMjBGaW5sYW5kJTIwY291bnRyeXNpZGV8ZW58MXwwfHx8MTc4MzcxNjM0MXww&ixlib=rb-4.1.0&crop=entropy&cs=tinysrgb&fit=max&fm=jpg&q=80&w=1080"},{"placeId":"tuulos","name":"Tuulos","nameIt":"Tuulos","type":"VILLAGE","lat":60.8833,"lng":24.5333,"regionId":"kanta_hame","regionName":"Kanta-Häme","regionEmoji":"🏛️","image":"https://images.unsplash.com/photo-1641483226564-6d88086888fd?ixid=M3w5NTU4NjF8MHwxfHNlYXJjaHwxfHxUdXVsb3MlMjBGaW5sYW5kJTIwdmlsbGFnZXxlbnwxfDB8fHwxNzgzNzE2MzQzfDA&ixlib=rb-4.1.0&crop=entropy&cs=tinysrgb&fit=max&fm=jpg&q=80&w=1080"},{"placeId":"forssan_alue","name":"Forssa","nameIt":"Forssa","type":"TOWN","lat":60.8167,"lng":23.6167,"regionId":"kanta_hame","regionName":"Kanta-Häme","regionEmoji":"🏛️","image":"https://images.unsplash.com/photo-1602272438055-adbda11a9513?ixid=M3w5NTU4NjF8MHwxfHNlYXJjaHwxfHxGb3Jzc2ElMjBGaW5sYW5kJTIwdG93bnxlbnwxfDB8fHwxNzgzNzE2MzQ1fDA&ixlib=rb-4.1.0&crop=entropy&cs=tinysrgb&fit=max&fm=jpg&q=80&w=1080"},{"placeId":"hatula_church","name":"Hatula Church","nameIt":"Hatula kirkko","type":"LANDMARK","lat":60.975,"lng":24.625,"regionId":"kanta_hame","regionName":"Kanta-Häme","regionEmoji":"🏛️","image":"https://images.unsplash.com/photo-1653750934543-aebe598499f3?ixid=M3w5NTU4NjF8MHwxfHNlYXJjaHwxfHxIYXR1bGElMjBDaHVyY2glMjBtZWRpZXZhbCUyMHN0b25lfGVufDF8MHx8fDE3ODM3MTYzNDd8MA&ixlib=rb-4.1.0&crop=entropy&cs=tinysrgb&fit=max&fm=jpg&q=80&w=1080"},{"placeId":"linnavuori","name":"Linnavuori","nameIt":"Linnavuori","type":"NATURE","lat":61.08,"lng":24.95,"regionId":"kanta_hame","regionName":"Kanta-Häme","regionEmoji":"🏛️","image":"https://images.unsplash.com/photo-1641483226564-6d88086888fd?ixid=M3w5NTU4NjF8MHwxfHNlYXJjaHwxfHxMaW5uYXZ1b3JpJTIwaGlsbCUyMHZpZXdwb2ludCUyMEZpbmxhbmR8ZW58MXwwfHx8MTc4MzcxNjM0OXww&ixlib=rb-4.1.0&crop=entropy&cs=tinysrgb&fit=max&fm=jpg&q=80&w=1080"},{"placeId":"oijala_rapids","name":"Oijala Rapids","nameIt":"Oijalan kosket","type":"NATURE","lat":61.2,"lng":24.8,"regionId":"kanta_hame","regionName":"Kanta-Häme","regionEmoji":"🏛️","image":"https://images.unsplash.com/photo-1728494843836-de2c853ad62a?ixid=M3w5NTU4NjF8MHwxfHNlYXJjaHwxfHxPaWphbGElMjBSYXBpZHMlMjB3YXRlcmZhbGwlMjBGaW5sYW5kfGVufDF8MHx8fDE3ODM3MTYzNTF8MA&ixlib=rb-4.1.0&crop=entropy&cs=tinysrgb&fit=max&fm=jpg&q=80&w=1080"},{"placeId":"tampere","name":"Tampere","nameIt":"Tampere","type":"CITY","lat":61.4978,"lng":23.761,"regionId":"pirkanmaa","regionName":"Pirkanmaa","regionEmoji":"🏭","image":"https://images.unsplash.com/photo-1670575883083-ea9022ec3599?ixid=M3w5NTU4NjF8MHwxfHNlYXJjaHwxfHxUYW1wZXJlJTIwY2l0eSUyMEZpbmxhbmR8ZW58MXwwfHx8MTc4MzcxNjQwM3ww&ixlib=rb-4.1.0&crop=entropy&cs=tinysrgb&fit=max&fm=jpg&q=80&w=1080"},{"placeId":"moomin_world","name":"Moomin World","nameIt":"Muumimaailma","type":"ISLAND","lat":60.3747,"lng":21.6592,"regionId":"pirkanmaa","regionName":"Pirkanmaa","regionEmoji":"🏭"},{"placeId":"naantali","name":"Naantali","nameIt":"Naantali","type":"COASTAL","lat":60.4667,"lng":21.7833,"regionId":"pirkanmaa","regionName":"Pirkanmaa","regionEmoji":"🏭","image":"https://images.unsplash.com/photo-1704279558207-806f74f3f2e5?ixid=M3w5NTU4NjF8MHwxfHNlYXJjaHwxfHxOYWFudGFsaSUyME9sZCUyMFRvd24lMjBGaW5sYW5kfGVufDF8MHx8fDE3ODM3MTYyNjd8MA&ixlib=rb-4.1.0&crop=entropy&cs=tinysrgb&fit=max&fm=jpg&q=80&w=1080"},{"placeId":"pori","name":"Pori","nameIt":"Pori","type":"CITY","lat":61.5043,"lng":21.8029,"regionId":"pirkanmaa","regionName":"Pirkanmaa","regionEmoji":"🏭","image":"https://images.unsplash.com/photo-1596706247385-c349c7466f85?ixid=M3w5NTU4NjF8MHwxfHNlYXJjaHwxfHxQb3JpJTIwSmF6eiUyMGZlc3RpdmFsJTIwRmlubGFuZHxlbnwxfDB8fHwxNzgzNzE2NDA4fDA&ixlib=rb-4.1.0&crop=entropy&cs=tinysrgb&fit=max&fm=jpg&q=80&w=1080"},{"placeId":"nokia","name":"Nokia","nameIt":"Nokia","type":"TOWN","lat":61.4922,"lng":23.5169,"regionId":"pirkanmaa","regionName":"Pirkanmaa","regionEmoji":"🏭"},{"placeId":"ylojoki","name":"Ylojarvi","nameIt":"Ylojarvi","type":"TOWN","lat":61.6131,"lng":23.6067,"regionId":"pirkanmaa","regionName":"Pirkanmaa","regionEmoji":"🏭"},{"placeId":"virrat","name":"Virrat","nameIt":"Virrat","type":"TOWN","lat":62.2369,"lng":23.7844,"regionId":"pirkanmaa","regionName":"Pirkanmaa","regionEmoji":"🏭"},{"placeId":"teisko","name":"Teisko","nameIt":"Teisko","type":"NATURE","lat":61.75,"lng":23.95,"regionId":"pirkanmaa","regionName":"Pirkanmaa","regionEmoji":"🏭"},{"placeId":"kaivanto","name":"Kaivanto Canal","nameIt":"Kaivannon kanava","type":"LANDMARK","lat":61.5167,"lng":23.5833,"regionId":"pirkanmaa","regionName":"Pirkanmaa","regionEmoji":"🏭"},{"placeId":"rapola_castle","name":"Rapola Castle Ruins","nameIt":"Rapolan linna","type":"LANDMARK","lat":61.5667,"lng":23.6833,"regionId":"pirkanmaa","regionName":"Pirkanmaa","regionEmoji":"🏭"},{"placeId":"saarkoski","name":"Saärkoski","nameIt":"Saärkoski","type":"LANDMARK","lat":61.505,"lng":23.5758,"regionId":"pirkanmaa","regionName":"Pirkanmaa","regionEmoji":"🏭"},{"placeId":"huhtamaki_nature","name":"Huhtamäki Nature Reserve","nameIt":"Huhtamäen luonnonsuojelualue","type":"NATURE","lat":61.4167,"lng":21.6667,"regionId":"pirkanmaa","regionName":"Pirkanmaa","regionEmoji":"🏭"},{"placeId":"lahti","name":"Lahti","nameIt":"Lahti","type":"CITY","lat":60.9827,"lng":25.6612,"regionId":"paijat_hame","regionName":"Päijät-Häme","regionEmoji":"⛷️"},{"placeId":"lake_paijanne","name":"Lake Päijänne","nameIt":"Päijänne","type":"NATURE","lat":61.2,"lng":25.8,"regionId":"paijat_hame","regionName":"Päijät-Häme","regionEmoji":"⛷️"},{"placeId":"hollola","name":"Hollola","nameIt":"Hollola","type":"TOWN","lat":60.9328,"lng":25.5264,"regionId":"paijat_hame","regionName":"Päijät-Häme","regionEmoji":"⛷️"},{"placeId":"heinola","name":"Heinola","nameIt":"Heinola","type":"TOWN","lat":61.2,"lng":26.0333,"regionId":"paijat_hame","regionName":"Päijät-Häme","regionEmoji":"⛷️"},{"placeId":"lahti_sports_center","name":"Lahti Sports Centre","nameIt":"Lahden urheilukeskus","type":"LANDMARK","lat":60.9544,"lng":25.6328,"regionId":"paijat_hame","regionName":"Päijät-Häme","regionEmoji":"⛷️"},{"placeId":"sibelius_monument","name":"Sibelius Monument","nameIt":"Sibelius-muistomerkin","type":"LANDMARK","lat":60.9869,"lng":25.6494,"regionId":"paijat_hame","regionName":"Päijät-Häme","regionEmoji":"⛷️"},{"placeId":"kumppananlahti","name":"Kumppananlahti","nameIt":"Kumppananlahti","type":"NATURE","lat":61.0667,"lng":25.9,"regionId":"paijat_hame","regionName":"Päijät-Häme","regionEmoji":"⛷️"},{"placeId":"messila","name":"Messila","nameIt":"Messila","type":"LANDMARK","lat":60.8667,"lng":25.75,"regionId":"paijat_hame","regionName":"Päijät-Häme","regionEmoji":"⛷️"},{"placeId":"art_museum_lahti","name":"Lahti Art Museum","nameIt":"Lahden taidemuseo","type":"LANDMARK","lat":60.9827,"lng":25.6612,"regionId":"paijat_hame","regionName":"Päijät-Häme","regionEmoji":"⛷️"},{"placeId":"asikkala","name":"Asikkala","nameIt":"Asikkala","type":"TOWN","lat":61.2833,"lng":25.95,"regionId":"paijat_hame","regionName":"Päijät-Häme","regionEmoji":"⛷️"},{"placeId":"kotka","name":"Kotka","nameIt":"Kotka","type":"CITY","lat":60.3825,"lng":26.9456,"regionId":"kymenlaakso","regionName":"Kymenlaakso","regionEmoji":"🌊"},{"placeId":"hamina","name":"Hamina","nameIt":"Hamina","type":"TOWN","lat":60.5689,"lng":27.1956,"regionId":"kymenlaakso","regionName":"Kymenlaakso","regionEmoji":"🌊"},{"placeId":"langinkoski_rapids","name":"Langinkoski Rapids","nameIt":"Langinkosken koskipaikat","type":"LANDMARK","lat":60.4722,"lng":26.4139,"regionId":"kymenlaakso","regionName":"Kymenlaakso","regionEmoji":"🌊"},{"placeId":"kyminlinna","name":"Kyminlinna Fortress Ruins","nameIt":"Kyminlinna","type":"LANDMARK","lat":60.4183,"lng":26.2569,"regionId":"kymenlaakso","regionName":"Kymenlaakso","regionEmoji":"🌊"},{"placeId":"anjalanvuori","name":"Anjalanvuori","nameIt":"Anjalanvuori","type":"NATURE","lat":60.5444,"lng":26.0806,"regionId":"kymenlaakso","regionName":"Kymenlaakso","regionEmoji":"🌊"},{"placeId":"sapokka_water_park","name":"Sapokka Water Park","nameIt":"Sapokka","type":"LANDMARK","lat":60.3767,"lng":26.9567,"regionId":"kymenlaakso","regionName":"Kymenlaakso","regionEmoji":"🌊"},{"placeId":"kotka_maritime_museum","name":"Kotka Maritime Museum","nameIt":"Kotkan merenkulkumuseo","type":"LANDMARK","lat":60.3733,"lng":26.9592,"regionId":"kymenlaakso","regionName":"Kymenlaakso","regionEmoji":"🌊"},{"placeId":"tammio_island","name":"Tammio Island","nameIt":"Tammio","type":"ISLAND","lat":60.3456,"lng":26.8933,"regionId":"kymenlaakso","regionName":"Kymenlaakso","regionEmoji":"🌊"},{"placeId":"kouvola","name":"Kouvola","nameIt":"Kouvola","type":"CITY","lat":60.8665,"lng":26.7017,"regionId":"kymenlaakso","regionName":"Kymenlaakso","regionEmoji":"🌊"},{"placeId":"virolahti","name":"Virolahti","nameIt":"Virolahti","type":"TOWN","lat":60.3056,"lng":27.2694,"regionId":"kymenlaakso","regionName":"Kymenlaakso","regionEmoji":"🌊"},{"placeId":"mussalo_island","name":"Mussalo Island","nameIt":"Mussalo","type":"ISLAND","lat":60.3622,"lng":26.8544,"regionId":"kymenlaakso","regionName":"Kymenlaakso","regionEmoji":"🌊"},{"placeId":"kaunissaari_island","name":"Kaunissaari Island","nameIt":"Kaunissaari","type":"ISLAND","lat":60.2867,"lng":27.3533,"regionId":"kymenlaakso","regionName":"Kymenlaakso","regionEmoji":"🌊"},{"placeId":"lappeenranta","name":"Lappeenranta","nameIt":"Lappeenranta","type":"CITY","lat":61.0627,"lng":28.1896,"regionId":"south_karelia","regionName":"South Karelia","regionEmoji":"🏰"},{"placeId":"imatra","name":"Imatra","nameIt":"Imatra","type":"CITY","lat":61.1757,"lng":28.7686,"regionId":"south_karelia","regionName":"South Karelia","regionEmoji":"🏰"},{"placeId":"punkaharjun","name":"Punkaharju","nameIt":"Punkaharju","type":"NATURE","lat":61.7971,"lng":29.3383,"regionId":"south_karelia","regionName":"South Karelia","regionEmoji":"🏰"},{"placeId":"saimaa_lake","name":"Lake Saimaa","nameIt":"Saimaa","type":"NATURE","lat":61.5,"lng":29,"regionId":"south_karelia","regionName":"South Karelia","regionEmoji":"🏰"},{"placeId":"linnansaari","name":"Linnansaari National Park","nameIt":"Linnansaaren kansallispuisto","type":"ISLAND","lat":61.8658,"lng":29.3925,"regionId":"south_karelia","regionName":"South Karelia","regionEmoji":"🏰"},{"placeId":"rukolahti","name":"Ruokolahti","nameIt":"Ruokolahti","type":"TOWN","lat":61.5158,"lng":28.9358,"regionId":"south_karelia","regionName":"South Karelia","regionEmoji":"🏰"},{"placeId":"savonlinna","name":"Savonlinna","nameIt":"Savonlinna","type":"CITY","lat":61.8675,"lng":28.8765,"regionId":"south_karelia","regionName":"South Karelia","regionEmoji":"🏰"},{"placeId":"kerimaki","name":"Kerimäki","nameIt":"Kerimäki","type":"TOWN","lat":61.7628,"lng":29.2278,"regionId":"south_karelia","regionName":"South Karelia","regionEmoji":"🏰"},{"placeId":"antreanvuori","name":"Antreanvuori","nameIt":"Antreanvuori","type":"LANDMARK","lat":61.6422,"lng":28.1975,"regionId":"south_karelia","regionName":"South Karelia","regionEmoji":"🏰"},{"placeId":"sulkava","name":"Sulkava","nameIt":"Sulkava","type":"TOWN","lat":61.8392,"lng":28.6922,"regionId":"south_karelia","regionName":"South Karelia","regionEmoji":"🏰"},{"placeId":"parikkala","name":"Parikkala","nameIt":"Parikkala","type":"TOWN","lat":61.9088,"lng":29.4125,"regionId":"south_karelia","regionName":"South Karelia","regionEmoji":"🏰"},{"placeId":"savonlinna","name":"Savonlinna","nameIt":"Savonlinna","type":"CITY","lat":61.8669,"lng":28.8926,"regionId":"etela_savo","regionName":"South Savo","regionEmoji":"🛶"},{"placeId":"olavinlinna_castle","name":"Olavinlinna Castle","nameIt":"Olavinlinnan linna","type":"LANDMARK","lat":61.8697,"lng":28.909,"regionId":"etela_savo","regionName":"South Savo","regionEmoji":"🛶"},{"placeId":"mikkeli","name":"Mikkeli","nameIt":"Mikkeli","type":"CITY","lat":61.417,"lng":27.273,"regionId":"etela_savo","regionName":"South Savo","regionEmoji":"🛶"},{"placeId":"lake_saimaa","name":"Lake Saimaa","nameIt":"Saimaa","type":"NATURE","lat":61.85,"lng":28.5,"regionId":"etela_savo","regionName":"South Savo","regionEmoji":"🛶"},{"placeId":"kerimaki","name":"Kerimäki","nameIt":"Kerimäki","type":"TOWN","lat":61.8289,"lng":29.2533,"regionId":"etela_savo","regionName":"South Savo","regionEmoji":"🛶"},{"placeId":"punkaharjun","name":"Punkaharju","nameIt":"Punkaharju","type":"NATURE","lat":61.8028,"lng":29.3219,"regionId":"etela_savo","regionName":"South Savo","regionEmoji":"🛶"},{"placeId":"puula","name":"Puula","nameIt":"Puula","type":"VILLAGE","lat":61.7661,"lng":29.1433,"regionId":"etela_savo","regionName":"South Savo","regionEmoji":"🛶"},{"placeId":"rantasalmi","name":"Rantasalmi","nameIt":"Rantasalmi","type":"TOWN","lat":61.9236,"lng":28.6122,"regionId":"etela_savo","regionName":"South Savo","regionEmoji":"🛶"},{"placeId":"pieksami","name":"Pieksämäki","nameIt":"Pieksämäki","type":"TOWN","lat":62.3089,"lng":26.9344,"regionId":"etela_savo","regionName":"South Savo","regionEmoji":"🛶"},{"placeId":"linnansaari","name":"Linnansaari National Park","nameIt":"Linnansaaren kansallispuisto","type":"ISLAND","lat":61.7833,"lng":29.5,"regionId":"etela_savo","regionName":"South Savo","regionEmoji":"🛶"},{"placeId":"savonranta","name":"Savonranta","nameIt":"Savonranta","type":"VILLAGE","lat":62.0744,"lng":29.2014,"regionId":"etela_savo","regionName":"South Savo","regionEmoji":"🛶"},{"placeId":"kuopio","name":"Kuopio","nameIt":"Kuopio","type":"CITY","lat":63.0961,"lng":25.9575,"regionId":"north_savo","regionName":"North Savo","regionEmoji":"🏞️"},{"placeId":"iisalmi","name":"Iisalmi","nameIt":"Iisalmi","type":"CITY","lat":63.5578,"lng":26.1918,"regionId":"north_savo","regionName":"North Savo","regionEmoji":"🏞️"},{"placeId":"siilinjarvi","name":"Siilinjärvi","nameIt":"Siilinjärvi","type":"TOWN","lat":63.0419,"lng":25.7325,"regionId":"north_savo","regionName":"North Savo","regionEmoji":"🏞️"},{"placeId":"lake_kallavesi","name":"Lake Kallavesi","nameIt":"Kallavesi","type":"NATURE","lat":63.1,"lng":25.9,"regionId":"north_savo","regionName":"North Savo","regionEmoji":"🏞️"},{"placeId":"puijo_tower","name":"Puijo Tower","nameIt":"Puijo-torni","type":"LANDMARK","lat":63.1027,"lng":25.9256,"regionId":"north_savo","regionName":"North Savo","regionEmoji":"🏞️"},{"placeId":"rautalampi","name":"Rautalampi","nameIt":"Rautalampi","type":"TOWN","lat":62.8439,"lng":26.3525,"regionId":"north_savo","regionName":"North Savo","regionEmoji":"🏞️"},{"placeId":"karttula","name":"Karttula","nameIt":"Karttula","type":"VILLAGE","lat":62.9622,"lng":26.8919,"regionId":"north_savo","regionName":"North Savo","regionEmoji":"🏞️"},{"placeId":"nilsia","name":"Nilsiä","nameIt":"Nilsiä","type":"TOWN","lat":63.1322,"lng":26.7147,"regionId":"north_savo","regionName":"North Savo","regionEmoji":"🏞️"},{"placeId":"sonkajarvi","name":"Sonkajärvi","nameIt":"Sonkajärvi","type":"TOWN","lat":63.4919,"lng":26.3744,"regionId":"north_savo","regionName":"North Savo","regionEmoji":"🏞️"},{"placeId":"varkaus","name":"Varkaus","nameIt":"Varkaus","type":"CITY","lat":62.5911,"lng":26.9722,"regionId":"north_savo","regionName":"North Savo","regionEmoji":"🏞️"},{"placeId":"joensuu","name":"Joensuu","nameIt":"Joensuu","type":"CITY","lat":62.601,"lng":29.763,"regionId":"north_karelia","regionName":"North Karelia","regionEmoji":"🌲"},{"placeId":"koli_national_park","name":"Koli National Park","nameIt":"Kolin kansallispuisto","type":"NATURE","lat":63.037,"lng":29.627,"regionId":"north_karelia","regionName":"North Karelia","regionEmoji":"🌲"},{"placeId":"nurmes","name":"Nurmes","nameIt":"Nurmes","type":"TOWN","lat":63.538,"lng":29.147,"regionId":"north_karelia","regionName":"North Karelia","regionEmoji":"🌲"},{"placeId":"lake_pielinen","name":"Lake Pielinen","nameIt":"Pielinen","type":"NATURE","lat":63.2,"lng":29.5,"regionId":"north_karelia","regionName":"North Karelia","regionEmoji":"🌲"},{"placeId":"ilomantsi","name":"Ilomantsi","nameIt":"Ilomantsi","type":"TOWN","lat":63.074,"lng":30.954,"regionId":"north_karelia","regionName":"North Karelia","regionEmoji":"🌲"},{"placeId":"lieksa","name":"Lieksa","nameIt":"Lieksa","type":"TOWN","lat":63.268,"lng":30.537,"regionId":"north_karelia","regionName":"North Karelia","regionEmoji":"🌲"},{"placeId":"koli_ski_resort","name":"Koli Ski Resort","nameIt":"Koli hiihtokeskus","type":"LANDMARK","lat":63.034,"lng":29.641,"regionId":"north_karelia","regionName":"North Karelia","regionEmoji":"🌲"},{"placeId":"carelicum","name":"Carelicum","nameIt":"Carelicum","type":"LANDMARK","lat":62.605,"lng":29.763,"regionId":"north_karelia","regionName":"North Karelia","regionEmoji":"🌲"},{"placeId":"polvela_village","name":"Polvela Village","nameIt":"Polvela","type":"VILLAGE","lat":63.001,"lng":29.489,"regionId":"north_karelia","regionName":"North Karelia","regionEmoji":"🌲"},{"placeId":"pielisjoki_river","name":"Pielisjoki River","nameIt":"Pielisjoki","type":"NATURE","lat":62.65,"lng":29.8,"regionId":"north_karelia","regionName":"North Karelia","regionEmoji":"🌲"},{"placeId":"tahko_ski_resort","name":"Tahko Ski Resort","nameIt":"Tahko hiihtokeskus","type":"LANDMARK","lat":62.899,"lng":29.305,"regionId":"north_karelia","regionName":"North Karelia","regionEmoji":"🌲"},{"placeId":"outokumpu","name":"Outokumpu","nameIt":"Outokumpu","type":"TOWN","lat":62.713,"lng":29.04,"regionId":"north_karelia","regionName":"North Karelia","regionEmoji":"🌲"},{"placeId":"jyvaskyla","name":"Jyväskylä","nameIt":"Jyväskylä","type":"CITY","lat":62.2411,"lng":25.7482,"regionId":"central_finland","regionName":"Central Finland","regionEmoji":"🏃"},{"placeId":"alvar_aalto_museum","name":"Alvar Aalto Museum","nameIt":"Alvar Aallon museo","type":"LANDMARK","lat":62.2356,"lng":25.7628,"regionId":"central_finland","regionName":"Central Finland","regionEmoji":"🏃"},{"placeId":"suomenlinna_nature_reserve","name":"Jyväskylä Winter War Museum","nameIt":"Jyväskylän talvisodan museo","type":"LANDMARK","lat":62.2428,"lng":25.7392,"regionId":"central_finland","regionName":"Central Finland","regionEmoji":"🏃"},{"placeId":"muurame","name":"Muurame","nameIt":"Muurame","type":"TOWN","lat":62.3789,"lng":25.8556,"regionId":"central_finland","regionName":"Central Finland","regionEmoji":"🏃"},{"placeId":"uurainen","name":"Uurainen","nameIt":"Uurainen","type":"TOWN","lat":62.1144,"lng":25.3783,"regionId":"central_finland","regionName":"Central Finland","regionEmoji":"🏃"},{"placeId":"keuruu","name":"Keuruu","nameIt":"Keuruu","type":"TOWN","lat":62.2836,"lng":25.0639,"regionId":"central_finland","regionName":"Central Finland","regionEmoji":"🏃"},{"placeId":"viitasaari","name":"Viitasaari","nameIt":"Viitasaari","type":"TOWN","lat":63.0833,"lng":25.85,"regionId":"central_finland","regionName":"Central Finland","regionEmoji":"🏃"},{"placeId":"oravisaari","name":"Oravisaari Lake","nameIt":"Oravisaari","type":"NATURE","lat":62.3017,"lng":25.9667,"regionId":"central_finland","regionName":"Central Finland","regionEmoji":"🏃"},{"placeId":"petraeus_museum","name":"Petraeus Museum","nameIt":"Petraeus museo","type":"LANDMARK","lat":62.2381,"lng":25.7469,"regionId":"central_finland","regionName":"Central Finland","regionEmoji":"🏃"},{"placeId":"tarjanne_national_park","name":"Tarjanne National Park","nameIt":"Tarjanne kansallispuisto","type":"NATURE","lat":63.73,"lng":26.27,"regionId":"central_finland","regionName":"Central Finland","regionEmoji":"🏃"},{"placeId":"multia","name":"Multia","nameIt":"Multia","type":"VILLAGE","lat":62.4917,"lng":25.7667,"regionId":"central_finland","regionName":"Central Finland","regionEmoji":"🏃"},{"placeId":"jyvasjarvi_lake","name":"Jyväsjärvi Lake","nameIt":"Jyväsjärvi","type":"NATURE","lat":62.2444,"lng":25.7611,"regionId":"central_finland","regionName":"Central Finland","regionEmoji":"🏃"},{"placeId":"seinajoki","name":"Seinäjoki","nameIt":"Seinäjoki","type":"CITY","lat":62.7441,"lng":22.8394,"regionId":"south_ostrobothnia","regionName":"South Ostrobothnia","regionEmoji":"🎪"},{"placeId":"ilmajoki","name":"Ilmajoki","nameIt":"Ilmajoki","type":"TOWN","lat":62.7556,"lng":23.6667,"regionId":"south_ostrobothnia","regionName":"South Ostrobothnia","regionEmoji":"🎪"},{"placeId":"kuortane","name":"Kuortane","nameIt":"Kuortane","type":"TOWN","lat":62.605,"lng":23.4444,"regionId":"south_ostrobothnia","regionName":"South Ostrobothnia","regionEmoji":"🎪"},{"placeId":"jyvaskylan_seutu","name":"Ähtäri","nameIt":"Ähtäri","type":"TOWN","lat":63,"lng":24.1333,"regionId":"south_ostrobothnia","regionName":"South Ostrobothnia","regionEmoji":"🎪"},{"placeId":"lapua","name":"Lapua","nameIt":"Lapua","type":"TOWN","lat":62.8972,"lng":23.0161,"regionId":"south_ostrobothnia","regionName":"South Ostrobothnia","regionEmoji":"🎪"},{"placeId":"kauhajoki","name":"Kauhajoki","nameIt":"Kauhajoki","type":"TOWN","lat":62.3833,"lng":23.0667,"regionId":"south_ostrobothnia","regionName":"South Ostrobothnia","regionEmoji":"🎪"},{"placeId":"kurikka","name":"Kurikka","nameIt":"Kurikka","type":"TOWN","lat":62.5869,"lng":22.2969,"regionId":"south_ostrobothnia","regionName":"South Ostrobothnia","regionEmoji":"🎪"},{"placeId":"alavus","name":"Alavus","nameIt":"Alavus","type":"TOWN","lat":63.0333,"lng":23.6167,"regionId":"south_ostrobothnia","regionName":"South Ostrobothnia","regionEmoji":"🎪"},{"placeId":"jalasjarvi","name":"Jalasjärvi","nameIt":"Jalasjärvi","type":"TOWN","lat":62.3667,"lng":23.5333,"regionId":"south_ostrobothnia","regionName":"South Ostrobothnia","regionEmoji":"🎪"},{"placeId":"alajarvi","name":"Alajärvi","nameIt":"Alajärvi","type":"TOWN","lat":63.1833,"lng":23.8667,"regionId":"south_ostrobothnia","regionName":"South Ostrobothnia","regionEmoji":"🎪"},{"placeId":"toysa","name":"Töysä","nameIt":"Töysä","type":"VILLAGE","lat":62.9167,"lng":24.0833,"regionId":"south_ostrobothnia","regionName":"South Ostrobothnia","regionEmoji":"🎪"},{"placeId":"tuuri","name":"Tuuri","nameIt":"Tuuri","type":"VILLAGE","lat":62.4333,"lng":24.1667,"regionId":"south_ostrobothnia","regionName":"South Ostrobothnia","regionEmoji":"🎪"},{"placeId":"vaasa","name":"Vaasa","nameIt":"Vaasa","type":"CITY","lat":63.0961,"lng":21.617,"regionId":"ostrobothnia","regionName":"Ostrobothnia","regionEmoji":"🌊"},{"placeId":"pietarsaari","name":"Pietarsaari","nameIt":"Pietarsaari","type":"TOWN","lat":63.721,"lng":22.7047,"regionId":"ostrobothnia","regionName":"Ostrobothnia","regionEmoji":"🌊"},{"placeId":"kokkola","name":"Kokkola","nameIt":"Kokkola","type":"CITY","lat":63.8386,"lng":23.1291,"regionId":"ostrobothnia","regionName":"Ostrobothnia","regionEmoji":"🌊"},{"placeId":"seinajoki","name":"Seinäjoki","nameIt":"Seinäjoki","type":"CITY","lat":62.7845,"lng":22.8453,"regionId":"ostrobothnia","regionName":"Ostrobothnia","regionEmoji":"🌊"},{"placeId":"kalarantas","name":"Kalarantas","nameIt":"Kalarantas","type":"COASTAL","lat":63.1333,"lng":21.75,"regionId":"ostrobothnia","regionName":"Ostrobothnia","regionEmoji":"🌊"},{"placeId":"merenkurkku","name":"Merenkurkku National Park","nameIt":"Merenkurkun kansallispuisto","type":"NATURE","lat":63.85,"lng":22.4,"regionId":"ostrobothnia","regionName":"Ostrobothnia","regionEmoji":"🌊"},{"placeId":"vaasan_museo","name":"Vaasa City Museum","nameIt":"Vaasan kaupunginmuseo","type":"LANDMARK","lat":63.0955,"lng":21.6195,"regionId":"ostrobothnia","regionName":"Ostrobothnia","regionEmoji":"🌊"},{"placeId":"kuortaneen_urheiluopisto","name":"Kuortane Sports Institute","nameIt":"Kuortaneen urheiluopisto","type":"LANDMARK","lat":63.3447,"lng":23.5436,"regionId":"ostrobothnia","regionName":"Ostrobothnia","regionEmoji":"🌊"},{"placeId":"jyvaskylan_puolella","name":"Kauhava","nameIt":"Kauhava","type":"TOWN","lat":62.7231,"lng":23.0565,"regionId":"ostrobothnia","regionName":"Ostrobothnia","regionEmoji":"🌊"},{"placeId":"laihia","name":"Laihia","nameIt":"Laihia","type":"TOWN","lat":63.0597,"lng":21.9644,"regionId":"ostrobothnia","regionName":"Ostrobothnia","regionEmoji":"🌊"},{"placeId":"kokkola","name":"Kokkola","nameIt":"Kokkola","type":"CITY","lat":63.8379,"lng":23.1305,"regionId":"central_ostrobothnia","regionName":"Central Ostrobothnia","regionEmoji":"🏖️"},{"placeId":"pietarsaari","name":"Pietarsaari","nameIt":"Pietarsaari","type":"CITY","lat":63.7217,"lng":22.7042,"regionId":"central_ostrobothnia","regionName":"Central Ostrobothnia","regionEmoji":"🏖️"},{"placeId":"kalajoki","name":"Kalajoki","nameIt":"Kalajoki","type":"COASTAL","lat":64.2719,"lng":23.6622,"regionId":"central_ostrobothnia","regionName":"Central Ostrobothnia","regionEmoji":"🏖️"},{"placeId":"ylivieska","name":"Ylivieska","nameIt":"Ylivieska","type":"TOWN","lat":64.0542,"lng":24.3458,"regionId":"central_ostrobothnia","regionName":"Central Ostrobothnia","regionEmoji":"🏖️"},{"placeId":"kalaheikki","name":"Kalaheikki","nameIt":"Kalaheikki","type":"NATURE","lat":63.9167,"lng":23.8333,"regionId":"central_ostrobothnia","regionName":"Central Ostrobothnia","regionEmoji":"🏖️"},{"placeId":"keskus_museo","name":"Central Ostrobothnia Museum","nameIt":"Keski-Pohjanmaan museo","type":"LANDMARK","lat":63.8385,"lng":23.1298,"regionId":"central_ostrobothnia","regionName":"Central Ostrobothnia","regionEmoji":"🏖️"},{"placeId":"tankar_island","name":"Tankar Island","nameIt":"Tankar","type":"ISLAND","lat":63.6483,"lng":22.485,"regionId":"central_ostrobothnia","regionName":"Central Ostrobothnia","regionEmoji":"🏖️"},{"placeId":"kaustinen","name":"Kaustinen","nameIt":"Kaustinen","type":"TOWN","lat":63.9639,"lng":24.0389,"regionId":"central_ostrobothnia","regionName":"Central Ostrobothnia","regionEmoji":"🏖️"},{"placeId":"lohtaja","name":"Lohtaja","nameIt":"Lohtaja","type":"TOWN","lat":64.3508,"lng":23.7986,"regionId":"central_ostrobothnia","regionName":"Central Ostrobothnia","regionEmoji":"🏖️"},{"placeId":"himanka","name":"Himanka","nameIt":"Himanka","type":"VILLAGE","lat":64.3819,"lng":23.6497,"regionId":"central_ostrobothnia","regionName":"Central Ostrobothnia","regionEmoji":"🏖️"},{"placeId":"kannuskoski_rapids","name":"Kannuskoski Rapids","nameIt":"Kannuskoski","type":"NATURE","lat":64.1444,"lng":24.4194,"regionId":"central_ostrobothnia","regionName":"Central Ostrobothnia","regionEmoji":"🏖️"},{"placeId":"oulu","name":"Oulu","nameIt":"Oulu","type":"CITY","lat":65.0121,"lng":25.4651,"regionId":"north_ostrobothnia","regionName":"North Ostrobothnia","regionEmoji":"❄️"},{"placeId":"oulu_archipelago","name":"Oulu Archipelago","nameIt":"Oulun saaristo","type":"COASTAL","lat":65.12,"lng":25.8,"regionId":"north_ostrobothnia","regionName":"North Ostrobothnia","regionEmoji":"❄️"},{"placeId":"hailuoto","name":"Hailuoto Island","nameIt":"Hailuoto","type":"ISLAND","lat":64.95,"lng":25,"regionId":"north_ostrobothnia","regionName":"North Ostrobothnia","regionEmoji":"❄️"},{"placeId":"raahe","name":"Raahe","nameIt":"Raahe","type":"TOWN","lat":64.8755,"lng":24.4767,"regionId":"north_ostrobothnia","regionName":"North Ostrobothnia","regionEmoji":"❄️"},{"placeId":"kuusamo","name":"Kuusamo","nameIt":"Kuusamo","type":"TOWN","lat":65.9708,"lng":29.1908,"regionId":"north_ostrobothnia","regionName":"North Ostrobothnia","regionEmoji":"❄️"},{"placeId":"ruka","name":"Ruka","nameIt":"Ruka","type":"NATURE","lat":66.1702,"lng":29.1361,"regionId":"north_ostrobothnia","regionName":"North Ostrobothnia","regionEmoji":"❄️"},{"placeId":"ii","name":"Ii","nameIt":"Ii","type":"TOWN","lat":64.9708,"lng":25.35,"regionId":"north_ostrobothnia","regionName":"North Ostrobothnia","regionEmoji":"❄️"},{"placeId":"pyhajoki","name":"Pyhäjoki","nameIt":"Pyhäjoki","type":"TOWN","lat":64.5533,"lng":24.6306,"regionId":"north_ostrobothnia","regionName":"North Ostrobothnia","regionEmoji":"❄️"},{"placeId":"kaleva_oulu","name":"Kaleva Church","nameIt":"Kaleva-kirkko","type":"LANDMARK","lat":65.0167,"lng":25.4833,"regionId":"north_ostrobothnia","regionName":"North Ostrobothnia","regionEmoji":"❄️"},{"placeId":"tiedekeskus_energia","name":"Energia Science Centre","nameIt":"Tiedekeskus Energia","type":"LANDMARK","lat":65.01,"lng":25.48,"regionId":"north_ostrobothnia","regionName":"North Ostrobothnia","regionEmoji":"❄️"},{"placeId":"pyha_luosto","name":"Pyhä-Luosto National Park","nameIt":"Pyhä-Luoston kansallispuisto","type":"NATURE","lat":66.7333,"lng":27.4167,"regionId":"north_ostrobothnia","regionName":"North Ostrobothnia","regionEmoji":"❄️"},{"placeId":"sotkamo","name":"Sotkamo","nameIt":"Sotkamo","type":"TOWN","lat":64.1417,"lng":27.6467,"regionId":"north_ostrobothnia","regionName":"North Ostrobothnia","regionEmoji":"❄️"},{"placeId":"rovaniemi","name":"Rovaniemi","nameIt":"Rovaniemi","type":"CITY","lat":66.5039,"lng":25.7482,"regionId":"lapland","regionName":"Lapland","regionEmoji":"🎅"},{"placeId":"inari","name":"Inari","nameIt":"Inari","type":"TOWN","lat":68.9039,"lng":27.0214,"regionId":"lapland","regionName":"Lapland","regionEmoji":"🎅"},{"placeId":"ivalo","name":"Ivalo","nameIt":"Ivalo","type":"TOWN","lat":68.6089,"lng":27.7089,"regionId":"lapland","regionName":"Lapland","regionEmoji":"🎅"},{"placeId":"kemi","name":"Kemi","nameIt":"Kemi","type":"COASTAL","lat":65.7141,"lng":24.5678,"regionId":"lapland","regionName":"Lapland","regionEmoji":"🎅"},{"placeId":"saariselka","name":"Saariselkä","nameIt":"Saariselkä","type":"TOWN","lat":68.4181,"lng":27.4289,"regionId":"lapland","regionName":"Lapland","regionEmoji":"🎅"},{"placeId":"pello","name":"Pello","nameIt":"Pello","type":"TOWN","lat":66.9989,"lng":24.0475,"regionId":"lapland","regionName":"Lapland","regionEmoji":"🎅"},{"placeId":"sodankyla","name":"Sodankylä","nameIt":"Sodankylä","type":"TOWN","lat":67.4267,"lng":26.3922,"regionId":"lapland","regionName":"Lapland","regionEmoji":"🎅"},{"placeId":"muonio","name":"Muonio","nameIt":"Muonio","type":"TOWN","lat":67.9597,"lng":23.6833,"regionId":"lapland","regionName":"Lapland","regionEmoji":"🎅"},{"placeId":"levi","name":"Levi","nameIt":"Levi","type":"NATURE","lat":67.2356,"lng":24.8559,"regionId":"lapland","regionName":"Lapland","regionEmoji":"🎅"},{"placeId":"ranua","name":"Ranua","nameIt":"Ranua","type":"TOWN","lat":66.9194,"lng":26.3906,"regionId":"lapland","regionName":"Lapland","regionEmoji":"🎅"},{"placeId":"pyha_luosto","name":"Pyhä-Luosto","nameIt":"Pyhä-Luosto","type":"NATURE","lat":66.9667,"lng":25.5167,"regionId":"lapland","regionName":"Lapland","regionEmoji":"🎅"},{"placeId":"enontekio","name":"Enontekiö","nameIt":"Enontekiö","type":"TOWN","lat":68.3578,"lng":23.4289,"regionId":"lapland","regionName":"Lapland","regionEmoji":"🎅"},{"placeId":"kilpisjarvi","name":"Kilpisjärvi","nameIt":"Kilpisjärvi","type":"VILLAGE","lat":68.4783,"lng":24.8189,"regionId":"lapland","regionName":"Lapland","regionEmoji":"🎅"},{"placeId":"mariehamn","name":"Mariehamn","nameIt":"Maarianhamina","type":"CITY","lat":60.0972,"lng":19.9519,"regionId":"aland_islands","regionName":"Åland Islands","regionEmoji":"🏝️"},{"placeId":"bomarsund_fortress","name":"Bomarsund Fortress","nameIt":"Bomarsundin linnoitus","type":"LANDMARK","lat":60.2333,"lng":20.2667,"regionId":"aland_islands","regionName":"Åland Islands","regionEmoji":"🏝️"},{"placeId":"kastelholm_castle","name":"Kastelholm Castle","nameIt":"Kastelholmin linna","type":"LANDMARK","lat":60.2306,"lng":20.0694,"regionId":"aland_islands","regionName":"Åland Islands","regionEmoji":"🏝️"},{"placeId":"jomala_church","name":"Jomala Church","nameIt":"Jomalankirkko","type":"LANDMARK","lat":60.1444,"lng":19.9306,"regionId":"aland_islands","regionName":"Åland Islands","regionEmoji":"🏝️"},{"placeId":"eckero","name":"Eckerö","nameIt":"Eckerö","type":"VILLAGE","lat":60.2222,"lng":19.5722,"regionId":"aland_islands","regionName":"Åland Islands","regionEmoji":"🏝️"},{"placeId":"lemland_church","name":"Lemland Church","nameIt":"Lemlannin kirkko","type":"LANDMARK","lat":60.1583,"lng":20.1889,"regionId":"aland_islands","regionName":"Åland Islands","regionEmoji":"🏝️"},{"placeId":"geta_landscape","name":"Geta","nameIt":"Geta","type":"VILLAGE","lat":60.3056,"lng":19.9306,"regionId":"aland_islands","regionName":"Åland Islands","regionEmoji":"🏝️"},{"placeId":"sund_village","name":"Sund","nameIt":"Sund","type":"VILLAGE","lat":60.2333,"lng":20.0833,"regionId":"aland_islands","regionName":"Åland Islands","regionEmoji":"🏝️"},{"placeId":"aland_maritime_museum","name":"Åland Maritime Museum","nameIt":"Ahvenanmaan merenkulkumuseo","type":"LANDMARK","lat":60.1003,"lng":19.9456,"regionId":"aland_islands","regionName":"Åland Islands","regionEmoji":"🏝️"},{"placeId":"pommern_ship","name":"Pommern Ship","nameIt":"Pommern","type":"LANDMARK","lat":60.0956,"lng":19.9517,"regionId":"aland_islands","regionName":"Åland Islands","regionEmoji":"🏝️"},{"placeId":"sottunga_island","name":"Sottunga","nameIt":"Sottunga","type":"ISLAND","lat":60.0667,"lng":20.0167,"regionId":"aland_islands","regionName":"Åland Islands","regionEmoji":"🏝️"},{"placeId":"kokar_island","name":"Kökar","nameIt":"Kökar","type":"ISLAND","lat":59.9167,"lng":20.0167,"regionId":"aland_islands","regionName":"Åland Islands","regionEmoji":"🏝️"},{"placeId":"aland_nature_reserve","name":"Åland Nature Reserves","nameIt":"Ahvenanmaan luonnonsuojelualueet","type":"NATURE","lat":60.2,"lng":20.1,"regionId":"aland_islands","regionName":"Åland Islands","regionEmoji":"🏝️"}]