[{"placeId":"manaus","name":"Manaus","nameIt":"Manaus","type":"CITY","lat":-3.119,"lng":-60.0217,"regionId":"north","regionName":"North","regionEmoji":"🌳","image":"https://images.unsplash.com/photo-1623073050933-142b532342ae?ixid=M3w5NTU4NjF8MHwxfHNlYXJjaHwxfHxNYW5hdXMlMjBUZWF0cm8lMjBBbWF6b25hc3xlbnwxfDB8fHwxNzg0MDYwNDY2fDA&ixlib=rb-4.1.0&crop=entropy&cs=tinysrgb&fit=max&fm=jpg&q=80&w=1080"},{"placeId":"meeting_of_waters","name":"Meeting of the Waters","nameIt":"Encontro das Águas","type":"NATURE","lat":-3.5,"lng":-60.3667,"regionId":"north","regionName":"North","regionEmoji":"🌳","image":"https://images.unsplash.com/photo-1598837218686-a456fdaa5cf3?ixid=M3w5NTU4NjF8MHwxfHNlYXJjaHwxfHxNZWV0aW5nJTIwb2YlMjBXYXRlcnMlMjBBbWF6b258ZW58MXwwfHx8MTc4NDA2MDQ2OHww&ixlib=rb-4.1.0&crop=entropy&cs=tinysrgb&fit=max&fm=jpg&q=80&w=1080"},{"placeId":"belem","name":"Belém","nameIt":"Belém","type":"CITY","lat":-1.4558,"lng":-48.4903,"regionId":"north","regionName":"North","regionEmoji":"🌳"},{"placeId":"marajo_island","name":"Marajó Island","nameIt":"Ilha de Marajó","type":"ISLAND","lat":-0.5,"lng":-48.5,"regionId":"north","regionName":"North","regionEmoji":"🌳"},{"placeId":"alter_do_chao","name":"Alter do Chão","nameIt":"Alter do Chão","type":"TOWN","lat":-2.6042,"lng":-55.1372,"regionId":"north","regionName":"North","regionEmoji":"🌳","image":"https://images.unsplash.com/photo-1760394351616-b42cfe178cd3?ixid=M3w5NTU4NjF8MHwxfHNlYXJjaHwxfHxBbHRlciUyMGRvJTIwQ2glQzMlQTNvJTIwd2hpdGUlMjBzYW5kJTIwYmVhY2h8ZW58MXwwfHx8MTc4NDA2MDQ3Mnww&ixlib=rb-4.1.0&crop=entropy&cs=tinysrgb&fit=max&fm=jpg&q=80&w=1080"},{"placeId":"boa_vista","name":"Boa Vista","nameIt":"Boa Vista","type":"CITY","lat":2.8235,"lng":-60.6758,"regionId":"north","regionName":"North","regionEmoji":"🌳","image":"https://images.unsplash.com/photo-1705240435715-4e2efa746e1d?ixid=M3w5NTU4NjF8MHwxfHNlYXJjaHwxfHxCb2ElMjBWaXN0YSUyMGNpdHklMjBhZXJpYWx8ZW58MXwwfHx8MTc4NDA2MDQ3NHww&ixlib=rb-4.1.0&crop=entropy&cs=tinysrgb&fit=max&fm=jpg&q=80&w=1080"},{"placeId":"santarem","name":"Santarém","nameIt":"Santarém","type":"CITY","lat":-2.4344,"lng":-54.7069,"regionId":"north","regionName":"North","regionEmoji":"🌳"},{"placeId":"ponta_negra_manaus","name":"Ponta Negra Beach","nameIt":"Praia de Ponta Negra","type":"COASTAL","lat":-3.0667,"lng":-60.0333,"regionId":"north","regionName":"North","regionEmoji":"🌳"},{"placeId":"anavilhanas","name":"Anavilhanas Archipelago","nameIt":"Arquipélago de Anavilhanas","type":"NATURE","lat":-2.55,"lng":-61.0833,"regionId":"north","regionName":"North","regionEmoji":"🌳"},{"placeId":"monte_roraima","name":"Mount Roraima","nameIt":"Monumento Natural do Monte Roraima","type":"LANDMARK","lat":5.1644,"lng":-60.7758,"regionId":"north","regionName":"North","regionEmoji":"🌳"},{"placeId":"jau_national_park","name":"Jaú National Park","nameIt":"Parque Nacional do Jaú","type":"NATURE","lat":-1.8,"lng":-61.5833,"regionId":"north","regionName":"North","regionEmoji":"🌳"},{"placeId":"amapa_coast","name":"Amapá Coast","nameIt":"Costa do Amapá","type":"COASTAL","lat":3.5,"lng":-51.5,"regionId":"north","regionName":"North","regionEmoji":"🌳","image":"https://images.unsplash.com/photo-1468413253725-0d5181091126?ixid=M3w5NTU4NjF8MHwxfHNlYXJjaHwxfHxBbWFwJUMzJUExJTIwY29hc3QlMjBiZWFjaGVzfGVufDF8MHx8fDE3ODQwNjA0ODF8MA&ixlib=rb-4.1.0&crop=entropy&cs=tinysrgb&fit=max&fm=jpg&q=80&w=1080"},{"placeId":"macapa","name":"Macapá","nameIt":"Macapá","type":"CITY","lat":0.35,"lng":-51.0667,"regionId":"north","regionName":"North","regionEmoji":"🌳"},{"placeId":"salvador","name":"Salvador","nameIt":"Salvador","type":"CITY","lat":-12.9714,"lng":-38.5014,"regionId":"northeast","regionName":"Northeast","regionEmoji":"🏖️","image":"https://images.unsplash.com/photo-1739371292158-3f4899775309?ixid=M3w5NTU4NjF8MHwxfHNlYXJjaHwxfHxQZWxvdXJpbmhvJTIwU2FsdmFkb3IlMjBjb2xvbmlhbCUyMGJ1aWxkaW5nc3xlbnwxfDB8fHwxNzg0MDYwNDcyfDA&ixlib=rb-4.1.0&crop=entropy&cs=tinysrgb&fit=max&fm=jpg&q=80&w=1080"},{"placeId":"recife","name":"Recife","nameIt":"Recife","type":"CITY","lat":-8.0476,"lng":-34.877,"regionId":"northeast","regionName":"Northeast","regionEmoji":"🏖️","image":"https://images.unsplash.com/photo-1633642779098-bbff6239c35b?ixid=M3w5NTU4NjF8MHwxfHNlYXJjaHwxfHxSZWNpZmUlMjBicmlkZ2VzJTIwY2FuYWxzJTIwc2t5bGluZXxlbnwxfDB8fHwxNzg0MDYwNDc0fDA&ixlib=rb-4.1.0&crop=entropy&cs=tinysrgb&fit=max&fm=jpg&q=80&w=1080"},{"placeId":"olinda","name":"Olinda","nameIt":"Olinda","type":"TOWN","lat":-8.0081,"lng":-34.8552,"regionId":"northeast","regionName":"Northeast","regionEmoji":"🏖️"},{"placeId":"lencois_maranhenses","name":"Lençóis Maranhenses National Park","nameIt":"Parque Nacional dos Lençóis Maranhenses","type":"NATURE","lat":-2.7667,"lng":-42.8167,"regionId":"northeast","regionName":"Northeast","regionEmoji":"🏖️","image":"https://images.unsplash.com/photo-1504289321033-71956bc94830?ixid=M3w5NTU4NjF8MHwxfHNlYXJjaHwxfHxMZW4lQzMlQTclQzMlQjNpcyUyME1hcmFuaGVuc2VzJTIwZHVuZXMlMjBsYWdvb25zfGVufDF8MHx8fDE3ODQwNjA0NzZ8MA&ixlib=rb-4.1.0&crop=entropy&cs=tinysrgb&fit=max&fm=jpg&q=80&w=1080"},{"placeId":"jericoacoara","name":"Jericoacoara","nameIt":"Jericoacoara","type":"VILLAGE","lat":-2.6111,"lng":-40.4694,"regionId":"northeast","regionName":"Northeast","regionEmoji":"🏖️","image":"https://images.unsplash.com/photo-1610249305745-60242d1ccf69?ixid=M3w5NTU4NjF8MHwxfHNlYXJjaHwxfHxKZXJpY29hY29hcmElMjBQZWRyYSUyMEdyYW5kZSUyMHN1bnNldHxlbnwxfDB8fHwxNzg0MDYwNDc4fDA&ixlib=rb-4.1.0&crop=entropy&cs=tinysrgb&fit=max&fm=jpg&q=80&w=1080"},{"placeId":"maragogi","name":"Maragogi","nameIt":"Maragogi","type":"COASTAL","lat":-9.0175,"lng":-35.2264,"regionId":"northeast","regionName":"Northeast","regionEmoji":"🏖️","image":"https://images.unsplash.com/photo-1719754522656-10b30c29b598?ixid=M3w5NTU4NjF8MHwxfHNlYXJjaHwxfHxNYXJhZ29naSUyMG5hdHVyYWwlMjBwb29scyUyMGNvcmFsJTIwcmVlZnxlbnwxfDB8fHwxNzg0MDYwNDgwfDA&ixlib=rb-4.1.0&crop=entropy&cs=tinysrgb&fit=max&fm=jpg&q=80&w=1080"},{"placeId":"porto_de_galinhas","name":"Porto de Galinhas","nameIt":"Porto de Galinhas","type":"COASTAL","lat":-8.5017,"lng":-35.0083,"regionId":"northeast","regionName":"Northeast","regionEmoji":"🏖️","image":"https://images.unsplash.com/photo-1698760043699-286349868fa8?ixid=M3w5NTU4NjF8MHwxfHNlYXJjaHwxfHxQb3J0byUyMGRlJTIwR2FsaW5oYXMlMjBuYXR1cmFsJTIwcG9vbHMlMjBiZWFjaHxlbnwxfDB8fHwxNzg0MDYwNDgyfDA&ixlib=rb-4.1.0&crop=entropy&cs=tinysrgb&fit=max&fm=jpg&q=80&w=1080"},{"placeId":"fernando_de_noronha","name":"Fernando de Noronha","nameIt":"Fernando de Noronha","type":"ISLAND","lat":-3.8383,"lng":-32.4267,"regionId":"northeast","regionName":"Northeast","regionEmoji":"🏖️","image":"https://images.unsplash.com/photo-1714168635072-8d9501164a6d?ixid=M3w5NTU4NjF8MHwxfHNlYXJjaHwxfHxGZXJuYW5kbyUyMGRlJTIwTm9yb25oYSUyMHNlYSUyMHR1cnRsZXMlMjBkaXZpbmd8ZW58MXwwfHx8MTc4NDA2MDQ4NHww&ixlib=rb-4.1.0&crop=entropy&cs=tinysrgb&fit=max&fm=jpg&q=80&w=1080"},{"placeId":"fortaleza","name":"Fortaleza","nameIt":"Fortaleza","type":"CITY","lat":-3.7319,"lng":-38.5267,"regionId":"northeast","regionName":"Northeast","regionEmoji":"🏖️"},{"placeId":"canoa_quebrada","name":"Canoa Quebrada","nameIt":"Canoa Quebrada","type":"VILLAGE","lat":-4.7333,"lng":-37.7833,"regionId":"northeast","regionName":"Northeast","regionEmoji":"🏖️","image":"https://images.unsplash.com/photo-1778166000433-edd0114d7ea3?ixid=M3w5NTU4NjF8MHwxfHNlYXJjaHwxfHxDYW5vYSUyMFF1ZWJyYWRhJTIwcmVkJTIwY2xpZmZzJTIwYmVhY2h8ZW58MXwwfHx8MTc4NDA2MDQ4N3ww&ixlib=rb-4.1.0&crop=entropy&cs=tinysrgb&fit=max&fm=jpg&q=80&w=1080"},{"placeId":"maceio","name":"Maceió","nameIt":"Maceió","type":"CITY","lat":-9.6558,"lng":-35.7353,"regionId":"northeast","regionName":"Northeast","regionEmoji":"🏖️","image":"https://images.unsplash.com/photo-1533760881669-80db4d7b4c15?ixid=M3w5NTU4NjF8MHwxfHNlYXJjaHwxfHxNYWNlaSVDMyVCMyUyMFBhanUlQzMlQTdhcmElMjBiZWFjaCUyMHR1cnF1b2lzZXxlbnwxfDB8fHwxNzg0MDYwNDkwfDA&ixlib=rb-4.1.0&crop=entropy&cs=tinysrgb&fit=max&fm=jpg&q=80&w=1080"},{"placeId":"praia_da_pipa","name":"Praia da Pipa","nameIt":"Praia da Pipa","type":"VILLAGE","lat":-6.2261,"lng":-35.06,"regionId":"northeast","regionName":"Northeast","regionEmoji":"🏖️"},{"placeId":"genipabu","name":"Genipabu","nameIt":"Genipabu","type":"COASTAL","lat":-5.9372,"lng":-35.2633,"regionId":"northeast","regionName":"Northeast","regionEmoji":"🏖️"},{"placeId":"lencois","name":"Lençóis Maranhenses","type":"PARK","lat":-2.3832,"lng":-43.3263,"regionId":"northeast","regionName":"Northeast","regionEmoji":"🏖️","image":"https://images.unsplash.com/photo-1504289321033-71956bc94830?ixid=M3w5NTU4NjF8MHwxfHNlYXJjaHwxfHxMZW4lQzMlQTclQzMlQjNpcyUyME1hcmFuaGVuc2VzJTIwQnJhemlsfGVufDF8MHx8fDE3ODQwNjA4Mjd8MA&ixlib=rb-4.1.0&crop=entropy&cs=tinysrgb&fit=max&fm=jpg&q=80&w=1080"},{"placeId":"brasilia","name":"Brasília","nameIt":"Brasília","type":"CITY","lat":-15.7942,"lng":-47.8822,"regionId":"central_west","regionName":"Central-West","regionEmoji":"🌾","image":"https://images.unsplash.com/photo-1622688247602-0bf115ae3f86?ixid=M3w5NTU4NjF8MHwxfHNlYXJjaHwxfHxCcmFzJUMzJUFEbGlhJTIwQ2F0aGVkcmFsJTIwT3NjYXIlMjBOaWVtZXllcnxlbnwxfDB8fHwxNzg0MDYwNDk4fDA&ixlib=rb-4.1.0&crop=entropy&cs=tinysrgb&fit=max&fm=jpg&q=80&w=1080"},{"placeId":"chapada_diamantina","name":"Chapada Diamantina","nameIt":"Chapada Diamantina","type":"NATURE","lat":-12.9626,"lng":-41.4725,"regionId":"central_west","regionName":"Central-West","regionEmoji":"🌾","image":"https://images.unsplash.com/photo-1673377659382-01d66c35b3dc?ixid=M3w5NTU4NjF8MHwxfHNlYXJjaHwxfHxDaGFwYWRhJTIwRGlhbWFudGluYSUyMHdhdGVyZmFsbHMlMjBoaWtpbmd8ZW58MXwwfHx8MTc4NDA2MDUwMHww&ixlib=rb-4.1.0&crop=entropy&cs=tinysrgb&fit=max&fm=jpg&q=80&w=1080"},{"placeId":"goiania","name":"Goiânia","nameIt":"Goiânia","type":"CITY","lat":-15.7839,"lng":-48.8811,"regionId":"central_west","regionName":"Central-West","regionEmoji":"🌾","image":"https://images.unsplash.com/photo-1620692938068-7aa46e314bee?ixid=M3w5NTU4NjF8MHwxfHNlYXJjaHwxfHxHb2klQzMlQTJuaWElMjBjaXR5JTIwQXJ0JTIwRGVjbyUyMGFyY2hpdGVjdHVyZXxlbnwxfDB8fHwxNzg0MDYwNTAyfDA&ixlib=rb-4.1.0&crop=entropy&cs=tinysrgb&fit=max&fm=jpg&q=80&w=1080"},{"placeId":"pirenopolis","name":"Pirenópolis","nameIt":"Pirenópolis","type":"TOWN","lat":-15.3167,"lng":-48.9667,"regionId":"central_west","regionName":"Central-West","regionEmoji":"🌾","image":"https://images.unsplash.com/photo-1662319888428-8fa035114765?ixid=M3w5NTU4NjF8MHwxfHNlYXJjaHwxfHxQaXJlbiVDMyVCM3BvbGlzJTIwY29sb25pYWwlMjB0b3duJTIwd2F0ZXJmYWxsc3xlbnwxfDB8fHwxNzg0MDYwNTA0fDA&ixlib=rb-4.1.0&crop=entropy&cs=tinysrgb&fit=max&fm=jpg&q=80&w=1080"},{"placeId":"cuiaba","name":"Cuiabá","nameIt":"Cuiabá","type":"CITY","lat":-15.5952,"lng":-56.0973,"regionId":"central_west","regionName":"Central-West","regionEmoji":"🌾","image":"https://images.unsplash.com/photo-1647955343935-e8a6104214df?ixid=M3w5NTU4NjF8MHwxfHNlYXJjaHwxfHxDdWlhYiVDMyVBMSUyMGNpdHklMjBNYXRvJTIwR3Jvc3NvfGVufDF8MHx8fDE3ODQwNjA1MDZ8MA&ixlib=rb-4.1.0&crop=entropy&cs=tinysrgb&fit=max&fm=jpg&q=80&w=1080"},{"placeId":"pantanal","name":"Pantanal","nameIt":"Pantanal","type":"NATURE","lat":-16.5,"lng":-56.5,"regionId":"central_west","regionName":"Central-West","regionEmoji":"🌾","image":"https://images.unsplash.com/photo-1595600896602-6b9052fe0c5b?ixid=M3w5NTU4NjF8MHwxfHNlYXJjaHwxfHxQYW50YW5hbCUyMHdpbGRsaWZlJTIwamFndWFyJTIwY2FweWJhcmF8ZW58MXwwfHx8MTc4NDA2MDUwOHww&ixlib=rb-4.1.0&crop=entropy&cs=tinysrgb&fit=max&fm=jpg&q=80&w=1080"},{"placeId":"caldas_novas","name":"Caldas Novas","nameIt":"Caldas Novas","type":"TOWN","lat":-17.7467,"lng":-48.6383,"regionId":"central_west","regionName":"Central-West","regionEmoji":"🌾"},{"placeId":"campo_grande","name":"Campo Grande","nameIt":"Campo Grande","type":"CITY","lat":-20.4484,"lng":-54.6268,"regionId":"central_west","regionName":"Central-West","regionEmoji":"🌾"},{"placeId":"pocos_caldas","name":"Poços de Caldas","nameIt":"Poços de Caldas","type":"TOWN","lat":-21.7842,"lng":-46.5669,"regionId":"central_west","regionName":"Central-West","regionEmoji":"🌾"},{"placeId":"palmas","name":"Palmas","nameIt":"Palmas","type":"CITY","lat":-10.2105,"lng":-48.3281,"regionId":"central_west","regionName":"Central-West","regionEmoji":"🌾"},{"placeId":"cidade_de_goias","name":"Cidade de Goiás","nameIt":"Cidade de Goiás","type":"TOWN","lat":-16.0167,"lng":-49.8667,"regionId":"central_west","regionName":"Central-West","regionEmoji":"🌾"},{"placeId":"bonito","name":"Bonito","nameIt":"Bonito","type":"TOWN","lat":-21.9167,"lng":-56.4833,"regionId":"central_west","regionName":"Central-West","regionEmoji":"🌾"},{"placeId":"rio_de_janeiro","name":"Rio de Janeiro","nameIt":"Rio de Janeiro","type":"CITY","lat":-22.9068,"lng":-43.1729,"regionId":"southeast","regionName":"Southeast","regionEmoji":"🏙️","image":"https://images.unsplash.com/photo-1518639192441-8fce0a366e2e?ixid=M3w5NTU4NjF8MHwxfHNlYXJjaHwxfHxDaHJpc3QlMjB0aGUlMjBSZWRlZW1lciUyMFJpbyUyMGRlJTIwSmFuZWlyb3xlbnwxfDB8fHwxNzg0MDYwODM4fDA&ixlib=rb-4.1.0&crop=entropy&cs=tinysrgb&fit=max&fm=jpg&q=80&w=1080"},{"placeId":"sao_paulo","name":"São Paulo","nameIt":"São Paulo","type":"CITY","lat":-23.5505,"lng":-46.6333,"regionId":"southeast","regionName":"Southeast","regionEmoji":"🏙️","image":"https://images.unsplash.com/photo-1753025251711-b74eb866c828?ixid=M3w5NTU4NjF8MHwxfHNlYXJjaHwxfHxTJUMzJUEzbyUyMFBhdWxvJTIwc3RyZWV0JTIwYXJ0JTIwbXVyYWxzfGVufDF8MHx8fDE3ODQwNjA4NDB8MA&ixlib=rb-4.1.0&crop=entropy&cs=tinysrgb&fit=max&fm=jpg&q=80&w=1080"},{"placeId":"angra_dos_reis","name":"Angra dos Reis","nameIt":"Angra dos Reis","type":"COASTAL","lat":-23.0064,"lng":-44.3182,"regionId":"southeast","regionName":"Southeast","regionEmoji":"🏙️","image":"https://images.unsplash.com/photo-1626118439040-97551af4c74c?ixid=M3w5NTU4NjF8MHwxfHNlYXJjaHwxfHxBbmdyYSUyMGRvcyUyMFJlaXMlMjBpc2xhbmRzJTIwYWVyaWFsfGVufDF8MHx8fDE3ODQwNjA4NDJ8MA&ixlib=rb-4.1.0&crop=entropy&cs=tinysrgb&fit=max&fm=jpg&q=80&w=1080"},{"placeId":"paraty","name":"Paraty","nameIt":"Paraty","type":"TOWN","lat":-23.2237,"lng":-44.7181,"regionId":"southeast","regionName":"Southeast","regionEmoji":"🏙️","image":"https://images.unsplash.com/photo-1669673127354-a147a32ddaae?ixid=M3w5NTU4NjF8MHwxfHNlYXJjaHwxfHxQYXJhdHklMjBjb2xvbmlhbCUyMHRvd24lMjBjb2JibGVzdG9uZXxlbnwxfDB8fHwxNzg0MDYwODQ0fDA&ixlib=rb-4.1.0&crop=entropy&cs=tinysrgb&fit=max&fm=jpg&q=80&w=1080"},{"placeId":"petropolis","name":"Petropolis","nameIt":"Petrópolis","type":"CITY","lat":-22.5092,"lng":-43.1897,"regionId":"southeast","regionName":"Southeast","regionEmoji":"🏙️"},{"placeId":"buzios","name":"Búzios","nameIt":"Búzios","type":"COASTAL","lat":-22.7505,"lng":-41.8711,"regionId":"southeast","regionName":"Southeast","regionEmoji":"🏙️","image":"https://images.unsplash.com/photo-1675684320288-f29b9108e0ff?ixid=M3w5NTU4NjF8MHwxfHNlYXJjaHwxfHxCJUMzJUJBemlvcyUyMGJlYWNoJTIwcGVuaW5zdWxhJTIwYWVyaWFsfGVufDF8MHx8fDE3ODQwNjA4NDd8MA&ixlib=rb-4.1.0&crop=entropy&cs=tinysrgb&fit=max&fm=jpg&q=80&w=1080"},{"placeId":"cape_frio","name":"Cabo Frio","nameIt":"Cabo Frio","type":"COASTAL","lat":-22.8758,"lng":-42.0264,"regionId":"southeast","regionName":"Southeast","regionEmoji":"🏙️"},{"placeId":"iguazu_falls","name":"Iguazu Falls","nameIt":"Cataratas do Iguazu","type":"NATURE","lat":-25.5951,"lng":-54.5754,"regionId":"southeast","regionName":"Southeast","regionEmoji":"🏙️","image":"https://images.unsplash.com/photo-1604626676599-e21a94462216?ixid=M3w5NTU4NjF8MHwxfHNlYXJjaHwxfHxJZ3VhenUlMjBGYWxscyUyMHBhbm9yYW1pYyUyMHZpZXd8ZW58MXwwfHx8MTc4NDA2MDg1MXww&ixlib=rb-4.1.0&crop=entropy&cs=tinysrgb&fit=max&fm=jpg&q=80&w=1080"},{"placeId":"ouro_preto","name":"Ouro Preto","nameIt":"Ouro Preto","type":"TOWN","lat":-20.3854,"lng":-43.5036,"regionId":"southeast","regionName":"Southeast","regionEmoji":"🏙️","image":"https://images.unsplash.com/photo-1574979409388-ad3f22bfb9ce?ixid=M3w5NTU4NjF8MHwxfHNlYXJjaHwxfHxPdXJvJTIwUHJldG8lMjBjb2xvbmlhbCUyMGFyY2hpdGVjdHVyZSUyMGFlcmlhbHxlbnwxfDB8fHwxNzg0MDYwODUzfDA&ixlib=rb-4.1.0&crop=entropy&cs=tinysrgb&fit=max&fm=jpg&q=80&w=1080"},{"placeId":"belo_horizonte","name":"Belo Horizonte","nameIt":"Belo Horizonte","type":"CITY","lat":-19.9191,"lng":-43.9386,"regionId":"southeast","regionName":"Southeast","regionEmoji":"🏙️","image":"https://images.unsplash.com/photo-1695228920460-e33993ed511e?ixid=M3w5NTU4NjF8MHwxfHNlYXJjaHwxfHxCZWxvJTIwSG9yaXpvbnRlJTIwUHJhJUMzJUE3YSUyMGRhJTIwTGliZXJkYWRlfGVufDF8MHx8fDE3ODQwNjA4NTV8MA&ixlib=rb-4.1.0&crop=entropy&cs=tinysrgb&fit=max&fm=jpg&q=80&w=1080"},{"placeId":"tiradentes","name":"Tiradentes","nameIt":"Tiradentes","type":"TOWN","lat":-21.1141,"lng":-44.2567,"regionId":"southeast","regionName":"Southeast","regionEmoji":"🏙️","image":"https://images.unsplash.com/photo-1762995353297-13db30bc3b69?ixid=M3w5NTU4NjF8MHwxfHNlYXJjaHwxfHxUaXJhZGVudGVzJTIwY29sb25pYWwlMjB0b3duJTIwY2h1cmNofGVufDF8MHx8fDE3ODQwNjA4NTd8MA&ixlib=rb-4.1.0&crop=entropy&cs=tinysrgb&fit=max&fm=jpg&q=80&w=1080"},{"placeId":"arraial_d_ajuda","name":"Arraial d'Ajuda","nameIt":"Arraial d'Ajuda","type":"COASTAL","lat":-16.4589,"lng":-39.0676,"regionId":"southeast","regionName":"Southeast","regionEmoji":"🏙️"},{"placeId":"florianopolis","name":"Florianópolis","nameIt":"Florianópolis","type":"COASTAL","lat":-27.5954,"lng":-48.548,"regionId":"south","regionName":"South","regionEmoji":"❄️"},{"placeId":"porto_alegre","name":"Porto Alegre","nameIt":"Porto Alegre","type":"CITY","lat":-30.0346,"lng":-51.2177,"regionId":"south","regionName":"South","regionEmoji":"❄️"},{"placeId":"gramado","name":"Gramado","nameIt":"Gramado","type":"TOWN","lat":-29.3731,"lng":-50.8787,"regionId":"south","regionName":"South","regionEmoji":"❄️"},{"placeId":"canela","name":"Canela","nameIt":"Canela","type":"TOWN","lat":-29.3643,"lng":-50.7926,"regionId":"south","regionName":"South","regionEmoji":"❄️"},{"placeId":"blumenau","name":"Blumenau","nameIt":"Blumenau","type":"CITY","lat":-26.8791,"lng":-49.0628,"regionId":"south","regionName":"South","regionEmoji":"❄️"},{"placeId":"balneario_camboriu","name":"Balneário Camboriú","nameIt":"Balneário Camboriú","type":"COASTAL","lat":-26.9902,"lng":-48.6383,"regionId":"south","regionName":"South","regionEmoji":"❄️"},{"placeId":"santos","name":"Santos","nameIt":"Santos","type":"COASTAL","lat":-23.9608,"lng":-46.3338,"regionId":"south","regionName":"South","regionEmoji":"❄️"},{"placeId":"foz_do_iguacu","name":"Foz do Iguaçu","nameIt":"Foz do Iguaçu","type":"CITY","lat":-25.5095,"lng":-54.5789,"regionId":"south","regionName":"South","regionEmoji":"❄️"},{"placeId":"curitiba","name":"Curitiba","nameIt":"Curitiba","type":"CITY","lat":-25.4284,"lng":-49.2733,"regionId":"south","regionName":"South","regionEmoji":"❄️"},{"placeId":"morretes","name":"Morretes","nameIt":"Morretes","type":"TOWN","lat":-25.4758,"lng":-48.798,"regionId":"south","regionName":"South","regionEmoji":"❄️"},{"placeId":"penha","name":"Penha","nameIt":"Penha","type":"COASTAL","lat":-26.7453,"lng":-48.665,"regionId":"south","regionName":"South","regionEmoji":"❄️"},{"placeId":"pelotas","name":"Pelotas","nameIt":"Pelotas","type":"CITY","lat":-28.3241,"lng":-53.7638,"regionId":"south","regionName":"South","regionEmoji":"❄️"}]