[{"placeId":"johor_bahru","name":"Johor Bahru","nameIt":"Johor Bahru","type":"CITY","lat":1.4854,"lng":103.7618,"regionId":"johor","regionName":"Johor","regionEmoji":"🏰"},{"placeId":"kota_tinggi_waterfall","name":"Kota Tinggi Waterfall","nameIt":"Air Terjun Kota Tinggi","type":"NATURE","lat":1.7497,"lng":103.9177,"regionId":"johor","regionName":"Johor","regionEmoji":"🏰"},{"placeId":"desaru_beach","name":"Desaru Beach","nameIt":"Pantai Desaru","type":"COASTAL","lat":1.8428,"lng":104.2672,"regionId":"johor","regionName":"Johor","regionEmoji":"🏰"},{"placeId":"tioman_island","name":"Tioman Island","nameIt":"Pulau Tioman","type":"ISLAND","lat":2.8,"lng":104.1167,"regionId":"johor","regionName":"Johor","regionEmoji":"🏰"},{"placeId":"endau_rompin_national_park","name":"Endau-Rompin National Park","nameIt":"Taman Negara Endau-Rompin","type":"NATURE","lat":2.4167,"lng":103.3333,"regionId":"johor","regionName":"Johor","regionEmoji":"🏰","image":"https://images.unsplash.com/photo-1631006995557-9866a74ee05c?ixid=M3w5NTU4NjF8MHwxfHNlYXJjaHwxfHxFbmRhdSUyMFJvbXBpbiUyMHJhaW5mb3Jlc3QlMjBjYW5vcHl8ZW58MXwwfHx8MTc4NDA1MDgzMXww&ixlib=rb-4.1.0&crop=entropy&cs=tinysrgb&fit=max&fm=jpg&q=80&w=1080"},{"placeId":"mersing","name":"Mersing","nameIt":"Mersing","type":"TOWN","lat":2.3131,"lng":103.8381,"regionId":"johor","regionName":"Johor","regionEmoji":"🏰"},{"placeId":"johor_bahru_palace","name":"Istana Bukit Serene","nameIt":"Istana Bukit Serene","type":"LANDMARK","lat":1.5167,"lng":103.7333,"regionId":"johor","regionName":"Johor","regionEmoji":"🏰","image":"https://images.unsplash.com/photo-1707993467310-a5b2bb858d68?ixid=M3w5NTU4NjF8MHwxfHNlYXJjaHwxfHxJc3RhbmElMjBCdWtpdCUyMFNlcmVuZSUyMHBhbGFjZSUyMGFyY2hpdGVjdHVyZXxlbnwxfDB8fHwxNzg0MDUwODM1fDA&ixlib=rb-4.1.0&crop=entropy&cs=tinysrgb&fit=max&fm=jpg&q=80&w=1080"},{"placeId":"legoland_malaysia","name":"LEGOLAND Malaysia","nameIt":"LEGOLAND Malaysia","type":"LANDMARK","lat":1.3842,"lng":103.7331,"regionId":"johor","regionName":"Johor","regionEmoji":"🏰","image":"https://images.unsplash.com/photo-1777262968283-05e79c685d2a?ixid=M3w5NTU4NjF8MHwxfHNlYXJjaHwxfHxMRUdPTEFORCUyME1hbGF5c2lhJTIwdGhlbWUlMjBwYXJrfGVufDF8MHx8fDE3ODQwNTA4Mzd8MA&ixlib=rb-4.1.0&crop=entropy&cs=tinysrgb&fit=max&fm=jpg&q=80&w=1080"},{"placeId":"kluang","name":"Kluang","nameIt":"Kluang","type":"TOWN","lat":2.0167,"lng":103.3167,"regionId":"johor","regionName":"Johor","regionEmoji":"🏰"},{"placeId":"kampung_orang_asli","name":"Kampung Orang Asli","nameIt":"Kampung Orang Asli","type":"VILLAGE","lat":2.7167,"lng":103.85,"regionId":"johor","regionName":"Johor","regionEmoji":"🏰","image":"https://images.unsplash.com/photo-1680239179048-f7bbf6cd19ff?ixid=M3w5NTU4NjF8MHwxfHNlYXJjaHwxfHxPcmFuZyUyMEFzbGklMjBpbmRpZ2Vub3VzJTIwdmlsbGFnZSUyMGN1bHR1cmV8ZW58MXwwfHx8MTc4NDA1MDg0MXww&ixlib=rb-4.1.0&crop=entropy&cs=tinysrgb&fit=max&fm=jpg&q=80&w=1080"},{"placeId":"bandar_johor_bahru_waterfront","name":"Bandar Johor Bahru Waterfront","nameIt":"Tebrau Waterfront","type":"LANDMARK","lat":1.4667,"lng":103.7417,"regionId":"johor","regionName":"Johor","regionEmoji":"🏰"},{"placeId":"tanjung_piai","name":"Tanjung Piai","nameIt":"Tanjung Piai","type":"NATURE","lat":1.3167,"lng":103.5167,"regionId":"johor","regionName":"Johor","regionEmoji":"🏰"},{"placeId":"batu_pahat","name":"Batu Pahat","nameIt":"Batu Pahat","type":"TOWN","lat":1.8667,"lng":102.8333,"regionId":"johor","regionName":"Johor","regionEmoji":"🏰"},{"placeId":"alor_setar","name":"Alor Setar","nameIt":"Alor Setar","type":"CITY","lat":6.1184,"lng":100.3688,"regionId":"kedah","regionName":"Kedah","regionEmoji":"🌾","image":"https://images.unsplash.com/photo-1653673662935-ae19b645096f?ixid=M3w5NTU4NjF8MHwxfHNlYXJjaHwxfHxaYWhpciUyME1vc3F1ZSUyMEFsb3IlMjBTZXRhcnxlbnwxfDB8fHwxNzg0MDUwODUzfDA&ixlib=rb-4.1.0&crop=entropy&cs=tinysrgb&fit=max&fm=jpg&q=80&w=1080"},{"placeId":"langkawi","name":"Langkawi","nameIt":"Langkawi","type":"ISLAND","lat":6.352,"lng":99.8333,"regionId":"kedah","regionName":"Kedah","regionEmoji":"🌾","image":"https://images.unsplash.com/photo-1669812849320-283db1bf8216?ixid=M3w5NTU4NjF8MHwxfHNlYXJjaHwxfHxMYW5na2F3aSUyMFNreSUyMEJyaWRnZSUyMHN1bnNldHxlbnwxfDB8fHwxNzg0MDUwODU2fDA&ixlib=rb-4.1.0&crop=entropy&cs=tinysrgb&fit=max&fm=jpg&q=80&w=1080"},{"placeId":"kedah_peak","name":"Kedah Peak","nameIt":"Gunung Kedah","type":"NATURE","lat":6.1167,"lng":100.3167,"regionId":"kedah","regionName":"Kedah","regionEmoji":"🌾"},{"placeId":"kuala_kedah","name":"Kuala Kedah","nameIt":"Kuala Kedah","type":"COASTAL","lat":6.4167,"lng":100.3,"regionId":"kedah","regionName":"Kedah","regionEmoji":"🌾"},{"placeId":"pantai_merbok","name":"Pantai Merbok","nameIt":"Pantai Merbok","type":"COASTAL","lat":5.9833,"lng":100.5167,"regionId":"kedah","regionName":"Kedah","regionEmoji":"🌾"},{"placeId":"sintok","name":"Sintok","nameIt":"Sintok","type":"TOWN","lat":6.4333,"lng":100.25,"regionId":"kedah","regionName":"Kedah","regionEmoji":"🌾"},{"placeId":"pokok_sena","name":"Pokok Sena","nameIt":"Pokok Sena","type":"TOWN","lat":6.0667,"lng":100.5,"regionId":"kedah","regionName":"Kedah","regionEmoji":"🌾","image":"https://images.unsplash.com/photo-1595974482597-4b8da8879bc5?ixid=M3w5NTU4NjF8MHwxfHNlYXJjaHwxfHxQb2tvayUyMFNlbmElMjBwYWRkeSUyMGZpZWxkc3xlbnwxfDB8fHwxNzg0MDUwODYyfDA&ixlib=rb-4.1.0&crop=entropy&cs=tinysrgb&fit=max&fm=jpg&q=80&w=1080"},{"placeId":"langkawi_cable_car","name":"Langkawi Sky Bridge","nameIt":"Jambatan Langit","type":"LANDMARK","lat":6.3869,"lng":99.8058,"regionId":"kedah","regionName":"Kedah","regionEmoji":"🌾","image":"https://images.unsplash.com/photo-1669812849320-283db1bf8216?ixid=M3w5NTU4NjF8MHwxfHNlYXJjaHwxfHxMYW5na2F3aSUyMFNreSUyMEJyaWRnZSUyMGN1cnZlZHxlbnwxfDB8fHwxNzg0MDUwODY0fDA&ixlib=rb-4.1.0&crop=entropy&cs=tinysrgb&fit=max&fm=jpg&q=80&w=1080"},{"placeId":"langkawi_eagle","name":"Langkawi Eagle Square","nameIt":"Dataran Lang","type":"LANDMARK","lat":6.3317,"lng":99.8283,"regionId":"kedah","regionName":"Kedah","regionEmoji":"🌾"},{"placeId":"langkawi_geopark","name":"Langkawi Geopark","nameIt":"Taman Geo Langkawi","type":"NATURE","lat":6.3697,"lng":99.8139,"regionId":"kedah","regionName":"Kedah","regionEmoji":"🌾"},{"placeId":"sungai_petani","name":"Sungai Petani","nameIt":"Sungai Petani","type":"TOWN","lat":5.65,"lng":100.5,"regionId":"kedah","regionName":"Kedah","regionEmoji":"🌾"},{"placeId":"pulau_bunting","name":"Pulau Bunting","nameIt":"Pulau Bunting","type":"ISLAND","lat":6.3556,"lng":99.8817,"regionId":"kedah","regionName":"Kedah","regionEmoji":"🌾"},{"placeId":"perhentian_kecil","name":"Pantai Cenang","nameIt":"Pantai Cenang","type":"COASTAL","lat":6.3106,"lng":99.755,"regionId":"kedah","regionName":"Kedah","regionEmoji":"🌾"},{"placeId":"pantai_cahaya_bulan","name":"Pantai Cahaya Bulan","nameIt":"Pantai Cahaya Bulan","type":"COASTAL","lat":6.2667,"lng":102.2333,"regionId":"kelantan","regionName":"Kelantan","regionEmoji":"🎨"},{"placeId":"pantai_dasar_sabak","name":"Pantai Dasar Sabak","nameIt":"Pantai Dasar Sabak","type":"COASTAL","lat":6.4189,"lng":102.2453,"regionId":"kelantan","regionName":"Kelantan","regionEmoji":"🎨"},{"placeId":"istana_jahar","name":"Istana Jahar","nameIt":"Istana Jahar","type":"LANDMARK","lat":6.1722,"lng":102.2356,"regionId":"kelantan","regionName":"Kelantan","regionEmoji":"🎨"},{"placeId":"gold_smithing_village","name":"Gold Smithing Village","nameIt":"Kampung Perak","type":"VILLAGE","lat":6.1667,"lng":102.1833,"regionId":"kelantan","regionName":"Kelantan","regionEmoji":"🎨"},{"placeId":"silk_museum","name":"Silk Museum & Weaving Centre","nameIt":"Pusat Kerajinan Sutera","type":"LANDMARK","lat":6.1578,"lng":102.2511,"regionId":"kelantan","regionName":"Kelantan","regionEmoji":"🎨"},{"placeId":"wat_photivihan","name":"Wat Photivihan","nameIt":"Wat Photivihan","type":"LANDMARK","lat":6.4333,"lng":102.1333,"regionId":"kelantan","regionName":"Kelantan","regionEmoji":"🎨"},{"placeId":"bachok","name":"Bachok","nameIt":"Bachok","type":"TOWN","lat":6.3444,"lng":102.3139,"regionId":"kelantan","regionName":"Kelantan","regionEmoji":"🎨"},{"placeId":"taman_negara_kuala_koh","name":"Kuala Koh Taman Negara","nameIt":"Kuala Koh Taman Negara","type":"NATURE","lat":4.8667,"lng":102.2667,"regionId":"kelantan","regionName":"Kelantan","regionEmoji":"🎨"},{"placeId":"floating_market_siti_khadijah","name":"Siti Khadijah Market","nameIt":"Pasar Siti Khadijah","type":"LANDMARK","lat":6.1722,"lng":102.2389,"regionId":"kelantan","regionName":"Kelantan","regionEmoji":"🎨"},{"placeId":"hospital_kota_selamat","name":"Kota Selamat Fort","nameIt":"Kota Selamat","type":"LANDMARK","lat":6.1389,"lng":102.2306,"regionId":"kelantan","regionName":"Kelantan","regionEmoji":"🎨"},{"placeId":"pantai_irama","name":"Pantai Irama","nameIt":"Pantai Irama","type":"COASTAL","lat":6.3389,"lng":102.3222,"regionId":"kelantan","regionName":"Kelantan","regionEmoji":"🎨"},{"placeId":"mengkuang_dam","name":"Mengkuang Dam","nameIt":"Empangan Mengkuang","type":"NATURE","lat":6.5667,"lng":102.0833,"regionId":"kelantan","regionName":"Kelantan","regionEmoji":"🎨"},{"placeId":"petronas_towers","name":"Petronas Twin Towers","nameIt":"Menara Berkembar Petronas","type":"LANDMARK","lat":3.1578,"lng":101.7123,"regionId":"kuala_lumpur","regionName":"Kuala Lumpur","regionEmoji":"🌆"},{"placeId":"merdeka_square","name":"Merdeka Square","nameIt":"Dataran Merdeka","type":"LANDMARK","lat":3.1412,"lng":101.6931,"regionId":"kuala_lumpur","regionName":"Kuala Lumpur","regionEmoji":"🌆"},{"placeId":"twin_towers_mall","name":"Suria KLCC Shopping Mall","nameIt":"Pusat Membeli Belah Suria KLCC","type":"LANDMARK","lat":3.1578,"lng":101.7132,"regionId":"kuala_lumpur","regionName":"Kuala Lumpur","regionEmoji":"🌆"},{"placeId":"chinatown_petaling","name":"Petaling Street Chinatown","nameIt":"Jalan Petaling","type":"LANDMARK","lat":3.1408,"lng":101.7,"regionId":"kuala_lumpur","regionName":"Kuala Lumpur","regionEmoji":"🌆"},{"placeId":"thean_hou_temple","name":"Thean Hou Temple","nameIt":"Kuil Thean Hou","type":"LANDMARK","lat":3.1433,"lng":101.6933,"regionId":"kuala_lumpur","regionName":"Kuala Lumpur","regionEmoji":"🌆"},{"placeId":"national_mosque","name":"National Mosque of Malaysia","nameIt":"Masjid Negara","type":"LANDMARK","lat":3.1452,"lng":101.6919,"regionId":"kuala_lumpur","regionName":"Kuala Lumpur","regionEmoji":"🌆"},{"placeId":"lake_gardens","name":"Lake Gardens","nameIt":"Taman Tasik Perdana","type":"NATURE","lat":3.1374,"lng":101.686,"regionId":"kuala_lumpur","regionName":"Kuala Lumpur","regionEmoji":"🌆"},{"placeId":"petronas_art_gallery","name":"Petronas Twin Towers Art Gallery","nameIt":"Galeri Seni Menara Petronas","type":"LANDMARK","lat":3.1578,"lng":101.7123,"regionId":"kuala_lumpur","regionName":"Kuala Lumpur","regionEmoji":"🌆"},{"placeId":"central_market","name":"Central Market","nameIt":"Pasar Seni","type":"LANDMARK","lat":3.1403,"lng":101.695,"regionId":"kuala_lumpur","regionName":"Kuala Lumpur","regionEmoji":"🌆"},{"placeId":"kuala_lumpur_tower","name":"Kuala Lumpur Tower","nameIt":"Menara Kuala Lumpur","type":"LANDMARK","lat":3.1434,"lng":101.6961,"regionId":"kuala_lumpur","regionName":"Kuala Lumpur","regionEmoji":"🌆"},{"placeId":"islamic_arts_museum","name":"Islamic Arts Museum","nameIt":"Muzium Kesenian Islam","type":"LANDMARK","lat":3.1322,"lng":101.6928,"regionId":"kuala_lumpur","regionName":"Kuala Lumpur","regionEmoji":"🌆"},{"placeId":"labuan_town","name":"Labuan Town","nameIt":"Bandar Labuan","type":"CITY","lat":5.2831,"lng":115.2308,"regionId":"labuan","regionName":"Labuan","regionEmoji":"🏝️"},{"placeId":"labuan_war_cemetery","name":"Labuan War Cemetery","nameIt":"Makam Perang Labuan","type":"LANDMARK","lat":5.2917,"lng":115.2311,"regionId":"labuan","regionName":"Labuan","regionEmoji":"🏝️"},{"placeId":"american_memorial","name":"American Memorial Labuan","nameIt":"Tugu Peringatan Amerika","type":"LANDMARK","lat":5.2778,"lng":115.2297,"regionId":"labuan","regionName":"Labuan","regionEmoji":"🏝️"},{"placeId":"chimney_monument","name":"Japanese Chimney Monument","nameIt":"Monumen Cerobong Jepun","type":"LANDMARK","lat":5.2864,"lng":115.2369,"regionId":"labuan","regionName":"Labuan","regionEmoji":"🏝️"},{"placeId":"labuan_marine_park","name":"Labuan Marine Park","nameIt":"Taman Laut Labuan","type":"COASTAL","lat":5.25,"lng":115.25,"regionId":"labuan","regionName":"Labuan","regionEmoji":"🏝️"},{"placeId":"kuraman_island","name":"Kuraman Island","nameIt":"Pulau Kuraman","type":"ISLAND","lat":5.2667,"lng":115.2667,"regionId":"labuan","regionName":"Labuan","regionEmoji":"🏝️"},{"placeId":"daat_island","name":"Daat Island","nameIt":"Pulau Daat","type":"ISLAND","lat":5.2833,"lng":115.2833,"regionId":"labuan","regionName":"Labuan","regionEmoji":"🏝️"},{"placeId":"labuan_museum","name":"Labuan Museum","nameIt":"Muzium Labuan","type":"LANDMARK","lat":5.2897,"lng":115.2289,"regionId":"labuan","regionName":"Labuan","regionEmoji":"🏝️"},{"placeId":"panjang_island","name":"Panjang Island","nameIt":"Pulau Panjang","type":"ISLAND","lat":5.24,"lng":115.28,"regionId":"labuan","regionName":"Labuan","regionEmoji":"🏝️"},{"placeId":"victoria_town","name":"Victoria Town","nameIt":"Kota Victoria","type":"LANDMARK","lat":5.2778,"lng":115.2389,"regionId":"labuan","regionName":"Labuan","regionEmoji":"🏝️"},{"placeId":"melaka_city","name":"Melaka City","nameIt":"Kota Melaka","type":"CITY","lat":2.1896,"lng":102.2501,"regionId":"melaka","regionName":"Melaka","regionEmoji":"⚓"},{"placeId":"jonker_street","name":"Jonker Street","nameIt":"Jalan Jonker","type":"LANDMARK","lat":2.1903,"lng":102.2495,"regionId":"melaka","regionName":"Melaka","regionEmoji":"⚓"},{"placeId":"christ_church","name":"Christ Church","nameIt":"Gereja Kristus","type":"LANDMARK","lat":2.1885,"lng":102.2486,"regionId":"melaka","regionName":"Melaka","regionEmoji":"⚓"},{"placeId":"menara_taming_sari","name":"Menara Taming Sari","nameIt":"Menara Taming Sari","type":"LANDMARK","lat":2.188,"lng":102.2516,"regionId":"melaka","regionName":"Melaka","regionEmoji":"⚓"},{"placeId":"a_famosa_fortress","name":"A Famosa Fortress","nameIt":"Benteng A Famosa","type":"LANDMARK","lat":2.1873,"lng":102.2449,"regionId":"melaka","regionName":"Melaka","regionEmoji":"⚓"},{"placeId":"baba_nyonya_museum","name":"Baba Nyonya Museum","nameIt":"Muzium Baba Nyonya","type":"LANDMARK","lat":2.1915,"lng":102.2489,"regionId":"melaka","regionName":"Melaka","regionEmoji":"⚓"},{"placeId":"melaka_strait_mosque","name":"Melaka Strait Mosque","nameIt":"Masjid Selat Melaka","type":"LANDMARK","lat":2.1625,"lng":102.2549,"regionId":"melaka","regionName":"Melaka","regionEmoji":"⚓"},{"placeId":"dutch_square","name":"Dutch Square","nameIt":"Medan Portugis","type":"LANDMARK","lat":2.1878,"lng":102.2481,"regionId":"melaka","regionName":"Melaka","regionEmoji":"⚓"},{"placeId":"bukit_cina","name":"Bukit Cina","nameIt":"Bukit Cina","type":"LANDMARK","lat":2.1978,"lng":102.2531,"regionId":"melaka","regionName":"Melaka","regionEmoji":"⚓"},{"placeId":"cheng_hoon_teng_temple","name":"Cheng Hoon Teng Temple","nameIt":"Kuil Cheng Hoon Teng","type":"LANDMARK","lat":2.1925,"lng":102.2481,"regionId":"melaka","regionName":"Melaka","regionEmoji":"⚓"},{"placeId":"melaka_river","name":"Melaka River","nameIt":"Sungai Melaka","type":"LANDMARK","lat":2.1885,"lng":102.2505,"regionId":"melaka","regionName":"Melaka","regionEmoji":"⚓"},{"placeId":"pulau_lengkuas","name":"Pulau Lengkuas","nameIt":"Pulau Lengkuas","type":"ISLAND","lat":1.8667,"lng":102.3167,"regionId":"melaka","regionName":"Melaka","regionEmoji":"⚓"},{"placeId":"tanjung_bidara_beach","name":"Tanjung Bidara Beach","nameIt":"Pantai Tanjung Bidara","type":"COASTAL","lat":2.2667,"lng":102.1833,"regionId":"melaka","regionName":"Melaka","regionEmoji":"⚓"},{"placeId":"melaka_museum","name":"Melaka Museum","nameIt":"Muzium Melaka","type":"LANDMARK","lat":2.1873,"lng":102.2449,"regionId":"melaka","regionName":"Melaka","regionEmoji":"⚓"},{"placeId":"seremban","name":"Seremban","nameIt":"Seremban","type":"CITY","lat":2.7258,"lng":101.9424,"regionId":"negeri_sembilan","regionName":"Negeri Sembilan","regionEmoji":"⛰️"},{"placeId":"kuala_pilah","name":"Kuala Pilah","nameIt":"Kuala Pilah","type":"TOWN","lat":2.7833,"lng":101.5167,"regionId":"negeri_sembilan","regionName":"Negeri Sembilan","regionEmoji":"⛰️"},{"placeId":"nilai","name":"Nilai","nameIt":"Nilai","type":"TOWN","lat":2.8264,"lng":101.8186,"regionId":"negeri_sembilan","regionName":"Negeri Sembilan","regionEmoji":"⛰️"},{"placeId":"port_dickson","name":"Port Dickson","nameIt":"Port Dickson","type":"COASTAL","lat":2.5244,"lng":101.8061,"regionId":"negeri_sembilan","regionName":"Negeri Sembilan","regionEmoji":"⛰️"},{"placeId":"taman_negara_kuala_tahan","name":"Taman Negara National Park","nameIt":"Taman Negara","type":"NATURE","lat":4.2667,"lng":102.3,"regionId":"negeri_sembilan","regionName":"Negeri Sembilan","regionEmoji":"⛰️"},{"placeId":"seremban_lake_garden","name":"Seremban Lake Garden","nameIt":"Taman Tasik Seremban","type":"LANDMARK","lat":2.7167,"lng":101.9333,"regionId":"negeri_sembilan","regionName":"Negeri Sembilan","regionEmoji":"⛰️"},{"placeId":"minangkabau_architecture","name":"Minangkabau Architecture Sites","nameIt":"Bangunan Minangkabau","type":"LANDMARK","lat":2.7258,"lng":101.9424,"regionId":"negeri_sembilan","regionName":"Negeri Sembilan","regionEmoji":"⛰️"},{"placeId":"pasir_panjang","name":"Pasir Panjang","nameIt":"Pasir Panjang","type":"VILLAGE","lat":2.5,"lng":101.8,"regionId":"negeri_sembilan","regionName":"Negeri Sembilan","regionEmoji":"⛰️"},{"placeId":"jelebu","name":"Jelebu","nameIt":"Jelebu","type":"TOWN","lat":3.2,"lng":101.6333,"regionId":"negeri_sembilan","regionName":"Negeri Sembilan","regionEmoji":"⛰️"},{"placeId":"segamat_waterfall","name":"Segamat Waterfall","nameIt":"Air Terjun Segamat","type":"NATURE","lat":2.8167,"lng":101.9667,"regionId":"negeri_sembilan","regionName":"Negeri Sembilan","regionEmoji":"⛰️"},{"placeId":"kuantan","name":"Kuantan","nameIt":"Kuantan","type":"CITY","lat":3.8242,"lng":103.3256,"regionId":"pahang","regionName":"Pahang","regionEmoji":"🏞️"},{"placeId":"cherating","name":"Cherating","nameIt":"Cherating","type":"COASTAL","lat":3.8331,"lng":103.4381,"regionId":"pahang","regionName":"Pahang","regionEmoji":"🏞️"},{"placeId":"pahang_taman_negara","name":"Taman Negara","nameIt":"Taman Negara","type":"NATURE","lat":4.4184,"lng":102.3,"regionId":"pahang","regionName":"Pahang","regionEmoji":"🏞️"},{"placeId":"gua_charas","name":"Gua Charas","nameIt":"Gua Charas","type":"LANDMARK","lat":4.2089,"lng":101.9544,"regionId":"pahang","regionName":"Pahang","regionEmoji":"🏞️"},{"placeId":"pekan","name":"Pekan","nameIt":"Pekan","type":"TOWN","lat":3.5025,"lng":103.3931,"regionId":"pahang","regionName":"Pahang","regionEmoji":"🏞️"},{"placeId":"kuala_lipis","name":"Kuala Lipis","nameIt":"Kuala Lipis","type":"TOWN","lat":4.7833,"lng":101.9667,"regionId":"pahang","regionName":"Pahang","regionEmoji":"🏞️"},{"placeId":"raub","name":"Raub","nameIt":"Raub","type":"TOWN","lat":3.8119,"lng":101.8297,"regionId":"pahang","regionName":"Pahang","regionEmoji":"🏞️"},{"placeId":"sungai_lembing","name":"Sungai Lembing","nameIt":"Sungai Lembing","type":"TOWN","lat":3.9086,"lng":102.0603,"regionId":"pahang","regionName":"Pahang","regionEmoji":"🏞️"},{"placeId":"rompin","name":"Rompin","nameIt":"Rompin","type":"COASTAL","lat":3.3642,"lng":103.5167,"regionId":"pahang","regionName":"Pahang","regionEmoji":"🏞️"},{"placeId":"genting_sempah","name":"Genting Sempah","nameIt":"Genting Sempah","type":"NATURE","lat":3.3333,"lng":101.5,"regionId":"pahang","regionName":"Pahang","regionEmoji":"🏞️"},{"placeId":"georgetown","name":"Georgetown","nameIt":"George Town","type":"CITY","lat":5.4164,"lng":100.3327,"regionId":"penang","regionName":"Penang","regionEmoji":"🏖️","image":"https://images.unsplash.com/photo-1579962738895-c26093956e8b?ixid=M3w5NTU4NjF8MHwxfHNlYXJjaHwxfHxHZW9yZ2V0b3duJTIwUGVuYW5nJTIwY29sb25pYWwlMjBhcmNoaXRlY3R1cmV8ZW58MXwwfHx8MTc4NDAzODE5Mnww&ixlib=rb-4.1.0&crop=entropy&cs=tinysrgb&fit=max&fm=jpg&q=80&w=1080"},{"placeId":"penang_hill","name":"Penang Hill","nameIt":"Bukit Bendera","type":"LANDMARK","lat":5.3806,"lng":100.2806,"regionId":"penang","regionName":"Penang","regionEmoji":"🏖️"},{"placeId":"kek_lok_si","name":"Kek Lok Si Temple","nameIt":"Kek Lok Si","type":"LANDMARK","lat":5.3597,"lng":100.2083,"regionId":"penang","regionName":"Penang","regionEmoji":"🏖️","image":"https://images.unsplash.com/photo-1590159006560-9f35d110a1ae?ixid=M3w5NTU4NjF8MHwxfHNlYXJjaHwxfHxLZWslMjBMb2slMjBTaSUyMFRlbXBsZSUyMHBhZ29kYSUyMGFlcmlhbHxlbnwxfDB8fHwxNzg0MDM4MTk2fDA&ixlib=rb-4.1.0&crop=entropy&cs=tinysrgb&fit=max&fm=jpg&q=80&w=1080"},{"placeId":"clan_temples","name":"Clan Temple District","nameIt":"Clan Temples Georgetown","type":"LANDMARK","lat":5.4141,"lng":100.3356,"regionId":"penang","regionName":"Penang","regionEmoji":"🏖️","image":"https://images.unsplash.com/photo-1519491050282-cf00c82424b4?ixid=M3w5NTU4NjF8MHwxfHNlYXJjaHwxfHxHZW9yZ2V0b3duJTIwY2xhbiUyMHRlbXBsZXMlMjBpbnRlcmlvcnxlbnwxfDB8fHwxNzg0MDM4MTk3fDA&ixlib=rb-4.1.0&crop=entropy&cs=tinysrgb&fit=max&fm=jpg&q=80&w=1080"},{"placeId":"penang_street_art","name":"Street Art & Murals","nameIt":"Georgetown Street Art","type":"LANDMARK","lat":5.415,"lng":100.335,"regionId":"penang","regionName":"Penang","regionEmoji":"🏖️","image":"https://images.unsplash.com/photo-1546610837-ac8c1a75be1d?ixid=M3w5NTU4NjF8MHwxfHNlYXJjaHwxfHxHZW9yZ2V0b3duJTIwc3RyZWV0JTIwYXJ0JTIwbXVyYWxzfGVufDF8MHx8fDE3ODQwMzgxOTl8MA&ixlib=rb-4.1.0&crop=entropy&cs=tinysrgb&fit=max&fm=jpg&q=80&w=1080"},{"placeId":"batu_ferringhi","name":"Batu Ferringhi Beach","nameIt":"Batu Ferringhi","type":"COASTAL","lat":5.31,"lng":100.2686,"regionId":"penang","regionName":"Penang","regionEmoji":"🏖️","image":"https://images.unsplash.com/photo-1679533130124-7b8ac5a013ee?ixid=M3w5NTU4NjF8MHwxfHNlYXJjaHwxfHxCYXR1JTIwRmVycmluZ2hpJTIwYmVhY2glMjBzdW5zZXR8ZW58MXwwfHx8MTc4NDAzODIwMXww&ixlib=rb-4.1.0&crop=entropy&cs=tinysrgb&fit=max&fm=jpg&q=80&w=1080"},{"placeId":"penang_national_park","name":"Penang National Park","nameIt":"Taman Negara Pulau Pinang","type":"NATURE","lat":5.2647,"lng":100.1997,"regionId":"penang","regionName":"Penang","regionEmoji":"🏖️"},{"placeId":"cheong_fatt_tze","name":"Cheong Fatt Tze Mansion","nameIt":"Blue Mansion","type":"LANDMARK","lat":5.4167,"lng":100.3289,"regionId":"penang","regionName":"Penang","regionEmoji":"🏖️","image":"https://images.unsplash.com/photo-1729951205706-5fe906782cee?ixid=M3w5NTU4NjF8MHwxfHNlYXJjaHwxfHxCbHVlJTIwTWFuc2lvbiUyMENoZW9uZyUyMEZhdHQlMjBUemUlMjBleHRlcmlvcnxlbnwxfDB8fHwxNzg0MDM4MjA2fDA&ixlib=rb-4.1.0&crop=entropy&cs=tinysrgb&fit=max&fm=jpg&q=80&w=1080"},{"placeId":"penang_spice_garden","name":"Penang Spice Garden","nameIt":"Penang Spice Garden","type":"NATURE","lat":5.295,"lng":100.2317,"regionId":"penang","regionName":"Penang","regionEmoji":"🏖️","image":"https://images.unsplash.com/photo-1639177212237-3bfa137fe7ab?ixid=M3w5NTU4NjF8MHwxfHNlYXJjaHwxfHxQZW5hbmclMjBTcGljZSUyMEdhcmRlbiUyMHRyb3BpY2FsJTIwcGxhbnRzfGVufDF8MHx8fDE3ODQwMzgyMDh8MA&ixlib=rb-4.1.0&crop=entropy&cs=tinysrgb&fit=max&fm=jpg&q=80&w=1080"},{"placeId":"snake_temple","name":"Snake Temple","nameIt":"Thean Hou Temple","type":"LANDMARK","lat":5.2583,"lng":100.2867,"regionId":"penang","regionName":"Penang","regionEmoji":"🏖️","image":"https://images.unsplash.com/photo-1605051538177-72c289389de5?ixid=M3w5NTU4NjF8MHwxfHNlYXJjaHwxfHxTbmFrZSUyMFRlbXBsZSUyMHBpdCUyMHZpcGVyfGVufDF8MHx8fDE3ODQwMzgyMTB8MA&ixlib=rb-4.1.0&crop=entropy&cs=tinysrgb&fit=max&fm=jpg&q=80&w=1080"},{"placeId":"air_itam","name":"Air Itam","nameIt":"Air Itam","type":"TOWN","lat":5.3625,"lng":100.2822,"regionId":"penang","regionName":"Penang","regionEmoji":"🏖️"},{"placeId":"entopia","name":"Entopia Butterfly Garden","nameIt":"Entopia","type":"LANDMARK","lat":5.2733,"lng":100.2489,"regionId":"penang","regionName":"Penang","regionEmoji":"🏖️"},{"placeId":"cameron_highlands","name":"Cameron Highlands Day Trip","nameIt":"Cameron Highlands","type":"NATURE","lat":4.4667,"lng":101.3667,"regionId":"penang","regionName":"Penang","regionEmoji":"🏖️","image":"https://images.unsplash.com/photo-1674384696285-a4239c8609b7?ixid=M3w5NTU4NjF8MHwxfHNlYXJjaHwxfHxDYW1lcm9uJTIwSGlnaGxhbmRzJTIwdGVhJTIwcGxhbnRhdGlvbnxlbnwxfDB8fHwxNzg0MDM4MjE0fDA&ixlib=rb-4.1.0&crop=entropy&cs=tinysrgb&fit=max&fm=jpg&q=80&w=1080"},{"placeId":"george_town","name":"George Town","type":"CITY","lat":5.4164,"lng":100.3327,"regionId":"penang","regionName":"Penang","regionEmoji":"🏖️","image":"https://images.unsplash.com/photo-1579962738895-c26093956e8b?ixid=M3w5NTU4NjF8MHwxfHNlYXJjaHwxfHxHZW9yZ2UlMjBUb3duJTIwTWFsYXlzaWF8ZW58MXwwfHx8MTc4NDAzODIxNnww&ixlib=rb-4.1.0&crop=entropy&cs=tinysrgb&fit=max&fm=jpg&q=80&w=1080"},{"placeId":"ipoh","name":"Ipoh","nameIt":"Ipoh","type":"CITY","lat":3.2048,"lng":101.5901,"regionId":"perak","regionName":"Perak","regionEmoji":"⛏️"},{"placeId":"cameron_highlands","name":"Cameron Highlands","nameIt":"Cameron Highlands","type":"NATURE","lat":4.4684,"lng":101.3688,"regionId":"perak","regionName":"Perak","regionEmoji":"⛏️"},{"placeId":"lumut","name":"Lumut","nameIt":"Lumut","type":"COASTAL","lat":3.8167,"lng":101.8333,"regionId":"perak","regionName":"Perak","regionEmoji":"⛏️"},{"placeId":"pangkor_island","name":"Pangkor Island","nameIt":"Pulau Pangkor","type":"ISLAND","lat":3.8333,"lng":101.1667,"regionId":"perak","regionName":"Perak","regionEmoji":"⛏️"},{"placeId":"perak_taman_negara","name":"Taman Negara (Perak Section)","nameIt":"Taman Negara","type":"NATURE","lat":4.2667,"lng":102.3,"regionId":"perak","regionName":"Perak","regionEmoji":"⛏️"},{"placeId":"ipoh_caves","name":"Cave Temples (Sam Poh Tong, Perak Tong)","nameIt":"Sam Poh Tong, Perak Tong","type":"LANDMARK","lat":3.2167,"lng":101.6167,"regionId":"perak","regionName":"Perak","regionEmoji":"⛏️"},{"placeId":"teluk_intan","name":"Teluk Intan","nameIt":"Teluk Intan","type":"TOWN","lat":3.3033,"lng":101.5287,"regionId":"perak","regionName":"Perak","regionEmoji":"⛏️"},{"placeId":"tai_tam","name":"Taiping","nameIt":"Taiping","type":"TOWN","lat":3.2333,"lng":101.2167,"regionId":"perak","regionName":"Perak","regionEmoji":"⛏️"},{"placeId":"kuala_kangsar","name":"Kuala Kangsar","nameIt":"Kuala Kangsar","type":"TOWN","lat":4.8,"lng":101.55,"regionId":"perak","regionName":"Perak","regionEmoji":"⛏️"},{"placeId":"kinta_nature_park","name":"Kinta Nature Park","nameIt":"Taman Alam Kinta","type":"NATURE","lat":3.3833,"lng":101.5667,"regionId":"perak","regionName":"Perak","regionEmoji":"⛏️"},{"placeId":"lenggong","name":"Lenggong Valley","nameIt":"Lembah Lenggong","type":"NATURE","lat":5.2833,"lng":101.35,"regionId":"perak","regionName":"Perak","regionEmoji":"⛏️"},{"placeId":"gua_tempurung","name":"Gua Tempurung","nameIt":"Gua Tempurung","type":"LANDMARK","lat":4.3583,"lng":101.6417,"regionId":"perak","regionName":"Perak","regionEmoji":"⛏️"},{"placeId":"kangar_town","name":"Kangar","nameIt":"Kangar","type":"CITY","lat":6.4349,"lng":100.2048,"regionId":"perlis","regionName":"Perlis","regionEmoji":"🌄"},{"placeId":"wang_kelian_border","name":"Wang Kelian Border Market","nameIt":"Wang Kelian","type":"LANDMARK","lat":6.4178,"lng":100.2897,"regionId":"perlis","regionName":"Perlis","regionEmoji":"🌄"},{"placeId":"arau_town","name":"Arau","nameIt":"Arau","type":"TOWN","lat":6.4583,"lng":100.3092,"regionId":"perlis","regionName":"Perlis","regionEmoji":"🌄"},{"placeId":"kuala_perlis","name":"Kuala Perlis","nameIt":"Kuala Perlis","type":"COASTAL","lat":6.4247,"lng":100.2061,"regionId":"perlis","regionName":"Perlis","regionEmoji":"🌄"},{"placeId":"padang_besar","name":"Padang Besar","nameIt":"Padang Besar","type":"TOWN","lat":6.6447,"lng":100.3167,"regionId":"perlis","regionName":"Perlis","regionEmoji":"🌄"},{"placeId":"bukit_bintang","name":"Bukit Bintang Park","nameIt":"Bukit Bintang","type":"NATURE","lat":6.5033,"lng":100.2667,"regionId":"perlis","regionName":"Perlis","regionEmoji":"🌄"},{"placeId":"gua_kelam","name":"Gua Kelam","nameIt":"Gua Kelam","type":"NATURE","lat":6.4467,"lng":100.2817,"regionId":"perlis","regionName":"Perlis","regionEmoji":"🌄"},{"placeId":"perlis_state_park","name":"Perlis State Park","nameIt":"Taman Negeri Perlis","type":"NATURE","lat":6.55,"lng":100.25,"regionId":"perlis","regionName":"Perlis","regionEmoji":"🌄"},{"placeId":"kaki_bukit","name":"Kaki Bukit","nameIt":"Kaki Bukit","type":"VILLAGE","lat":6.44,"lng":100.28,"regionId":"perlis","regionName":"Perlis","regionEmoji":"🌄"},{"placeId":"kangar_central_market","name":"Kangar Central Market","nameIt":"Pasar Pusat Kangar","type":"LANDMARK","lat":6.4323,"lng":100.2067,"regionId":"perlis","regionName":"Perlis","regionEmoji":"🌄"},{"placeId":"perlis_museum","name":"Perlis State Museum","nameIt":"Muzium Negeri Perlis","type":"LANDMARK","lat":6.4283,"lng":100.2117,"regionId":"perlis","regionName":"Perlis","regionEmoji":"🌄"},{"placeId":"putrajaya_city_center","name":"Putrajaya City Centre","nameIt":"Pusat Bandar Putrajaya","type":"CITY","lat":2.7258,"lng":101.6964,"regionId":"putrajaya","regionName":"Putrajaya","regionEmoji":"🏛️","image":"https://images.unsplash.com/photo-1655431941419-3dfd1f7e5a1c?ixid=M3w5NTU4NjF8MHwxfHNlYXJjaHwxfHxQdXRyYWpheWElMjBnb3Zlcm5tZW50JTIwYnVpbGRpbmdzJTIwYXJjaGl0ZWN0dXJlfGVufDF8MHx8fDE3ODQwMzQ5NzR8MA&ixlib=rb-4.1.0&crop=entropy&cs=tinysrgb&fit=max&fm=jpg&q=80&w=1080"},{"placeId":"putrajaya_lake","name":"Putrajaya Lake","nameIt":"Tasik Putrajaya","type":"NATURE","lat":2.718,"lng":101.685,"regionId":"putrajaya","regionName":"Putrajaya","regionEmoji":"🏛️","image":"https://images.unsplash.com/photo-1657525033072-3c918b200ae7?ixid=M3w5NTU4NjF8MHwxfHNlYXJjaHwxfHxQdXRyYWpheWElMjBMYWtlJTIwd2F0ZXIlMjBzcG9ydHN8ZW58MXwwfHx8MTc4NDAzNDk3Nnww&ixlib=rb-4.1.0&crop=entropy&cs=tinysrgb&fit=max&fm=jpg&q=80&w=1080"},{"placeId":"putra_mosque","name":"Putra Mosque","nameIt":"Masjid Putra","type":"LANDMARK","lat":2.7263,"lng":101.6945,"regionId":"putrajaya","regionName":"Putrajaya","regionEmoji":"🏛️","image":"https://images.unsplash.com/photo-1574310886178-20688c28aeb1?ixid=M3w5NTU4NjF8MHwxfHNlYXJjaHwxfHxQdXRyYSUyME1vc3F1ZSUyMHBpbmslMjBkb21lJTIwUHV0cmFqYXlhfGVufDF8MHx8fDE3ODQwMzQ5Nzh8MA&ixlib=rb-4.1.0&crop=entropy&cs=tinysrgb&fit=max&fm=jpg&q=80&w=1080"},{"placeId":"perdana_putra","name":"Perdana Putra","nameIt":"Perdana Putra","type":"LANDMARK","lat":2.7378,"lng":101.6992,"regionId":"putrajaya","regionName":"Putrajaya","regionEmoji":"🏛️"},{"placeId":"iron_mosque","name":"Iron Mosque","nameIt":"Masjid Besi","type":"LANDMARK","lat":2.7442,"lng":101.7128,"regionId":"putrajaya","regionName":"Putrajaya","regionEmoji":"🏛️","image":"https://images.unsplash.com/photo-1574310886178-20688c28aeb1?ixid=M3w5NTU4NjF8MHwxfHNlYXJjaHwxfHxJcm9uJTIwTW9zcXVlJTIwc3RlZWwlMjBhcmNoaXRlY3R1cmUlMjBQdXRyYWpheWF8ZW58MXwwfHx8MTc4NDAzNDk4MXww&ixlib=rb-4.1.0&crop=entropy&cs=tinysrgb&fit=max&fm=jpg&q=80&w=1080"},{"placeId":"ministry_finance_bridge","name":"Ministry of Finance Complex and Bridge","nameIt":"Kompleks Kementerian Kewangan","type":"LANDMARK","lat":2.7155,"lng":101.6895,"regionId":"putrajaya","regionName":"Putrajaya","regionEmoji":"🏛️","image":"https://images.unsplash.com/photo-1491120184871-082637a22a36?ixid=M3w5NTU4NjF8MHwxfHNlYXJjaHwxfHxNaW5pc3RyeSUyMEZpbmFuY2UlMjBCcmlkZ2UlMjBQdXRyYWpheWF8ZW58MXwwfHx8MTc4NDAzNDk4NHww&ixlib=rb-4.1.0&crop=entropy&cs=tinysrgb&fit=max&fm=jpg&q=80&w=1080"},{"placeId":"botanical_garden","name":"Putrajaya Botanical Garden","nameIt":"Taman Botani Putrajaya","type":"NATURE","lat":2.7384,"lng":101.6518,"regionId":"putrajaya","regionName":"Putrajaya","regionEmoji":"🏛️"},{"placeId":"energy_park","name":"Energy Park Putrajaya","nameIt":"Taman Tenaga Putrajaya","type":"LANDMARK","lat":2.6905,"lng":101.721,"regionId":"putrajaya","regionName":"Putrajaya","regionEmoji":"🏛️","image":"https://images.unsplash.com/photo-1556878255-f758f7acf826?ixid=M3w5NTU4NjF8MHwxfHNlYXJjaHwxfHxFbmVyZ3klMjBQYXJrJTIwUHV0cmFqYXlhJTIwcmlkZXN8ZW58MXwwfHx8MTc4NDAzNDk4N3ww&ixlib=rb-4.1.0&crop=entropy&cs=tinysrgb&fit=max&fm=jpg&q=80&w=1080"},{"placeId":"wilayah_persekutuan_mosque","name":"Wilayah Persekutuan Mosque","nameIt":"Masjid Wilayah Persekutuan","type":"LANDMARK","lat":2.7125,"lng":101.6858,"regionId":"putrajaya","regionName":"Putrajaya","regionEmoji":"🏛️","image":"https://images.unsplash.com/photo-1608020932658-d0e19a69580b?ixid=M3w5NTU4NjF8MHwxfHNlYXJjaHwxfHxXaWxheWFoJTIwUGVyc2VrdXR1YW4lMjBNb3NxdWUlMjBtb2Rlcm4lMjBkZXNpZ258ZW58MXwwfHx8MTc4NDAzNDk4OXww&ixlib=rb-4.1.0&crop=entropy&cs=tinysrgb&fit=max&fm=jpg&q=80&w=1080"},{"placeId":"wetlands_park","name":"Putrajaya Wetlands Park","nameIt":"Taman Lembap Putrajaya","type":"NATURE","lat":2.7598,"lng":101.6652,"regionId":"putrajaya","regionName":"Putrajaya","regionEmoji":"🏛️"},{"placeId":"multimedia_university","name":"Multimedia University","nameIt":"Universiti Multimedia","type":"LANDMARK","lat":2.7522,"lng":101.5722,"regionId":"putrajaya","regionName":"Putrajaya","regionEmoji":"🏛️"},{"placeId":"shopping_mall_pavilion","name":"Pavilion Putrajaya","nameIt":"Pavilion Putrajaya","type":"LANDMARK","lat":2.7247,"lng":101.6957,"regionId":"putrajaya","regionName":"Putrajaya","regionEmoji":"🏛️"},{"placeId":"putrajaya","name":"Putrajaya","type":"CITY","lat":2.9264,"lng":101.6964,"regionId":"putrajaya","regionName":"Putrajaya","regionEmoji":"🏛️"},{"placeId":"kota_kinabalu","name":"Kota Kinabalu","nameIt":"Kota Kinabalu","type":"CITY","lat":5.352,"lng":103.0137,"regionId":"sabah","regionName":"Sabah","regionEmoji":"🏔️","image":"https://images.unsplash.com/photo-1768913737580-67d67212ee69?ixid=M3w5NTU4NjF8MHwxfHNlYXJjaHwxfHxLb3RhJTIwS2luYWJhbHUlMjB3YXRlcmZyb250JTIwc3Vuc2V0fGVufDF8MHx8fDE3ODQwNTA3ODl8MA&ixlib=rb-4.1.0&crop=entropy&cs=tinysrgb&fit=max&fm=jpg&q=80&w=1080"},{"placeId":"mount_kinabalu","name":"Mount Kinabalu","nameIt":"Gunung Kinabalu","type":"NATURE","lat":6.0751,"lng":116.5628,"regionId":"sabah","regionName":"Sabah","regionEmoji":"🏔️","image":"https://images.unsplash.com/photo-1556148174-16cc113b5a6f?ixid=M3w5NTU4NjF8MHwxfHNlYXJjaHwxfHxNb3VudCUyMEtpbmFiYWx1JTIwc3VtbWl0JTIwc3VucmlzZXxlbnwxfDB8fHwxNzg0MDUwNzkxfDA&ixlib=rb-4.1.0&crop=entropy&cs=tinysrgb&fit=max&fm=jpg&q=80&w=1080"},{"placeId":"sandakan","name":"Sandakan","nameIt":"Sandakan","type":"CITY","lat":5.8383,"lng":118.1137,"regionId":"sabah","regionName":"Sabah","regionEmoji":"🏔️"},{"placeId":"sepilok_orangutan_centre","name":"Sepilok Orangutan Rehabilitation Centre","nameIt":"Pusat Rehabilitasi Orangutan Sepilok","type":"NATURE","lat":5.8611,"lng":118.0131,"regionId":"sabah","regionName":"Sabah","regionEmoji":"🏔️","image":"https://images.unsplash.com/photo-1683524714629-d609565ebeba?ixid=M3w5NTU4NjF8MHwxfHNlYXJjaHwxfHxTZXBpbG9rJTIwb3Jhbmd1dGFuJTIwZmVlZGluZyUyMHRpbWV8ZW58MXwwfHx8MTc4NDA1MDc5NHww&ixlib=rb-4.1.0&crop=entropy&cs=tinysrgb&fit=max&fm=jpg&q=80&w=1080"},{"placeId":"tunku_abdul_rahman_park","name":"Tunku Abdul Rahman Park","nameIt":"Taman Tunku Abdul Rahman","type":"ISLAND","lat":5.2833,"lng":103.2833,"regionId":"sabah","regionName":"Sabah","regionEmoji":"🏔️","image":"https://images.unsplash.com/photo-1619681216575-d6b3964fc278?ixid=M3w5NTU4NjF8MHwxfHNlYXJjaHwxfHxUdW5rdSUyMEFiZHVsJTIwUmFobWFuJTIwUGFyayUyMGlzbGFuZHN8ZW58MXwwfHx8MTc4NDA1MDc5N3ww&ixlib=rb-4.1.0&crop=entropy&cs=tinysrgb&fit=max&fm=jpg&q=80&w=1080"},{"placeId":"kinabalu_park","name":"Kinabalu Park","nameIt":"Taman Kinabalu","type":"NATURE","lat":6.03,"lng":116.55,"regionId":"sabah","regionName":"Sabah","regionEmoji":"🏔️"},{"placeId":"semporna","name":"Semporna","nameIt":"Semporna","type":"COASTAL","lat":4.4914,"lng":118.6241,"regionId":"sabah","regionName":"Sabah","regionEmoji":"🏔️","image":"https://images.unsplash.com/photo-1697355420161-5d69d4e16fd4?ixid=M3w5NTU4NjF8MHwxfHNlYXJjaHwxfHxTZW1wb3JuYSUyMGRpdmUlMjBzaXRlJTIwY29yYWwlMjByZWVmfGVufDF8MHx8fDE3ODQwNTA4MDN8MA&ixlib=rb-4.1.0&crop=entropy&cs=tinysrgb&fit=max&fm=jpg&q=80&w=1080"},{"placeId":"sipadan_island","name":"Sipadan Island","nameIt":"Pulau Sipadan","type":"ISLAND","lat":4.1086,"lng":118.6241,"regionId":"sabah","regionName":"Sabah","regionEmoji":"🏔️","image":"https://images.unsplash.com/photo-1654180680389-4141e2912ef6?ixid=M3w5NTU4NjF8MHwxfHNlYXJjaHwxfHxTaXBhZGFuJTIwSXNsYW5kJTIwZGl2aW5nJTIwc2hhcmt8ZW58MXwwfHx8MTc4NDA1MDgwNnww&ixlib=rb-4.1.0&crop=entropy&cs=tinysrgb&fit=max&fm=jpg&q=80&w=1080"},{"placeId":"tawau","name":"Tawau","nameIt":"Tawau","type":"CITY","lat":4.2437,"lng":117.8872,"regionId":"sabah","regionName":"Sabah","regionEmoji":"🏔️"},{"placeId":"kundasang","name":"Kundasang","nameIt":"Kundasang","type":"TOWN","lat":6.0833,"lng":116.5833,"regionId":"sabah","regionName":"Sabah","regionEmoji":"🏔️","image":"https://images.unsplash.com/photo-1767439737266-8dbd3041bf2a?ixid=M3w5NTU4NjF8MHwxfHNlYXJjaHwxfHxLdW5kYXNhbmclMjBoaWdobGFuZCUyMHRvd258ZW58MXwwfHx8MTc4NDA1MDgwOXww&ixlib=rb-4.1.0&crop=entropy&cs=tinysrgb&fit=max&fm=jpg&q=80&w=1080"},{"placeId":"lahad_datu","name":"Lahad Datu","nameIt":"Lahad Datu","type":"TOWN","lat":4.9833,"lng":118.3333,"regionId":"sabah","regionName":"Sabah","regionEmoji":"🏔️"},{"placeId":"danum_valley","name":"Danum Valley Conservation Area","nameIt":"Kawasan Pemuliharaan Lembah Danum","type":"NATURE","lat":5.0167,"lng":118.8167,"regionId":"sabah","regionName":"Sabah","regionEmoji":"🏔️","image":"https://images.unsplash.com/photo-1447752875215-b2761acb3c5d?ixid=M3w5NTU4NjF8MHwxfHNlYXJjaHwxfHxEYW51bSUyMFZhbGxleSUyMHJhaW5mb3Jlc3QlMjBjYW5vcHklMjB3YWxrfGVufDF8MHx8fDE3ODQwNTA4MTN8MA&ixlib=rb-4.1.0&crop=entropy&cs=tinysrgb&fit=max&fm=jpg&q=80&w=1080"},{"placeId":"sandakan_death_march_memorial","name":"Sandakan Death March Memorial","nameIt":"Sandakan Death March Memorial","type":"LANDMARK","lat":5.8383,"lng":118.1137,"regionId":"sabah","regionName":"Sabah","regionEmoji":"🏔️"},{"placeId":"kota_belud","name":"Kota Belud","nameIt":"Kota Belud","type":"TOWN","lat":6.25,"lng":116.8333,"regionId":"sabah","regionName":"Sabah","regionEmoji":"🏔️","image":"https://images.unsplash.com/photo-1598063414123-d8fd7fb018b2?ixid=M3w5NTU4NjF8MHwxfHNlYXJjaHwxfHxLb3RhJTIwQmVsdWQlMjB0YW11JTIwbmF0aXZlJTIwbWFya2V0fGVufDF8MHx8fDE3ODQwNTA4MTd8MA&ixlib=rb-4.1.0&crop=entropy&cs=tinysrgb&fit=max&fm=jpg&q=80&w=1080"},{"placeId":"kuching","name":"Kuching","nameIt":"Kuching","type":"CITY","lat":1.5533,"lng":110.3592,"regionId":"sarawak","regionName":"Sarawak","regionEmoji":"🌴"},{"placeId":"bako_national_park","name":"Bako National Park","nameIt":"Taman Negara Bako","type":"NATURE","lat":1.7136,"lng":110.4667,"regionId":"sarawak","regionName":"Sarawak","regionEmoji":"🌴"},{"placeId":"sibu","name":"Sibu","nameIt":"Sibu","type":"CITY","lat":2.3051,"lng":111.4914,"regionId":"sarawak","regionName":"Sarawak","regionEmoji":"🌴"},{"placeId":"longhouse_experience","name":"Iban Longhouse","nameIt":"Rumah Panjang","type":"VILLAGE","lat":1.8,"lng":111.5,"regionId":"sarawak","regionName":"Sarawak","regionEmoji":"🌴"},{"placeId":"santubong","name":"Santubong","nameIt":"Santubong","type":"COASTAL","lat":1.7406,"lng":110.3306,"regionId":"sarawak","regionName":"Sarawak","regionEmoji":"🌴"},{"placeId":"damai_beach","name":"Damai Beach","nameIt":"Pantai Damai","type":"COASTAL","lat":1.7081,"lng":110.3042,"regionId":"sarawak","regionName":"Sarawak","regionEmoji":"🌴"},{"placeId":"semenggoh_wildlife","name":"Semenggoh Wildlife Centre","nameIt":"Pusat Hidupan Liar Semenggoh","type":"NATURE","lat":1.8228,"lng":110.4131,"regionId":"sarawak","regionName":"Sarawak","regionEmoji":"🌴"},{"placeId":"mulu_national_park","name":"Gunung Mulu National Park","nameIt":"Taman Negara Gunung Mulu","type":"NATURE","lat":4.0421,"lng":114.8048,"regionId":"sarawak","regionName":"Sarawak","regionEmoji":"🌴"},{"placeId":"kuching_museums","name":"Sarawak Museum","nameIt":"Muzium Sarawak","type":"LANDMARK","lat":1.5581,"lng":110.3364,"regionId":"sarawak","regionName":"Sarawak","regionEmoji":"🌴"},{"placeId":"niah_national_park","name":"Niah National Park","nameIt":"Taman Negara Niah","type":"NATURE","lat":3.8356,"lng":113.7844,"regionId":"sarawak","regionName":"Sarawak","regionEmoji":"🌴"},{"placeId":"kinabalu_view","name":"Sandakan and Kinabalu","nameIt":"Sandakan","type":"COASTAL","lat":5.8211,"lng":118.1187,"regionId":"sarawak","regionName":"Sarawak","regionEmoji":"🌴"},{"placeId":"batang_ai","name":"Batang Ai","nameIt":"Batang Ai","type":"NATURE","lat":1.0667,"lng":111.9,"regionId":"sarawak","regionName":"Sarawak","regionEmoji":"🌴"},{"placeId":"kuala_lumpur","name":"Kuala Lumpur","nameIt":"Kuala Lumpur","type":"CITY","lat":3.139,"lng":101.6869,"regionId":"selangor","regionName":"Selangor","regionEmoji":"🏙️"},{"placeId":"shah_alam","name":"Shah Alam","nameIt":"Shah Alam","type":"CITY","lat":3.0573,"lng":101.5243,"regionId":"selangor","regionName":"Selangor","regionEmoji":"🏙️"},{"placeId":"petaling_jaya","name":"Petaling Jaya","nameIt":"Petaling Jaya","type":"CITY","lat":3.1755,"lng":101.5997,"regionId":"selangor","regionName":"Selangor","regionEmoji":"🏙️"},{"placeId":"subang_jaya","name":"Subang Jaya","nameIt":"Subang Jaya","type":"CITY","lat":3.0475,"lng":101.5565,"regionId":"selangor","regionName":"Selangor","regionEmoji":"🏙️"},{"placeId":"klang","name":"Klang","nameIt":"Klang","type":"COASTAL","lat":3.0358,"lng":101.4424,"regionId":"selangor","regionName":"Selangor","regionEmoji":"🏙️"},{"placeId":"port_klang","name":"Port Klang","nameIt":"Port Klang","type":"COASTAL","lat":3.0091,"lng":101.3878,"regionId":"selangor","regionName":"Selangor","regionEmoji":"🏙️"},{"placeId":"sunway_lagoon","name":"Sunway Lagoon","nameIt":"Sunway Lagoon","type":"LANDMARK","lat":3.0329,"lng":101.5865,"regionId":"selangor","regionName":"Selangor","regionEmoji":"🏙️"},{"placeId":"batu_caves","name":"Batu Caves","nameIt":"Batu Caves","type":"NATURE","lat":3.2426,"lng":101.6811,"regionId":"selangor","regionName":"Selangor","regionEmoji":"🏙️"},{"placeId":"genting_highlands","name":"Genting Highlands","nameIt":"Genting Highlands","type":"NATURE","lat":3.4206,"lng":101.8465,"regionId":"selangor","regionName":"Selangor","regionEmoji":"🏙️"},{"placeId":"fraser_hill","name":"Fraser Hill","nameIt":"Fraser Hill","type":"NATURE","lat":3.713,"lng":101.7434,"regionId":"selangor","regionName":"Selangor","regionEmoji":"🏙️"},{"placeId":"selangor_caves","name":"Selangor Caves","nameIt":"Gua Selangor","type":"NATURE","lat":3.3164,"lng":101.4858,"regionId":"selangor","regionName":"Selangor","regionEmoji":"🏙️"},{"placeId":"sepang","name":"Sepang","nameIt":"Sepang","type":"TOWN","lat":2.7258,"lng":101.55,"regionId":"selangor","regionName":"Selangor","regionEmoji":"🏙️"},{"placeId":"ampang","name":"Ampang","nameIt":"Ampang","type":"TOWN","lat":3.1724,"lng":101.6311,"regionId":"selangor","regionName":"Selangor","regionEmoji":"🏙️"},{"placeId":"kajang","name":"Kajang","nameIt":"Kajang","type":"TOWN","lat":2.8455,"lng":101.7952,"regionId":"selangor","regionName":"Selangor","regionEmoji":"🏙️"},{"placeId":"kota_bharu","name":"Kota Bharu","nameIt":"Kota Bharu","type":"CITY","lat":6.1747,"lng":102.2381,"regionId":"terengganu","regionName":"Terengganu","regionEmoji":"🐢"},{"placeId":"perhentian_islands","name":"Perhentian Islands","nameIt":"Pulau Perhentian","type":"ISLAND","lat":5.3633,"lng":102.7267,"regionId":"terengganu","regionName":"Terengganu","regionEmoji":"🐢"},{"placeId":"redang_island","name":"Redang Island","nameIt":"Pulau Redang","type":"ISLAND","lat":5.7667,"lng":103,"regionId":"terengganu","regionName":"Terengganu","regionEmoji":"🐢"},{"placeId":"kuala_terengganu","name":"Kuala Terengganu","nameIt":"Kuala Terengganu","type":"TOWN","lat":5.3117,"lng":103.3267,"regionId":"terengganu","regionName":"Terengganu","regionEmoji":"🐢"},{"placeId":"kenyir_lake","name":"Lake Kenyir","nameIt":"Tasik Kenyir","type":"NATURE","lat":5.3833,"lng":102.6167,"regionId":"terengganu","regionName":"Terengganu","regionEmoji":"🐢"},{"placeId":"kapas_island","name":"Kapas Island","nameIt":"Pulau Kapas","type":"ISLAND","lat":5.2667,"lng":103.4167,"regionId":"terengganu","regionName":"Terengganu","regionEmoji":"🐢"},{"placeId":"merang_beach","name":"Merang Beach","nameIt":"Pantai Merang","type":"COASTAL","lat":5.4667,"lng":103.1667,"regionId":"terengganu","regionName":"Terengganu","regionEmoji":"🐢"},{"placeId":"dungun","name":"Dungun","nameIt":"Dungun","type":"TOWN","lat":4.7583,"lng":103.4167,"regionId":"terengganu","regionName":"Terengganu","regionEmoji":"🐢"},{"placeId":"terengganu_state_museum","name":"Terengganu State Museum","nameIt":"Muzium Negeri Terengganu","type":"LANDMARK","lat":5.3167,"lng":103.3333,"regionId":"terengganu","regionName":"Terengganu","regionEmoji":"🐢"},{"placeId":"marang_village","name":"Marang Village","nameIt":"Kampung Marang","type":"VILLAGE","lat":5.3333,"lng":103.1833,"regionId":"terengganu","regionName":"Terengganu","regionEmoji":"🐢"},{"placeId":"kemaman","name":"Kemaman","nameIt":"Kemaman","type":"TOWN","lat":4.2333,"lng":103.4333,"regionId":"terengganu","regionName":"Terengganu","regionEmoji":"🐢"},{"placeId":"setiu_wetlands","name":"Setiu Wetlands","nameIt":"Pantai Setiu","type":"NATURE","lat":5.7333,"lng":102.7333,"regionId":"terengganu","regionName":"Terengganu","regionEmoji":"🐢"},{"placeId":"perhentian_kecil","name":"Perhentian Kecil Beach","nameIt":"Pantai Perhentian Kecil","type":"COASTAL","lat":5.3583,"lng":102.7417,"regionId":"terengganu","regionName":"Terengganu","regionEmoji":"🐢"}]